{"protocolSection":{"identificationModule":{"nctId":"NCT06717698","orgStudyIdInfo":{"id":"NN9541-7841"},"secondaryIdInfos":[{"id":"U1111-1302-5591","type":"OTHER","domain":"World Health Organization (WHO)"},{"id":"2024-510846-15","type":"OTHER","domain":"European Medical Agency (EMA)"}],"organization":{"fullName":"Novo Nordisk A/S","class":"INDUSTRY"},"briefTitle":"A Research Study Comparing How Well Different Doses of the Medicine NNC0519-0130 Can Reduce Kidney Damage in People Living With Chronic Kidney Disease","officialTitle":"Efficacy, Safety and Pharmacokinetics of NNC0519-0130 Once Weekly s.c. Versussemaglutide 1.0 mg and Placebo in People With Chronic Kidney Disease, With or Without Type 2 Diabetes, and With Overweight or Obesity: a Proof-of-concept and Dose-finding Study"},"statusModule":{"statusVerifiedDate":"2025-06","overallStatus":"RECRUITING","expandedAccessInfo":{"hasExpandedAccess":false},"startDateStruct":{"date":"2024-12-02","type":"ACTUAL"},"primaryCompletionDateStruct":{"date":"2026-09-01","type":"ESTIMATED"},"completionDateStruct":{"date":"2026-09-29","type":"ESTIMATED"},"studyFirstSubmitDate":"2024-11-30","studyFirstSubmitQcDate":"2024-11-30","studyFirstPostDateStruct":{"date":"2024-12-05","type":"ACTUAL"},"lastUpdateSubmitDate":"2025-06-17","lastUpdatePostDateStruct":{"date":"2025-06-18","type":"ACTUAL"}},"sponsorCollaboratorsModule":{"responsibleParty":{"type":"SPONSOR"},"leadSponsor":{"name":"Novo Nordisk A/S","class":"INDUSTRY"}},"oversightModule":{"oversightHasDmc":false,"isFdaRegulatedDrug":true,"isFdaRegulatedDevice":false},"descriptionModule":{"briefSummary":"The study evaluates the safety of different doses of a new medicine called NNC0519 0130. It also looks into how the medicine may improve kidney function in participants with chronic kidney disease with or without type 2 diabetes, living with overweight or obesity. The participants will either get NNC0519-0130 (a new medicine), semaglutide (a medicine that doctors can already prescribe), or placebo (a \"dummy\" substance). Which treatment the participant will get is decided by chance. The study will last for up to 43 weeks."},"conditionsModule":{"conditions":["Chronic Kidney Disease"]},"designModule":{"studyType":"INTERVENTIONAL","phases":["PHASE2"],"designInfo":{"allocation":"RANDOMIZED","interventionModel":"PARALLEL","primaryPurpose":"TREATMENT","maskingInfo":{"masking":"QUADRUPLE","maskingDescription":"Sponsor staff involved in the clinical trial is masked according to company standard procedures.","whoMasked":["PARTICIPANT","CARE_PROVIDER","INVESTIGATOR","OUTCOMES_ASSESSOR"]}},"enrollmentInfo":{"count":465,"type":"ESTIMATED"}},"armsInterventionsModule":{"armGroups":[{"label":"Dosing scheme a: NNC0519-0130","type":"EXPERIMENTAL","description":"Participants will receive once-weekly subcutaneous (s.c) injections of NNC0519-0130 following a fixed dose escalation until the maintenance dose is reached.","interventionNames":["Drug: NNC0519-0130"]},{"label":"Dosing scheme a: Placebo","type":"PLACEBO_COMPARATOR","description":"Participants will receive NNC0519-0130 matched placebo s.c. once-weekly.","interventionNames":["Drug: Placebo"]},{"label":"Dosing scheme b: NNC0519-0130","type":"EXPERIMENTAL","description":"Participants will receive once-weekly s.c injections of NNC0519-0130 following a fixed dose escalation until the maintenance dose is reached.","interventionNames":["Drug: NNC0519-0130"]},{"label":"Dosing scheme b: Placebo","type":"PLACEBO_COMPARATOR","description":"Participants will receive NNC0519-0130 matched placebo s.c. once-weekly.","interventionNames":["Drug: Placebo"]},{"label":"Dosing scheme c: NNC0519-0130","type":"EXPERIMENTAL","description":"Participants will receive once-weekly s.c injections of NNC0519-0130 following a fixed dose escalation until the maintenance dose is reached.","interventionNames":["Drug: NNC0519-0130"]},{"label":"Dosing scheme c: Placebo","type":"PLACEBO_COMPARATOR","description":"Participants will receive NNC0519-0130 matched placebo s.c. once-weekly.","interventionNames":["Drug: Placebo"]},{"label":"Dosing scheme d: NNC0519-0130","type":"EXPERIMENTAL","description":"Participants will receive once-weekly s.c injections of NNC0519-0130 following a fixed dose escalation until the maintenance dose is reached.","interventionNames":["Drug: NNC0519-0130"]},{"label":"Dosing scheme d: Placebo","type":"PLACEBO_COMPARATOR","description":"Participants will receive NNC0519-0130 matched placebo s.c. once-weekly.","interventionNames":["Drug: Placebo"]},{"label":"Dosing scheme e: Semaglutide","type":"ACTIVE_COMPARATOR","description":"Participants will receive once-weekly s.c injections of semaglutide with a dose escalation done until maintenance dose is reached.","interventionNames":["Drug: Semaglutide"]}],"interventions":[{"type":"DRUG","name":"NNC0519-0130","description":"NNC0519-0130 will be administered subcutaneously.","armGroupLabels":["Dosing scheme a: NNC0519-0130","Dosing scheme b: NNC0519-0130","Dosing scheme c: NNC0519-0130","Dosing scheme d: NNC0519-0130"]},{"type":"DRUG","name":"Placebo","description":"Placebo matching NNC0519-0130 will be administered subcutaneously.","armGroupLabels":["Dosing scheme a: Placebo","Dosing scheme b: Placebo","Dosing scheme c: Placebo","Dosing scheme d: Placebo"]},{"type":"DRUG","name":"Semaglutide","description":"Semaglutide will be administered subcutaneously.","armGroupLabels":["Dosing scheme e: Semaglutide"]}]},"outcomesModule":{"primaryOutcomes":[{"measure":"Change in urinary albumin-to-creatinine ratio (UACR) at week 12","description":"Measured as a ratio to baseline.","timeFrame":"From baseline (week 0) to end of a given maintenance dose period (week 12)"},{"measure":"Change in urinary albumin-to-creatinine ratio (UACR) at week 24","description":"Measured as a ratio to baseline.","timeFrame":"From baseline (week 0) to end of a given maintenance dose period (week 24)"},{"measure":"Change in urinary albumin-to-creatinine ratio (UACR) at week 36","description":"Measured as a ratio to baseline.","timeFrame":"From baseline (week 0) to end of a given maintenance dose period (week 36)"}],"secondaryOutcomes":[{"measure":"Change in estimated glomerular filtration rate (eGFR) (creatinine and cystatin C-based Chronic Kidney Disease Epidemiology Collaboration [CKD-EPI] 2021)","description":"Measured in mililitre per minute per 1.73 square metre (mL/min/1.73 m\\^2).","timeFrame":"From baseline (week 0) to end of treatment (week 36)"},{"measure":"Change in estimated glomerular filtration rate (eGFR) (creatinine-based CKD-EPI 2021)","description":"Measured in mililitre per minute per 1.73 square metre (mL/min/1.73 m\\^2).","timeFrame":"From baseline (week 0) to end of treatment (week 36)"},{"measure":"Relative change in body weight","description":"Measured in percentage (%).","timeFrame":"From baseline (week 0) to end of treatment (week 36)"},{"measure":"Achievement of greater than or equal to (≥) 5 percentage (%) weight reduction","description":"Measured as count of participants.","timeFrame":"From baseline (week 0) to end of treatment (week 36)"},{"measure":"Achievement of greater than or equal to (≥) 10 percentage (%) weight reduction","description":"Measured as count of participants.","timeFrame":"From baseline (week 0) to end of treatment (week 36)"},{"measure":"Change in waist circumference","description":"Measured in centimetres (cm).","timeFrame":"From baseline (week 0) to end of treatment (week 36)"},{"measure":"Change in glycated haemoglobin (HbA1c)","description":"Measured in percentage point (%-point).","timeFrame":"From baseline (week 0) to end of a given maintenance dose period (week 12, 24 or 36)"},{"measure":"Change in systolic blood pressure","description":"Measured in millimetres of mercury (mmHg).","timeFrame":"From baseline (week 0) to end of treatment (week 36)"},{"measure":"Change in diastolic blood pressure","description":"Measured in millimetres of mercury (mmHg).","timeFrame":"From baseline (week 0) to end of treatment (week 36)"},{"measure":"Number of treatment emergent adverse events (TEAEs)","description":"Measured as count of events.","timeFrame":"From baseline (week 0) to end of study (week 40)"}]},"eligibilityModule":{"eligibilityCriteria":"Inclusion Criteria:\n\n* Female of non-childbearing potential, or male.\n\n  * For US only: Female of childbearing potential using highly effective non-systemic methods of contraception with low user-dependency at least 2 months prior to screening and willingness to continue using it through-out the study, or male.\n* Age 18 years or above at the time of signing the informed consent.\n* Diagnosed with type 2 diabetes mellitus greater than or equal to (≥) 180 days before screening, or not diagnosed with type 2 diabetes mellitus.\n\n  * HbA1c of 6.5 percentage (%)-10.5 percentage (%) \\[48 - 91 millimoles per mole (mmol/mol)\\] (both inclusive) if diagnosed with type 2 diabetes mellitus, or HbA1c of less than (\\<)6.5 percentage (%) \\[\\<48 mmol/mol\\] if not diagnosed with type 2 diabetes mellitus.\n* BMI greater than or equal to (≥) 27.0 kilogram per square metre (kg/m\\^2) at screening.\n* Kidney impairment defined by serum creatinine and cystatin C-based Egfr greater than or equal to (≥) 15 and less than (\\<) 90 mL/min/1.73 m\\^2.\n* Albuminuria defined by Urine Albumin-to-Creatinine Ratio (UACR) greater than or equal (≥)100 and less than (\\<) 5000 milligram per gram (mg/g).\n* Treatment with maximum labelled or tolerated dose of an angiotensin converting enzyme (ACE) inhibitor or an angiotensin II receptor blocker (ARB), unless such treatment is contraindicated or not tolerated, in the opinion of the investigator. Treatment dose must be stable for at least 30 days prior to screening.\n\nExclusion Criteria:\n\n* Female who is pregnant, breast-feeding or intends to become pregnant or is of childbearing potential and not using highly effective non-systemic contraception with low user-dependency.\n* Lupus nephritis or antineutrophil cytoplasmic antibody (ANCA)-associated vasculitis.\n* Receiving immunosuppressive therapy for primary or secondary renal disease within 6 months prior to screening.\n* Use of any glucagon-like peptide-1 (GLP-1) RA (including medication with GLP-1 RA activity, e.g., GIP/GLP-1 RA) within 90 days prior to screening.\n* Myocardial infarction, stroke, transient ischaemic attack, or hospitalization for unstable angina pectoris within 180 days before screening.\n* Chronic or intermittent haemodialysis or peritoneal dialysis within 90 days before screening.\n* Only applicable for participants with type 2 diabetes (T2D): Uncontrolled and potentially unstable diabetic retinopathy or diabetic maculopathy. Verified by an eye examination performed within 90 days before screening or in the period between screening and randomisation. Pharmacological pupil-dilation is a requirement unless using a digital fundus photography camera specified for non-dilated examination.\n* Presence or history of malignant neoplasms or in situ carcinomas (other than basal or squamous cell skin cancer, low-risk prostate cancer, or in-situ carcinomas of the cervix or carcinoma in situ/high grade prostatic intraepithelial neoplasia (PIN)) within 5 years before screening.","healthyVolunteers":false,"sex":"ALL","minimumAge":"18 Years","stdAges":["ADULT","OLDER_ADULT"]},"contactsLocationsModule":{"centralContacts":[{"name":"Novo Nordisk","role":"CONTACT","phone":"(+1) 866-867-7178","email":"clinicaltrials@novonordisk.com"}],"overallOfficials":[{"name":"Clinical Transparency (dept. 2834)","affiliation":"Novo Nordisk A/S","role":"STUDY_DIRECTOR"}],"locations":[{"facility":"N America Res Inst - San Dimas","status":"RECRUITING","city":"San Dimas","state":"California","zip":"91773","country":"United States","geoPoint":{"lat":34.10668,"lon":-117.80673}},{"facility":"NorCal Endocrinology and Internal Medicine","status":"RECRUITING","city":"San Ramon","state":"California","zip":"94583","country":"United States","geoPoint":{"lat":37.77993,"lon":-121.97802}},{"facility":"Rocky Mount Reg VA Med-DN","status":"NOT_YET_RECRUITING","city":"Aurora","state":"Colorado","zip":"80045","country":"United States","geoPoint":{"lat":39.72943,"lon":-104.83192}},{"facility":"Northeast Research Institute","status":"RECRUITING","city":"Fleming Island","state":"Florida","zip":"32003","country":"United States","geoPoint":{"lat":30.0933,"lon":-81.71898}},{"facility":"Encore Medical Research LLC","status":"RECRUITING","city":"Hollywood","state":"Florida","zip":"33021","country":"United States","geoPoint":{"lat":26.0112,"lon":-80.14949}},{"facility":"Northeast Research Institute","status":"RECRUITING","city":"Saint Augustine","state":"Florida","zip":"32080","country":"United States","geoPoint":{"lat":29.89469,"lon":-81.31452}},{"facility":"Clinical Research of Cent FL","status":"RECRUITING","city":"Winter Haven","state":"Florida","zip":"33880","country":"United States","geoPoint":{"lat":28.02224,"lon":-81.73286}},{"facility":"Endeavor Health","status":"WITHDRAWN","city":"Skokie","state":"Illinois","zip":"60077","country":"United States","geoPoint":{"lat":42.03336,"lon":-87.73339}},{"facility":"Velocity Clin. Res Valparaiso","status":"RECRUITING","city":"Valparaiso","state":"Indiana","zip":"46383","country":"United States","geoPoint":{"lat":41.47309,"lon":-87.06114}},{"facility":"Elite Research Center","status":"RECRUITING","city":"Flint","state":"Michigan","zip":"48532","country":"United States","geoPoint":{"lat":43.01253,"lon":-83.68746}},{"facility":"Clinical Research Consultants","status":"NOT_YET_RECRUITING","city":"Kansas City","state":"Missouri","zip":"64111-5964","country":"United States","geoPoint":{"lat":39.09973,"lon":-94.57857}},{"facility":"Albany Medical College","status":"RECRUITING","city":"Albany","state":"New York","zip":"12203","country":"United States","geoPoint":{"lat":42.65258,"lon":-73.75623}},{"facility":"Carteret Medical Group","status":"RECRUITING","city":"Morehead City","state":"North Carolina","zip":"28557","country":"United States","geoPoint":{"lat":34.72294,"lon":-76.72604}},{"facility":"Brookview Hills Research Associates, LLC","status":"RECRUITING","city":"Winston-Salem","state":"North Carolina","zip":"27103","country":"United States","geoPoint":{"lat":36.09986,"lon":-80.24422}},{"facility":"Davita Clinical Research","status":"NOT_YET_RECRUITING","city":"El Paso","state":"Texas","zip":"79902","country":"United States","geoPoint":{"lat":31.75872,"lon":-106.48693}},{"facility":"Clinical Advancement Ctr, PLLC","status":"RECRUITING","city":"San Antonio","state":"Texas","zip":"78212","country":"United States","geoPoint":{"lat":29.42412,"lon":-98.49363}},{"facility":"Tekton Research","status":"RECRUITING","city":"San Antonio","state":"Texas","zip":"78251","country":"United States","geoPoint":{"lat":29.42412,"lon":-98.49363}},{"facility":"Providence Medical Research Center","status":"NOT_YET_RECRUITING","city":"Spokane","state":"Washington","zip":"99204","country":"United States","geoPoint":{"lat":47.65966,"lon":-117.42908}},{"facility":"Centro Médico CIMEL","status":"RECRUITING","city":"Lanus Este","state":"Buenos Aires","zip":"B1824KAJ","country":"Argentina"},{"facility":"Centro de Investigaciones Metabólicas","status":"RECRUITING","city":"City of Buenos Aires","zip":"C1056ABI","country":"Argentina","geoPoint":{"lat":-34.61315,"lon":-58.37723}},{"facility":"Instituto de Cardiología de Corrientes","status":"RECRUITING","city":"Corrientes","zip":"W3400AMY","country":"Argentina","geoPoint":{"lat":-27.4806,"lon":-58.8341}},{"facility":"Renalida","status":"NOT_YET_RECRUITING","city":"Mar Del Plata, Buenos Aires","zip":"B7600","country":"Argentina"},{"facility":"Instituto de Investigaciones Clinicas","status":"RECRUITING","city":"Mar del Plata","zip":"B7600FZN","country":"Argentina","geoPoint":{"lat":-38.00228,"lon":-57.55754}},{"facility":"Castle Hill Medical Centre","status":"NOT_YET_RECRUITING","city":"Castle Hill","state":"New South Wales","zip":"2154","country":"Australia","geoPoint":{"lat":-33.73333,"lon":151.0}},{"facility":"Gosford Renal Research","status":"NOT_YET_RECRUITING","city":"Gosford","state":"New South Wales","zip":"2250","country":"Australia","geoPoint":{"lat":-33.4244,"lon":151.34399}},{"facility":"Heart of Australia","status":"NOT_YET_RECRUITING","city":"Chelmer","state":"Queensland","zip":"4068","country":"Australia","geoPoint":{"lat":-27.51326,"lon":152.97524}},{"facility":"Melbourne Renal Research Group","status":"NOT_YET_RECRUITING","city":"Reservoir","state":"Victoria","zip":"3073","country":"Australia","geoPoint":{"lat":-37.71667,"lon":145.0}},{"facility":"Sunshine Hospital","status":"NOT_YET_RECRUITING","city":"St Albans","state":"Victoria","zip":"3021","country":"Australia","geoPoint":{"lat":-37.73901,"lon":144.80024}},{"facility":"Quanta Diagnóstico Nuclear / Medicina Nuclear Alto da XV","status":"RECRUITING","city":"Curitiba","state":"Parana","zip":"80045-110","country":"Brazil","geoPoint":{"lat":-25.42778,"lon":-49.27306}},{"facility":"Instituto Pró-Renal Brasil","status":"RECRUITING","city":"Curitiba","state":"Parana","zip":"80440-020","country":"Brazil","geoPoint":{"lat":-25.42778,"lon":-49.27306}},{"facility":"Centro de Diabetes Curitiba","status":"RECRUITING","city":"Curitiba","state":"Parana","zip":"80810-040","country":"Brazil","geoPoint":{"lat":-25.42778,"lon":-49.27306}},{"facility":"Irmandade da Santa Casa de Misericórdia de Porto Alegre","status":"RECRUITING","city":"Porto Alegre","state":"Rio Grande Do Sul","zip":"90020-090","country":"Brazil","geoPoint":{"lat":-30.03306,"lon":-51.23}},{"facility":"Núcleo de Pesquisa Clínica do Rio Grande do Sul Ltda.","status":"RECRUITING","city":"Porto Alegre","state":"Rio Grande Do Sul","zip":"90430-001","country":"Brazil","geoPoint":{"lat":-30.03306,"lon":-51.23}},{"facility":"Hospital do Rim e Hipertensao Fundacao Oswaldo Ramos","status":"RECRUITING","city":"Sao Paulo","zip":"04038-002","country":"Brazil","geoPoint":{"lat":-23.5475,"lon":-46.63611}},{"facility":"Specialized Rehabilitation Hospital Zdrave EAD","status":"RECRUITING","city":"Bankya","zip":"1320","country":"Bulgaria"},{"facility":"\"Medical Centre Acad. Iv. Penchev\" EOOD","status":"WITHDRAWN","city":"Sofia","zip":"1431","country":"Bulgaria","geoPoint":{"lat":42.69751,"lon":23.32415}},{"facility":"\"Medical Centre Acad. Iv. Penchev\" EOOD","status":"RECRUITING","city":"Sofia","zip":"1431","country":"Bulgaria","geoPoint":{"lat":42.69751,"lon":23.32415}},{"facility":"USHATE \"Akad. Ivan Penchev\" Second Clinic of Endocrinology","status":"NOT_YET_RECRUITING","city":"Sofia","zip":"1431","country":"Bulgaria","geoPoint":{"lat":42.69751,"lon":23.32415}},{"facility":"\"UMHAT \"Sveta Anna\" Sofia\"","status":"RECRUITING","city":"Sofia","zip":"1750","country":"Bulgaria","geoPoint":{"lat":42.69751,"lon":23.32415}},{"facility":"UMHAT Sofiamed","status":"RECRUITING","city":"Sofia","zip":"1750","country":"Bulgaria","geoPoint":{"lat":42.69751,"lon":23.32415}},{"facility":"UMHAT Sveta Marina EAD","status":"RECRUITING","city":"Varna","zip":"9010","country":"Bulgaria","geoPoint":{"lat":43.21667,"lon":27.91667}},{"facility":"MUDr. Petr Buček s.r.o.","status":"WITHDRAWN","city":"Frýdek Místek","zip":"738 01","country":"Czechia","geoPoint":{"lat":49.68333,"lon":18.35}},{"facility":"CTC Hodonin s.r.o.","status":"WITHDRAWN","city":"Hodonin","zip":"695 01","country":"Czechia","geoPoint":{"lat":48.84893,"lon":17.13244}},{"facility":"FNKV-Internal Clinic-Nephrology","status":"WITHDRAWN","city":"Praha 10","zip":"100 34","country":"Czechia","geoPoint":{"lat":50.08804,"lon":14.42076}},{"facility":"IKEM Klinika nefrologie","status":"WITHDRAWN","city":"Praha 4","zip":"140 21","country":"Czechia","geoPoint":{"lat":50.08804,"lon":14.42076}},{"facility":"Fledip s.r.o.","status":"WITHDRAWN","city":"Praha 6","zip":"160 00","country":"Czechia","geoPoint":{"lat":50.08804,"lon":14.42076}},{"facility":"DiaVize s.r.o.","status":"WITHDRAWN","city":"Praha","zip":"140 00","country":"Czechia","geoPoint":{"lat":50.08804,"lon":14.42076}},{"facility":"Internist Care s.r.o.","status":"WITHDRAWN","city":"Smiřice","zip":"503 03","country":"Czechia","geoPoint":{"lat":50.29978,"lon":15.86508}},{"facility":"Nemocnice Český Krumlov, a.s.","status":"WITHDRAWN","city":"Český Krumlov","zip":"381 01","country":"Czechia","geoPoint":{"lat":48.81091,"lon":14.31521}},{"facility":"Endolife Specialty Hospitals","status":"NOT_YET_RECRUITING","city":"Guntur","state":"Andhra Pradesh","zip":"522001","country":"India","geoPoint":{"lat":16.29974,"lon":80.45729}},{"facility":"MS Ramaiah","status":"NOT_YET_RECRUITING","city":"Bengaluru","state":"Karnataka","zip":"560054","country":"India","geoPoint":{"lat":12.97194,"lon":77.59369}},{"facility":"Government Medical College, Kozhikode","status":"NOT_YET_RECRUITING","city":"Kozhikode","state":"Kerala","zip":"673008","country":"India","geoPoint":{"lat":11.24802,"lon":75.7804}},{"facility":"SMS Medical College & Hospital","status":"NOT_YET_RECRUITING","city":"Jaipur","state":"Rajasthan","zip":"302004","country":"India","geoPoint":{"lat":26.91962,"lon":75.78781}},{"facility":"Diabetes, Thyroid and Endocrine Centre","status":"NOT_YET_RECRUITING","city":"Jaipur","state":"Rajasthan","zip":"302006","country":"India","geoPoint":{"lat":26.91962,"lon":75.78781}},{"facility":"Diabetes Research Center, Hyderabad","status":"NOT_YET_RECRUITING","city":"Hyderabad","state":"Telangana","zip":"500082","country":"India","geoPoint":{"lat":17.38405,"lon":78.45636}},{"facility":"Nizams Institute of Medical Science","status":"NOT_YET_RECRUITING","city":"Hyderabad","state":"Telangana","zip":"500082","country":"India","geoPoint":{"lat":17.38405,"lon":78.45636}},{"facility":"Ospedale San Salvatore, Dipartimento Medico ASL1 Abruzzo, UOC Diabetologia","status":"NOT_YET_RECRUITING","city":"L'Aquila","state":"Abbruzzo","zip":"67100","country":"Italy","geoPoint":{"lat":42.35055,"lon":13.39954}},{"facility":"Università degli studi G. D'Annunzio Chieti Pescara - CAST","status":"RECRUITING","city":"Chieti","state":"Abruzzo","zip":"66100","country":"Italy","geoPoint":{"lat":42.34827,"lon":14.16494}},{"facility":"A.O.U. Bologna_ Policlinico S.Orsola Malpighi","status":"RECRUITING","city":"Bologna","state":"BO","zip":"40138","country":"Italy","geoPoint":{"lat":44.49381,"lon":11.33875}},{"facility":"Azienda Ospedaliera Papa Giovanni XXIII","status":"RECRUITING","city":"Bergamo","zip":"24127","country":"Italy","geoPoint":{"lat":45.69601,"lon":9.66721}},{"facility":"Azienda Ospedaliera Spedali Civili di Brescia","status":"RECRUITING","city":"Brescia","zip":"25121","country":"Italy","geoPoint":{"lat":45.53558,"lon":10.21472}},{"facility":"Azienda Ospedaliera Luigi Sacco","status":"RECRUITING","city":"Milano","zip":"20157","country":"Italy","geoPoint":{"lat":45.46427,"lon":9.18951}},{"facility":"Azienda Ospedaliero Universitaria Pisana Ospedale Cisanello","status":"NOT_YET_RECRUITING","city":"Pisa","zip":"56124","country":"Italy","geoPoint":{"lat":43.70853,"lon":10.4036}},{"facility":"Fondazione Policlinico Universitario Agostino Gemelli IRCCS","status":"RECRUITING","city":"Roma","zip":"00168","country":"Italy","geoPoint":{"lat":41.89193,"lon":12.51133}},{"facility":"Seino Internal Medicine Clinic","status":"NOT_YET_RECRUITING","city":"Koriyama-shi","state":"Fukushima, Japan","zip":"963-8851","country":"Japan","geoPoint":{"lat":37.4,"lon":140.38333}},{"facility":"TOSAKI Clinic for Diabetes and Endocrinology_Diabetes and Endocrinology","status":"RECRUITING","city":"Aichi","zip":"468-0009","country":"Japan","geoPoint":{"lat":32.51879,"lon":130.62158}},{"facility":"Naka Kinen Clinic","status":"RECRUITING","city":"Ibaraki","zip":"311-0113","country":"Japan","geoPoint":{"lat":34.81641,"lon":135.56828}},{"facility":"Fujisawa City Hospital_Kidney internal medicine","status":"RECRUITING","city":"Kanagawa","zip":"251-8550","country":"Japan","geoPoint":{"lat":37.58333,"lon":139.91667}},{"facility":"Higashijujo Sakai Diabetes Clinic_Internal Medicine","status":"RECRUITING","city":"Kita-ku, Tokyo","zip":"114-0001","country":"Japan"},{"facility":"Koshigaya Municipal Hospital_Internal medicine","status":"RECRUITING","city":"Saitama","zip":"343-8577","country":"Japan","geoPoint":{"lat":35.90807,"lon":139.65657}},{"facility":"Hanyu General Hospital_Internal Medicine","status":"WITHDRAWN","city":"Saitama","zip":"348-8505","country":"Japan","geoPoint":{"lat":35.90807,"lon":139.65657}},{"facility":"Shinden Higashi Clinic","status":"RECRUITING","city":"Sendai-shi, Miyagi","zip":"983-0039","country":"Japan","geoPoint":{"lat":38.26667,"lon":140.86667}},{"facility":"Omihachiman Community Medical Center_Nephrology","status":"RECRUITING","city":"Siga","zip":"523-0082","country":"Japan"},{"facility":"Tokyo-Eki Center-building Clinic","status":"NOT_YET_RECRUITING","city":"Tokyo","zip":"103-0027","country":"Japan","geoPoint":{"lat":35.6895,"lon":139.69171}},{"facility":"Fukuwa Clinic","status":"NOT_YET_RECRUITING","city":"Tokyo","zip":"104-0031","country":"Japan","geoPoint":{"lat":35.6895,"lon":139.69171}},{"facility":"Kato Clinic of Internal Medicine","status":"RECRUITING","city":"Tokyo","zip":"125-0054","country":"Japan","geoPoint":{"lat":35.6895,"lon":139.69171}},{"facility":"Pusan National University Hospital","status":"RECRUITING","city":"Busan","zip":"49241","country":"Korea, Republic of","geoPoint":{"lat":35.10278,"lon":129.04028}},{"facility":"National Health Insurance Corporation Ilsan Hospital","status":"RECRUITING","city":"Goyang","zip":"410-719","country":"Korea, Republic of","geoPoint":{"lat":37.65639,"lon":126.835}},{"facility":"Hallym University Sacred Heart Hospital","status":"RECRUITING","city":"Gyeonggi-Do","zip":"14068","country":"Korea, Republic of","geoPoint":{"lat":37.58944,"lon":126.76917}},{"facility":"Hanyang University GURI Hospital","status":"RECRUITING","city":"Gyeonggi-do","zip":"471-101","country":"Korea, Republic of","geoPoint":{"lat":37.58944,"lon":126.76917}},{"facility":"Seoul Saint Mary's Hospital","status":"RECRUITING","city":"Seoul","zip":"06591","country":"Korea, Republic of","geoPoint":{"lat":37.566,"lon":126.9784}},{"facility":"Korea University Guro Hospital","status":"RECRUITING","city":"Seoul","zip":"08308","country":"Korea, Republic of","geoPoint":{"lat":37.566,"lon":126.9784}},{"facility":"Hospital Miri","status":"RECRUITING","city":"Sarawak","state":"Miri","zip":"98000","country":"Malaysia"},{"facility":"Hospital Raja Permaisuri Bainun Ipoh","status":"RECRUITING","city":"Ipoh","state":"Perak","zip":"30450","country":"Malaysia","geoPoint":{"lat":4.5841,"lon":101.0829}},{"facility":"Hospital Sibu","status":"RECRUITING","city":"Sibu","state":"Sarawak","zip":"96000","country":"Malaysia","geoPoint":{"lat":2.29998,"lon":111.81667}},{"facility":"University Malaya Medical Centre","status":"RECRUITING","city":"Kuala Lumpur","state":"Wilayah Persekutuan Kuala Lumpur","zip":"59100","country":"Malaysia","geoPoint":{"lat":3.1412,"lon":101.68653}},{"facility":"Hospital Universiti Sains Malaysia","status":"RECRUITING","city":"Kota Bharu, Kelantan","zip":"16150","country":"Malaysia"},{"facility":"Prince Court Medical Centre","status":"RECRUITING","city":"Kuala Lumpur","zip":"50450","country":"Malaysia","geoPoint":{"lat":3.1412,"lon":101.68653}},{"facility":"Hospital Melaka","status":"RECRUITING","city":"Melaka","zip":"75400","country":"Malaysia","geoPoint":{"lat":2.196,"lon":102.2405}},{"facility":"Hospital Pulau Pinang","status":"RECRUITING","city":"Pulau Pinang","zip":"10990","country":"Malaysia","geoPoint":{"lat":3.55,"lon":102.56667}},{"facility":"Hospital Sungai Buloh","status":"RECRUITING","city":"Sungai Buloh","zip":"47000","country":"Malaysia","geoPoint":{"lat":3.2,"lon":101.58333}},{"facility":"Kardio Life","status":"NOT_YET_RECRUITING","city":"Włocławek","state":"Kujawsko-pomorskie","zip":"87-800","country":"Poland","geoPoint":{"lat":52.64817,"lon":19.0678}},{"facility":"Terpa Sp. z o.o. Sp. k.","status":"RECRUITING","city":"Lublin","state":"Lubelskie Voivodeship","zip":"20-333","country":"Poland","geoPoint":{"lat":51.25,"lon":22.56667}},{"facility":"Kliniczny Szpital Wojewodzki nr 2 im. Sw. Jadwigi Krolowej w Rzeszowie","status":"NOT_YET_RECRUITING","city":"Rzeszow","state":"Podkarpackie","zip":"35-301","country":"Poland","geoPoint":{"lat":50.04132,"lon":21.99901}},{"facility":"Uniwersytecki Szpital Kliniczny w Bialymstoku","status":"RECRUITING","city":"Białystok","zip":"15-276","country":"Poland","geoPoint":{"lat":53.13333,"lon":23.16433}},{"facility":"Uniwersyteckie Centrum Kliniczne SUM w Katowicach","status":"RECRUITING","city":"Katowice","zip":"40-752","country":"Poland","geoPoint":{"lat":50.25841,"lon":19.02754}},{"facility":"Zanamed Medical Clinic Sp. z o.o.","status":"RECRUITING","city":"Lublin","zip":"20-601","country":"Poland","geoPoint":{"lat":51.25,"lon":22.56667}},{"facility":"Wojewodzki Szpital Specjalistyczny w Olsztynie","status":"WITHDRAWN","city":"Olsztyn","zip":"10-561","country":"Poland","geoPoint":{"lat":53.77995,"lon":20.49416}},{"facility":"Uniwersytecki Szpital Kliniczny Nr 2 PUM W Szczecinie","status":"NOT_YET_RECRUITING","city":"Szczecin","zip":"70-111","country":"Poland","geoPoint":{"lat":53.42894,"lon":14.55302}},{"facility":"Szpitale Tczewskie S.A.","status":"NOT_YET_RECRUITING","city":"Tczew","zip":"83-110","country":"Poland","geoPoint":{"lat":54.09242,"lon":18.77787}},{"facility":"PANSTWOWY INSTYTUT MEDYCZNY MSWiA","status":"RECRUITING","city":"Warszawa","zip":"02-507","country":"Poland","geoPoint":{"lat":52.22977,"lon":21.01178}},{"facility":"Centrum Medyczne Oporow","status":"RECRUITING","city":"Wroclaw","zip":"52-416","country":"Poland","geoPoint":{"lat":51.1,"lon":17.03333}},{"facility":"SP ZOZ Centralny Szpital Kliniczny Uniwerystetu Medycznego w Łodzi","status":"RECRUITING","city":"Łódź","zip":"92-213","country":"Poland","geoPoint":{"lat":51.75,"lon":19.46667}},{"facility":"Nowy Szpital Sp. z o.o.","status":"RECRUITING","city":"Świecie","zip":"86-100","country":"Poland","geoPoint":{"lat":53.40953,"lon":18.44742}},{"facility":"Nowy Szpital Sp. z o.o.","status":"NOT_YET_RECRUITING","city":"Świecie","zip":"86-100","country":"Poland","geoPoint":{"lat":53.40953,"lon":18.44742}},{"facility":"Hospital Clinic i Provincial","status":"RECRUITING","city":"Barcelona","zip":"08036","country":"Spain","geoPoint":{"lat":41.38879,"lon":2.15899}},{"facility":"Hospital Reina Sofia","status":"RECRUITING","city":"Córdoba","zip":"14004","country":"Spain","geoPoint":{"lat":37.89155,"lon":-4.77275}},{"facility":"Hospital Reina Sofia","status":"NOT_YET_RECRUITING","city":"Córdoba","zip":"14004","country":"Spain","geoPoint":{"lat":37.89155,"lon":-4.77275}},{"facility":"Hospital Universitario de Getafe","status":"RECRUITING","city":"Getafe","zip":"28905","country":"Spain","geoPoint":{"lat":40.30571,"lon":-3.73295}},{"facility":"Hospital de Bellvitge","status":"RECRUITING","city":"Hospitalet de Llobregat","zip":"08907","country":"Spain","geoPoint":{"lat":41.35967,"lon":2.10028}},{"facility":"Hospital de Bellvitge","status":"NOT_YET_RECRUITING","city":"Hospitalet de Llobregat","zip":"08907","country":"Spain","geoPoint":{"lat":41.35967,"lon":2.10028}},{"facility":"Fundacion Jiménez Díaz","status":"RECRUITING","city":"Madrid","zip":"28040","country":"Spain","geoPoint":{"lat":40.4165,"lon":-3.70256}},{"facility":"Fundacion Jiménez Díaz","status":"NOT_YET_RECRUITING","city":"Madrid","zip":"28040","country":"Spain","geoPoint":{"lat":40.4165,"lon":-3.70256}},{"facility":"Hospital Clinico San Carlos","status":"RECRUITING","city":"Madrid","zip":"28040","country":"Spain","geoPoint":{"lat":40.4165,"lon":-3.70256}},{"facility":"Clínica Nuevas Tecnologías en Diabetes y Endocrinología","status":"RECRUITING","city":"Sevilla","zip":"41003","country":"Spain","geoPoint":{"lat":37.38283,"lon":-5.97317}},{"facility":"Clínica Nuevas Tecnologías en Diabetes y Endocrinología","status":"NOT_YET_RECRUITING","city":"Sevilla","zip":"41003","country":"Spain","geoPoint":{"lat":37.38283,"lon":-5.97317}},{"facility":"Hospital Universitario Doctor Peset","status":"NOT_YET_RECRUITING","city":"Valencia","zip":"46017","country":"Spain","geoPoint":{"lat":39.46975,"lon":-0.37739}},{"facility":"Erciyes Universitesi Tip Fakultesi","status":"RECRUITING","city":"Kayseri","state":"Melikgazi","zip":"38039","country":"Turkey","geoPoint":{"lat":38.73222,"lon":35.48528}},{"facility":"T.C. Saglık Bakanlıgı Adana Sehir Egitim ve Arastirma Hastan","status":"RECRUITING","city":"Adana","zip":"01000","country":"Turkey","geoPoint":{"lat":37.00167,"lon":35.32889}},{"facility":"Hacettepe Universitesi Tip Fakultesi Nefroloji Bilim Dali","status":"RECRUITING","city":"Ankara","zip":"06230","country":"Turkey","geoPoint":{"lat":39.91987,"lon":32.85427}},{"facility":"Ankara Sehir Hastanesi Dahiliye Klinigi","status":"RECRUITING","city":"Ankara","zip":"06800","country":"Turkey","geoPoint":{"lat":39.91987,"lon":32.85427}},{"facility":"Gaziantep Universitesi Tip Fakultesi Hastanesi","status":"RECRUITING","city":"Gaziantep","zip":"27070","country":"Turkey","geoPoint":{"lat":37.05944,"lon":37.3825}},{"facility":"T.C SB Goztepe Prof. Dr. Suleyman Yalcin City Hospital","status":"RECRUITING","city":"Istanbul","zip":"34722","country":"Turkey","geoPoint":{"lat":41.01384,"lon":28.94966}},{"facility":"Ege Universitesi Tip Fakultesi Hastanesi","status":"RECRUITING","city":"Izmir","zip":"35100","country":"Turkey","geoPoint":{"lat":38.41273,"lon":27.13838}},{"facility":"Kocaeli University Nephrology Department","status":"RECRUITING","city":"Kocaeli","zip":"41380","country":"Turkey","geoPoint":{"lat":39.62497,"lon":27.51145}}]},"ipdSharingStatementModule":{"ipdSharing":"YES","description":"According to the Novo Nordisk disclosure commitment on novonordisk-trials.com","url":"https://novonordisk-trials.com"}},"derivedSection":{"miscInfoModule":{"versionHolder":"2025-07-07"},"conditionBrowseModule":{"meshes":[{"id":"D007674","term":"Kidney Diseases"},{"id":"D051436","term":"Renal Insufficiency, Chronic"}],"ancestors":[{"id":"D014570","term":"Urologic Diseases"},{"id":"D052776","term":"Female Urogenital Diseases"},{"id":"D005261","term":"Female Urogenital Diseases and Pregnancy Complications"},{"id":"D000091642","term":"Urogenital Diseases"},{"id":"D052801","term":"Male Urogenital Diseases"},{"id":"D051437","term":"Renal Insufficiency"},{"id":"D002908","term":"Chronic Disease"},{"id":"D020969","term":"Disease Attributes"},{"id":"D010335","term":"Pathologic Processes"}],"browseLeaves":[{"id":"M7115","name":"Diabetes Mellitus","relevance":"LOW"},{"id":"M7119","name":"Diabetes Mellitus, Type 2","relevance":"LOW"},{"id":"M10698","name":"Kidney Diseases","asFound":"Kidney Disease","relevance":"HIGH"},{"id":"M12701","name":"Obesity","relevance":"LOW"},{"id":"M26186","name":"Overweight","relevance":"LOW"},{"id":"M26717","name":"Renal Insufficiency, Chronic","asFound":"Chronic Kidney Disease","relevance":"HIGH"},{"id":"M26718","name":"Renal Insufficiency","relevance":"LOW"},{"id":"M17319","name":"Urologic Diseases","relevance":"LOW"},{"id":"M2875","name":"Urogenital Diseases","relevance":"LOW"},{"id":"M27093","name":"Female Urogenital Diseases","relevance":"LOW"},{"id":"M14127","name":"Pregnancy Complications","relevance":"LOW"},{"id":"M8399","name":"Female Urogenital Diseases and Pregnancy Complications","relevance":"LOW"},{"id":"M27095","name":"Male Urogenital Diseases","relevance":"LOW"},{"id":"M6147","name":"Chronic Disease","relevance":"LOW"},{"id":"M22700","name":"Disease Attributes","relevance":"LOW"},{"id":"T1303","name":"Chronic Graft Versus Host Disease","relevance":"LOW"}],"browseBranches":[{"abbrev":"BC18","name":"Nutritional and Metabolic Diseases"},{"abbrev":"BC19","name":"Gland and Hormone Related Diseases"},{"abbrev":"All","name":"All Conditions"},{"abbrev":"BXS","name":"Urinary Tract, Sexual Organs, and Pregnancy Conditions"},{"abbrev":"BC23","name":"Symptoms and General Pathology"},{"abbrev":"Rare","name":"Rare Diseases"}]},"interventionBrowseModule":{"meshes":[{"id":"C000591245","term":"Semaglutide"}],"ancestors":[{"id":"D000097789","term":"Glucagon-Like Peptide-1 Receptor Agonists"},{"id":"D007004","term":"Hypoglycemic Agents"},{"id":"D045505","term":"Physiological Effects of Drugs"}],"browseLeaves":[{"id":"M353561","name":"Semaglutide","asFound":"Completion","relevance":"HIGH"},{"id":"M3401","name":"Glucagon-Like Peptide-1 Receptor Agonists","relevance":"LOW"},{"id":"M9043","name":"Glucagon","relevance":"LOW"},{"id":"M26997","name":"Glucagon-Like Peptide 1","relevance":"LOW"},{"id":"M10054","name":"Hypoglycemic Agents","relevance":"LOW"}],"browseBranches":[{"abbrev":"Hypo","name":"Hypoglycemic Agents"},{"abbrev":"All","name":"All Drugs and Chemicals"},{"abbrev":"Gast","name":"Gastrointestinal Agents"}]}},"hasResults":false}