{"protocolSection":{"identificationModule":{"nctId":"NCT03549754","orgStudyIdInfo":{"id":"D1690R00044"},"organization":{"fullName":"AstraZeneca","class":"INDUSTRY"},"briefTitle":"iCaReMe Global Registry","officialTitle":"Real-world Multinational Registry to Determine Management and Quality of Care of Patients With Type 2 Diabetes, Hypertension, Heart Failure and/or Chronic Kidney Diseases","acronym":"iCaReMe"},"statusModule":{"statusVerifiedDate":"2025-06","overallStatus":"RECRUITING","expandedAccessInfo":{"hasExpandedAccess":false},"startDateStruct":{"date":"2018-02-17","type":"ACTUAL"},"primaryCompletionDateStruct":{"date":"2025-12-31","type":"ESTIMATED"},"completionDateStruct":{"date":"2025-12-31","type":"ESTIMATED"},"studyFirstSubmitDate":"2018-05-15","studyFirstSubmitQcDate":"2018-05-29","studyFirstPostDateStruct":{"date":"2018-06-08","type":"ACTUAL"},"lastUpdateSubmitDate":"2025-06-02","lastUpdatePostDateStruct":{"date":"2025-06-04","type":"ACTUAL"}},"sponsorCollaboratorsModule":{"responsibleParty":{"type":"SPONSOR"},"leadSponsor":{"name":"AstraZeneca","class":"INDUSTRY"}},"oversightModule":{"isFdaRegulatedDrug":false,"isFdaRegulatedDevice":false},"descriptionModule":{"briefSummary":"To provide real world data on patient characteristics, disease management, healthcare utilization, and outcomes in patients with type 2 diabetes, Hypertension, Heart failure and/or Chronic kidney diseases","detailedDescription":"The registry intends to provide real world data on patient management and quality of care for patients with T2DM, hypertension, heat failure and chronic kidney disease in clinical practice in many countries. To bridge this gap an observational voluntary registry is set up to capture real world data on patient characteristics, disease management, healthcare utilization, and outcomes in patients with type 2 diabetes, Hypertension, Heart Failure and Chronic Kidney Disease. Multinational, observational registry utilizing a cloud-based eCRF, for prospective and retrospective data collection, accessible to investigators and Scientific Committee. This registry will be open to all physicians managing T2DM, HTN, HF or CKD across the world."},"conditionsModule":{"conditions":["Type 2 Diabetes","Hypertension","Chronic Kidney Disease","Heart Failure"],"keywords":["Registry","Type 2 Diabetes","T2DM","Chronic Kidney Disease","CKD","Hypertension","HTN","Adult population","Heart Failure","HF","Early cardiorenal complications"]},"designModule":{"studyType":"OBSERVATIONAL","patientRegistry":true,"targetDuration":"3 Years","designInfo":{"observationalModel":"OTHER","timePerspective":"PROSPECTIVE"},"enrollmentInfo":{"count":35000,"type":"ESTIMATED"}},"outcomesModule":{"primaryOutcomes":[{"measure":"1. Provide real world data on patient characteristics","description":"Disease control (e.g. achievement of glycated hemoglobin target and incidence of hypoglycemic events) Management of micro- and/or macrovascular complications Management of associated risk factors (e.g. hypercholesterolemia and hypertension) Current diabetes, CKD and HF treatments Concomitant medications","timeFrame":"Average of 3 years through study completion"},{"measure":"2. Provide real world data on disease management","description":"Disease control (e.g. achievement of glycated hemoglobin target and incidence of hypoglycemic events) Management of micro- and/or macrovascular complications Management of associated risk factors (e.g. hypercholesterolemia and hypertension) Current diabetes treatments Concomitant medications","timeFrame":"Average of 3 years through study completion"},{"measure":"3. Provide real world data on healthcare utilization","description":"Number of diabetes, Chronic Kidney Disease(CKD) and Heart Failure(HF)-related visits to a physician not at study site Number of urgent care visits for diabetes Number of diabetes, CKD and HF-related hospital emergency department visits and reason(s) for visits Number of hospitalizations, lengths of stay, and reasons for hospitalizations","timeFrame":"Average of 3 years through study completion"},{"measure":"4. Provide real world data on quality of care indicators","description":"Smoking cessation Eye and foot examinations Dietary counselling","timeFrame":"Average of 3 years through study completion"},{"measure":"Provide real world data on cardiovascular outcomes in patients with type 2 diabetes; Chronic Kidney Disease and Heart Failure","description":"All-cause and cause-specific deaths and hospitalizations, including recurrent events","timeFrame":"Average of 3 years through study completion"},{"measure":"6. Provide real world data on renal outcomes and other microvascular complications in patients with type 2 diabetes and Heart Failure","description":"All-cause and cause-specific deaths and hospitalizations, including recurrent events","timeFrame":"Average of 3 years through study completion"}]},"eligibilityModule":{"eligibilityCriteria":"Inclusion Criteria:\n\n1. Being 18 years or older\n2. Having type 2 diabetes, Hypertension, Heart Failure and/or chronic kidney disease\n3. Providing written informed consent to participate in the registry\n\nExclusion Criteria:\n\n1. Having a life-threatening co-morbidity with life expectancy below 1 year\n2. Participating in an interventional trial requiring informed consent","healthyVolunteers":false,"sex":"ALL","minimumAge":"18 Years","stdAges":["ADULT","OLDER_ADULT"],"studyPopulation":"Adults with type 2 diabetes, Hypertension, Heart Failure and/or chronic kidney disease","samplingMethod":"NON_PROBABILITY_SAMPLE"},"contactsLocationsModule":{"centralContacts":[{"name":"AstraZeneca Clinical Study Information Center","role":"CONTACT","phone":"1-877-240-9479","email":"information.center@astrazeneca.com"}],"locations":[{"facility":"Research Site","status":"RECRUITING","city":"Salvador","state":"Bahia","zip":"40730-220","country":"Brazil","geoPoint":{"lat":-12.97111,"lon":-38.51083}},{"facility":"Research Site","status":"RECRUITING","city":"Fortaleza","state":"Ceará","zip":"60840-285","country":"Brazil","geoPoint":{"lat":-3.71722,"lon":-38.54306}},{"facility":"Research Site","status":"RECRUITING","city":"Brasília","state":"Distrito Federal","zip":"70673-623","country":"Brazil","geoPoint":{"lat":-15.77972,"lon":-47.92972}},{"facility":"Research Site","status":"RECRUITING","city":"Colatina","state":"Espírito Santo (ES)","zip":"29707-035","country":"Brazil","geoPoint":{"lat":-19.53944,"lon":-40.63056}},{"facility":"Research Site","status":"RECRUITING","city":"Poços de Caldas","state":"Minas Gerais","zip":"37706-106","country":"Brazil","geoPoint":{"lat":-21.78778,"lon":-46.56139}},{"facility":"Research Site","status":"RECRUITING","city":"Campina Grande do Sul","state":"Paraná","zip":"83430-000","country":"Brazil","geoPoint":{"lat":-25.30556,"lon":-49.05528}},{"facility":"Research Site","status":"RECRUITING","city":"Teresina","state":"Piauí (PI)","zip":"64001-450","country":"Brazil","geoPoint":{"lat":-5.08917,"lon":-42.80194}},{"facility":"Research Site","status":"RECRUITING","city":"Santa Cruz do Sul","state":"Rio Grande Do Sul (RS)","zip":"96835-090","country":"Brazil","geoPoint":{"lat":-29.7175,"lon":-52.42583}},{"facility":"Research Site","status":"RECRUITING","city":"Goiânia","state":"State Of Goiás","zip":"74453-200","country":"Brazil","geoPoint":{"lat":-16.67861,"lon":-49.25389}},{"facility":"Research Site","status":"RECRUITING","city":"Joinville","state":"State Of Santa Catarina","zip":"89204-248","country":"Brazil","geoPoint":{"lat":-26.30444,"lon":-48.84556}},{"facility":"Research Site","status":"RECRUITING","city":"Bragança Paulist","state":"São Paulo","zip":"12916-542","country":"Brazil"},{"facility":"Research Site","status":"RECRUITING","city":"São Caetano do Sul","state":"São Paulo","zip":"09521-160","country":"Brazil","geoPoint":{"lat":-23.62306,"lon":-46.55111}},{"facility":"Research Site","status":"RECRUITING","city":"São Paulo","zip":"05403-000","country":"Brazil","geoPoint":{"lat":-23.5475,"lon":-46.63611}},{"facility":"Research Site","status":"RECRUITING","city":"São Paulo","zip":"05403-900","country":"Brazil","geoPoint":{"lat":-23.5475,"lon":-46.63611}},{"facility":"Research Site","status":"RECRUITING","city":"Providencia","state":"Santiago Metropolitan Region","zip":"7500922","country":"Chile","geoPoint":{"lat":-33.43107,"lon":-70.60454}},{"facility":"Research Site","status":"RECRUITING","city":"Abidjan","country":"Côte D'Ivoire","geoPoint":{"lat":5.30966,"lon":-4.01266}},{"facility":"Research Site","status":"RECRUITING","city":"Wan Chai District","country":"Hong Kong"},{"facility":"Research Site","status":"RECRUITING","city":"Ahmedabad","country":"India","geoPoint":{"lat":23.02579,"lon":72.58727}},{"facility":"Research Site","status":"RECRUITING","city":"Sulaimani","zip":"46001","country":"Iraq"},{"facility":"Research Site","status":"RECRUITING","city":"Almaty","zip":"50000","country":"Kazakhstan","geoPoint":{"lat":43.25667,"lon":76.92861}},{"facility":"Research Site","status":"RECRUITING","city":"Almaty","zip":"50006","country":"Kazakhstan","geoPoint":{"lat":43.25667,"lon":76.92861}},{"facility":"Research Site","status":"RECRUITING","city":"Almaty","zip":"50012","country":"Kazakhstan","geoPoint":{"lat":43.25667,"lon":76.92861}},{"facility":"Research Site","status":"RECRUITING","city":"Almaty","zip":"50054","country":"Kazakhstan","geoPoint":{"lat":43.25667,"lon":76.92861}},{"facility":"Research Site","status":"RECRUITING","city":"Nairobi","zip":"14497","country":"Kenya","geoPoint":{"lat":-1.28333,"lon":36.81667}},{"facility":"Research Site","status":"RECRUITING","city":"Kuala Lumpur, Selangor","country":"Malaysia"},{"facility":"Research Site","status":"RECRUITING","city":"Kuala Lumpur","country":"Malaysia","geoPoint":{"lat":3.1412,"lon":101.68653}},{"facility":"Research Site","status":"RECRUITING","city":"León","state":"Guanajuato","zip":"37549","country":"Mexico","geoPoint":{"lat":21.12908,"lon":-101.67374}},{"facility":"Research Site","status":"RECRUITING","city":"Ciudad de México","country":"Mexico","geoPoint":{"lat":19.42847,"lon":-99.12766}},{"facility":"Research Site","status":"RECRUITING","city":"Colonia Doctores Neighborhood","zip":"06720","country":"Mexico"},{"facility":"Research Site","status":"RECRUITING","city":"Iztapalapa","country":"Mexico","geoPoint":{"lat":19.35529,"lon":-99.06224}},{"facility":"Research Site","status":"RECRUITING","city":"Mexico","zip":"04530","country":"Mexico","geoPoint":{"lat":19.42847,"lon":-99.12766}},{"facility":"Research Site","status":"RECRUITING","city":"Gwagwalada","zip":"901002","country":"Nigeria","geoPoint":{"lat":8.94342,"lon":7.08165}},{"facility":"Research Site","status":"RECRUITING","city":"Kano","zip":"700233","country":"Nigeria","geoPoint":{"lat":12.00012,"lon":8.51672}},{"facility":"Research Site","status":"RECRUITING","city":"Florida","zip":"1794","country":"South Africa","geoPoint":{"lat":-29.94709,"lon":26.1639}},{"facility":"Research Site","status":"RECRUITING","city":"Parow","zip":"7505","country":"South Africa","geoPoint":{"lat":-33.89723,"lon":18.59992}},{"facility":"Research Site","status":"RECRUITING","city":"Umhlanga","zip":"4320","country":"South Africa","geoPoint":{"lat":-29.72528,"lon":31.08583}},{"facility":"Research Site","status":"RECRUITING","city":"Niaosong Dist","state":"Kaohsiung","zip":"83301","country":"Taiwan"},{"facility":"Research Site","status":"RECRUITING","city":"Changhua City","zip":"500209","country":"Taiwan","geoPoint":{"lat":24.07327,"lon":120.56276}},{"facility":"Research Site","status":"RECRUITING","city":"Kaohsiung City","zip":"81301","country":"Taiwan","geoPoint":{"lat":22.61626,"lon":120.31333}},{"facility":"Research Site","status":"RECRUITING","city":"Taichung City","zip":"40447","country":"Taiwan","geoPoint":{"lat":24.1469,"lon":120.6839}},{"facility":"Research Site","status":"RECRUITING","city":"Taichung City","zip":"40705","country":"Taiwan","geoPoint":{"lat":24.1469,"lon":120.6839}},{"facility":"Research Site","status":"RECRUITING","city":"Taichung","country":"Taiwan","geoPoint":{"lat":24.1469,"lon":120.6839}},{"facility":"Research Site","status":"RECRUITING","city":"Tainan City","zip":"704","country":"Taiwan","geoPoint":{"lat":22.99083,"lon":120.21333}},{"facility":"Research Site","status":"RECRUITING","city":"Taipei","country":"Taiwan","geoPoint":{"lat":25.04776,"lon":121.53185}},{"facility":"Research Site","status":"RECRUITING","city":"Taoyuan City","zip":"33305","country":"Taiwan","geoPoint":{"lat":24.95233,"lon":121.20193}},{"facility":"Research Site","status":"RECRUITING","city":"Dnipro","state":"Dnipropetrovsk Oblast","zip":"49005","country":"Ukraine","geoPoint":{"lat":48.4593,"lon":35.03864}},{"facility":"Research Site","status":"RECRUITING","city":"Kharkiv","state":"Kharkiv Oblast","zip":"61039","country":"Ukraine","geoPoint":{"lat":49.98081,"lon":36.25272}},{"facility":"Research Site","status":"RECRUITING","city":"Kharkiv","state":"Kharkiv Oblast","country":"Ukraine","geoPoint":{"lat":49.98081,"lon":36.25272}},{"facility":"Research Site","status":"RECRUITING","city":"Kyiv","state":"Kyiv Oblast","zip":"3039","country":"Ukraine","geoPoint":{"lat":50.45466,"lon":30.5238}},{"facility":"Research Site","status":"RECRUITING","city":"Kyiv","state":"Kyiv Oblast","zip":"4050","country":"Ukraine","geoPoint":{"lat":50.45466,"lon":30.5238}},{"facility":"Research Site","status":"RECRUITING","city":"Vinnytsia","state":"Vinnytsia Oblast","zip":"21000","country":"Ukraine","geoPoint":{"lat":49.23278,"lon":28.48097}},{"facility":"Research Site","status":"RECRUITING","city":"Lutsk","state":"Volyn Oblast","zip":"43024","country":"Ukraine","geoPoint":{"lat":50.75932,"lon":25.34244}},{"facility":"Research Site","status":"RECRUITING","city":"Uzhhorod","state":"Zakarpattia Oblast","zip":"88000","country":"Ukraine","geoPoint":{"lat":48.61667,"lon":22.3}},{"facility":"Research Site","status":"RECRUITING","city":"Zaporizhzhia","state":"Zaporizhzhia Oblast","zip":"69035","country":"Ukraine","geoPoint":{"lat":50.60727,"lon":31.78792}},{"facility":"Research Site","status":"RECRUITING","city":"Sharjah","country":"United Arab Emirates","geoPoint":{"lat":25.33737,"lon":55.41206}}]},"ipdSharingStatementModule":{"ipdSharing":"YES","description":"Qualified researchers can request access to anonymized individual patient-level data from AstraZeneca group of companies sponsored clinical trials via the request portal. All request will be evaluated as per the AZ disclosure commitment:\n\nhttps://astrazenecagrouptrials.pharmacm.com/ST/Submission/Disclosure. Yes, indicates that AZ are accepting requests for IPD, but this does not mean all requests will be shared.","timeFrame":"AstraZeneca will meet or exceed data availability as per the commitments made to the EFPIA Pharma Data Sharing Principles. For details of our timelines, please rerefer to our disclosure commitment at https://astrazenecagrouptrials.pharmacm.com/ST/Submission/Disclosure.","accessCriteria":"When a request has been approved AstraZeneca will provide access to the deidentified individual patient-level data in an approved sponsored tool. Signed Data Sharing Agreement (non-negotiable contract for data accessors) must be in place before accessing requested information. Additionally, all users will need to accept the terms and conditions of the SAS MSE to gain access. For additional details, please review the Disclosure Statements at https://astrazenecagrouptrials.pharmacm.com/ST/Submission/Disclosure.","url":"https://astrazenecagroup-dt.pharmacm.com/DT/Home"}},"derivedSection":{"miscInfoModule":{"versionHolder":"2025-07-07","removedCountries":["Angola","Argentina","Canada","China","Costa Rica","Ecuador","Egypt","Ethiopia","Georgia","Ghana","Greece","Guatemala","Indonesia","Korea, Republic of","Lebanon","Oman","Peru","Philippines","Qatar","Russian Federation","Saudi Arabia","Thailand","Uganda"]},"conditionBrowseModule":{"meshes":[{"id":"D007674","term":"Kidney Diseases"},{"id":"D051436","term":"Renal Insufficiency, Chronic"},{"id":"D006973","term":"Hypertension"},{"id":"D006333","term":"Heart Failure"},{"id":"D003924","term":"Diabetes Mellitus, Type 2"}],"ancestors":[{"id":"D003920","term":"Diabetes Mellitus"},{"id":"D044882","term":"Glucose Metabolism Disorders"},{"id":"D008659","term":"Metabolic Diseases"},{"id":"D004700","term":"Endocrine System Diseases"},{"id":"D014652","term":"Vascular Diseases"},{"id":"D002318","term":"Cardiovascular Diseases"},{"id":"D006331","term":"Heart Diseases"},{"id":"D014570","term":"Urologic Diseases"},{"id":"D052776","term":"Female Urogenital Diseases"},{"id":"D005261","term":"Female Urogenital Diseases and Pregnancy Complications"},{"id":"D000091642","term":"Urogenital Diseases"},{"id":"D052801","term":"Male Urogenital Diseases"},{"id":"D051437","term":"Renal Insufficiency"},{"id":"D002908","term":"Chronic Disease"},{"id":"D020969","term":"Disease Attributes"},{"id":"D010335","term":"Pathologic Processes"}],"browseLeaves":[{"id":"M7115","name":"Diabetes Mellitus","relevance":"LOW"},{"id":"M7119","name":"Diabetes Mellitus, Type 2","asFound":"Type 2 Diabetes","relevance":"HIGH"},{"id":"M10698","name":"Kidney Diseases","asFound":"Kidney Disease","relevance":"HIGH"},{"id":"M10024","name":"Hypertension","asFound":"Hypertension","relevance":"HIGH"},{"id":"M9421","name":"Heart Failure","asFound":"Heart Failure","relevance":"HIGH"},{"id":"M26717","name":"Renal Insufficiency, Chronic","asFound":"Chronic Kidney Disease","relevance":"HIGH"},{"id":"M26718","name":"Renal Insufficiency","relevance":"LOW"},{"id":"M11639","name":"Metabolic Diseases","relevance":"LOW"},{"id":"M25403","name":"Glucose Metabolism Disorders","relevance":"LOW"},{"id":"M7862","name":"Endocrine System Diseases","relevance":"LOW"},{"id":"M17400","name":"Vascular Diseases","relevance":"LOW"},{"id":"M9419","name":"Heart Diseases","relevance":"LOW"},{"id":"M17319","name":"Urologic Diseases","relevance":"LOW"},{"id":"M2875","name":"Urogenital Diseases","relevance":"LOW"},{"id":"M27093","name":"Female Urogenital Diseases","relevance":"LOW"},{"id":"M14127","name":"Pregnancy Complications","relevance":"LOW"},{"id":"M8399","name":"Female Urogenital Diseases and Pregnancy Complications","relevance":"LOW"},{"id":"M27095","name":"Male Urogenital Diseases","relevance":"LOW"},{"id":"M6147","name":"Chronic Disease","relevance":"LOW"},{"id":"M22700","name":"Disease Attributes","relevance":"LOW"},{"id":"T1303","name":"Chronic Graft Versus Host Disease","relevance":"LOW"}],"browseBranches":[{"abbrev":"BC18","name":"Nutritional and Metabolic Diseases"},{"abbrev":"BC19","name":"Gland and Hormone Related Diseases"},{"abbrev":"All","name":"All Conditions"},{"abbrev":"BXS","name":"Urinary Tract, Sexual Organs, and Pregnancy Conditions"},{"abbrev":"BC14","name":"Heart and Blood Diseases"},{"abbrev":"BC23","name":"Symptoms and General Pathology"},{"abbrev":"Rare","name":"Rare Diseases"}]}},"hasResults":false}