{"protocolSection":{"identificationModule":{"nctId":"NCT06972459","orgStudyIdInfo":{"id":"27361"},"secondaryIdInfos":[{"id":"2025-521098-14-00","type":"CTIS"},{"id":"J2A-MC-GZP1","type":"OTHER","domain":"Eli Lilly and Company"},{"id":"J2A-MC-GZPO","type":"OTHER","domain":"Eli Lilly and Company"}],"organization":{"fullName":"Eli Lilly and Company","class":"INDUSTRY"},"briefTitle":"A Study of Orforglipron (LY3502970) in Participants With Obesity or Overweight and at Least One Weight-Related Comorbidity","officialTitle":"A Master Protocol to Investigate the Efficacy and Safety of Orforglipron Tablet Once Daily Compared With Placebo in Participants With Obesity or Overweight With and Without Type 2 Diabetes"},"statusModule":{"statusVerifiedDate":"2025-06","overallStatus":"RECRUITING","expandedAccessInfo":{"hasExpandedAccess":false},"startDateStruct":{"date":"2025-05-15","type":"ACTUAL"},"primaryCompletionDateStruct":{"date":"2027-01","type":"ESTIMATED"},"completionDateStruct":{"date":"2027-08","type":"ESTIMATED"},"studyFirstSubmitDate":"2025-05-07","studyFirstSubmitQcDate":"2025-05-07","studyFirstPostDateStruct":{"date":"2025-05-15","type":"ACTUAL"},"lastUpdateSubmitDate":"2025-06-24","lastUpdatePostDateStruct":{"date":"2025-06-27","type":"ACTUAL"}},"sponsorCollaboratorsModule":{"responsibleParty":{"type":"SPONSOR"},"leadSponsor":{"name":"Eli Lilly and Company","class":"INDUSTRY"}},"oversightModule":{"oversightHasDmc":false,"isFdaRegulatedDrug":true,"isFdaRegulatedDevice":false},"descriptionModule":{"briefSummary":"The main purpose of this study is to see how orforglipron, compared with placebo, helps reduce body weight in participants with obesity or with overweight and at least one other related health condition (excluding type 2 diabetes). This trial is part of the master protocol study J2A-MC-GZPO.\n\nParticipation in the study will last about 18 months."},"conditionsModule":{"conditions":["Obesity","Overweight"]},"designModule":{"studyType":"INTERVENTIONAL","phases":["PHASE3"],"designInfo":{"allocation":"RANDOMIZED","interventionModel":"PARALLEL","interventionModelDescription":"Phase 3b","primaryPurpose":"TREATMENT","maskingInfo":{"masking":"DOUBLE","whoMasked":["PARTICIPANT","INVESTIGATOR"]}},"enrollmentInfo":{"count":600,"type":"ESTIMATED"}},"armsInterventionsModule":{"armGroups":[{"label":"Orforglipron Dose 1","type":"EXPERIMENTAL","description":"Participants will receive orforglipron orally","interventionNames":["Drug: Orforglipron"]},{"label":"Orforglipron Dose 2","type":"EXPERIMENTAL","description":"Participants will receive orforglipron orally","interventionNames":["Drug: Orforglipron"]},{"label":"Orforglipron Dose 3","type":"EXPERIMENTAL","description":"Participants will receive orforglipron orally","interventionNames":["Drug: Orforglipron"]},{"label":"Orforglipron Dose 4","type":"EXPERIMENTAL","description":"Participants will receive orforglipron orally","interventionNames":["Drug: Orforglipron"]},{"label":"Placebo","type":"PLACEBO_COMPARATOR","description":"Participants will receive placebo orally","interventionNames":["Drug: Placebo"]}],"interventions":[{"type":"DRUG","name":"Orforglipron","description":"Administered orally","armGroupLabels":["Orforglipron Dose 1","Orforglipron Dose 2","Orforglipron Dose 3","Orforglipron Dose 4"],"otherNames":["LY3502970"]},{"type":"DRUG","name":"Placebo","description":"Administered orally","armGroupLabels":["Placebo"]}]},"outcomesModule":{"primaryOutcomes":[{"measure":"Percent Change from Baseline in Body Weight","timeFrame":"Baseline, Week 40"}],"secondaryOutcomes":[{"measure":"Percent Change from Baseline in Body Weight at Week 72","timeFrame":"Baseline, Week 72"},{"measure":"Percentage of Participants Achieving Weight Reduction of ≥5%","timeFrame":"Baseline up to 72 weeks"},{"measure":"Change from Baseline in Waist Circumference","timeFrame":"Baseline up to 72 weeks"},{"measure":"Change from Baseline in Body Max Index (BMI)","timeFrame":"Baseline, Week 72"},{"measure":"Change from Baseline in Systolic Blood Pressure (SBP)","timeFrame":"Baseline up to 72 weeks"},{"measure":"Percent Change from Baseline in Triglycerides","timeFrame":"Baseline up to 72 weeks"},{"measure":"Change from Baseline in Hemoglobin A1c (HbA1c)","timeFrame":"Baseline up to 72 weeks"},{"measure":"Change from Baseline in EQ-5D-5L","timeFrame":"Baseline, Week 72"},{"measure":"Pharmacokinetics (PK): Steady State Area Under the Concentration Time Curve (AUC-ss) of Orforglipron","timeFrame":"Predose through Week 48"}]},"eligibilityModule":{"eligibilityCriteria":"Inclusion Criteria:\n\n* Have body mass index (BMI) ≥30 kilograms per square meter (kg/m2) or BMI ≥25.0 kg/m2 and at least 1 of the following weight-related comorbidities at screening:\n\n  * hypertension\n  * dyslipidemia\n  * obstructive sleep apnea, or\n  * cardiovascular disease\n* Have a history of at least one unsuccessful dietary effort to lose body weight\n\nExclusion Criteria:\n\n* Have type 1 diabetes, type 2 diabetes, or any other types of diabetes\n* Have an unstable body weight within 90 days prior to screening\n* Have New York Heart Association functional classification IV congestive heart failure or an acute cardiovascular condition within 90 days prior to screening\n* Have acute or chronic hepatitis or pancreatitis\n* Are taking other medications or alternative remedies to manage weight loss","healthyVolunteers":false,"sex":"ALL","minimumAge":"18 Years","stdAges":["ADULT","OLDER_ADULT"]},"contactsLocationsModule":{"centralContacts":[{"name":"There may be multiple sites in this clinical trial. 1-877-CTLILLY (1-877-285-4559) or","role":"CONTACT","phone":"317-615-4559","email":"clinical_inquiry_hub@lilly.com"}],"overallOfficials":[{"name":"Call 1-877-CTLILLY (1-877-285-4559) or 1-317-615-4559 Mon - Fri 9 AM - 5 PM Eastern time (UTC/GMT - 5 hours, EST)","affiliation":"Eli Lilly and Company","role":"STUDY_DIRECTOR"}],"locations":[{"facility":"Novak Clinical Research - Tucson - North La Cholla Boulevard","status":"NOT_YET_RECRUITING","city":"Tucson","state":"Arizona","zip":"85741","country":"United States","contacts":[{"name":"Thili Kulatilake","role":"PRINCIPAL_INVESTIGATOR"}],"geoPoint":{"lat":32.22174,"lon":-110.92648}},{"facility":"Norcal Endocrinology & Internal Medicine","status":"NOT_YET_RECRUITING","city":"San Ramon","state":"California","zip":"94583","country":"United States","contacts":[{"name":"Yshay Shlesinger","role":"PRINCIPAL_INVESTIGATOR"}],"geoPoint":{"lat":37.77993,"lon":-121.97802}},{"facility":"Southern California Clinical Research","status":"NOT_YET_RECRUITING","city":"Santa Ana","state":"California","zip":"92701","country":"United States","contacts":[{"name":"Wayne Ho","role":"PRINCIPAL_INVESTIGATOR"}],"geoPoint":{"lat":33.74557,"lon":-117.86783}},{"facility":"Care Access - Thousand Oaks","status":"RECRUITING","city":"Thousand Oaks","state":"California","zip":"91360","country":"United States","contacts":[{"name":"Irving Loh","role":"PRINCIPAL_INVESTIGATOR"}],"geoPoint":{"lat":34.17056,"lon":-118.83759}},{"facility":"Accel Research Sites - DeLand Clinical Research Unit","status":"RECRUITING","city":"DeLand","state":"Florida","zip":"32720","country":"United States","contacts":[{"name":"Bruce Rankin","role":"PRINCIPAL_INVESTIGATOR"}],"geoPoint":{"lat":29.02832,"lon":-81.30312}},{"facility":"Innovation Medical Research Center - Fort Lauderdale","status":"NOT_YET_RECRUITING","city":"Fort Lauderdale","state":"Florida","zip":"33316","country":"United States","contacts":[{"name":"Ihosvani Miguel","role":"PRINCIPAL_INVESTIGATOR"}],"geoPoint":{"lat":26.12231,"lon":-80.14338}},{"facility":"Encore Medical Research","status":"RECRUITING","city":"Hollywood","state":"Florida","zip":"33024","country":"United States","contacts":[{"name":"Rodolfo Perez","role":"PRINCIPAL_INVESTIGATOR"}],"geoPoint":{"lat":26.0112,"lon":-80.14949}},{"facility":"West Orange Endocrinology P.A.","status":"RECRUITING","city":"Ocoee","state":"Florida","zip":"34761","country":"United States","contacts":[{"name":"Jose Mandry","role":"PRINCIPAL_INVESTIGATOR"}],"geoPoint":{"lat":28.56917,"lon":-81.54396}},{"facility":"Care Access - Tampa","status":"RECRUITING","city":"Tampa","state":"Florida","zip":"33625","country":"United States","contacts":[{"name":"Shital Mehta","role":"PRINCIPAL_INVESTIGATOR"}],"geoPoint":{"lat":27.94752,"lon":-82.45843}},{"facility":"Accel Research Sites - NeuroStudies Clinical Research Unit","status":"RECRUITING","city":"Decatur","state":"Georgia","zip":"30030","country":"United States","contacts":[{"name":"Ramana Puppala","role":"PRINCIPAL_INVESTIGATOR"}],"geoPoint":{"lat":33.77483,"lon":-84.29631}},{"facility":"Care Access - Decatur","status":"RECRUITING","city":"Decatur","state":"Georgia","zip":"30030","country":"United States","contacts":[{"name":"Marie Walton","role":"PRINCIPAL_INVESTIGATOR"}],"geoPoint":{"lat":33.77483,"lon":-84.29631}},{"facility":"Javara - Privia Medical Group Georgia - Savannah","status":"NOT_YET_RECRUITING","city":"Savannah","state":"Georgia","zip":"31406","country":"United States","contacts":[{"name":"Christopher Oldfield","role":"PRINCIPAL_INVESTIGATOR"}],"geoPoint":{"lat":32.08354,"lon":-81.09983}},{"facility":"North Georgia Clinical Research","status":"RECRUITING","city":"Woodstock","state":"Georgia","zip":"30189","country":"United States","contacts":[{"name":"Bram Wieskopf","role":"PRINCIPAL_INVESTIGATOR"}],"geoPoint":{"lat":34.10149,"lon":-84.51938}},{"facility":"Solaris Clinical Research","status":"RECRUITING","city":"Meridian","state":"Idaho","zip":"83646","country":"United States","contacts":[{"name":"David Butuk","role":"PRINCIPAL_INVESTIGATOR"}],"geoPoint":{"lat":43.61211,"lon":-116.39151}},{"facility":"Care Access - New Iberia","status":"RECRUITING","city":"New Iberia","state":"Louisiana","zip":"70560","country":"United States","contacts":[{"name":"Son Nguyen","role":"PRINCIPAL_INVESTIGATOR"}],"geoPoint":{"lat":30.00354,"lon":-91.81873}},{"facility":"Endocrine and Metabolic Consultants","status":"NOT_YET_RECRUITING","city":"Rockville","state":"Maryland","zip":"20852","country":"United States","contacts":[{"name":"Helena Rodbard","role":"PRINCIPAL_INVESTIGATOR"}],"geoPoint":{"lat":39.084,"lon":-77.15276}},{"facility":"Javara - Privia Medical Group - Silver Spring","status":"NOT_YET_RECRUITING","city":"Silver Spring","state":"Maryland","zip":"20901","country":"United States","contacts":[{"name":"HUSNA BAKSH","role":"PRINCIPAL_INVESTIGATOR"}],"geoPoint":{"lat":38.99067,"lon":-77.02609}},{"facility":"Boeson Research MSO","status":"RECRUITING","city":"Missoula","state":"Montana","zip":"59804","country":"United States","contacts":[{"name":"Aubrey Remmers","role":"PRINCIPAL_INVESTIGATOR"}],"geoPoint":{"lat":46.87215,"lon":-113.994}},{"facility":"Javara - Nevada Health Centers - Carson City","status":"NOT_YET_RECRUITING","city":"Carson City","state":"Nevada","zip":"89706","country":"United States","contacts":[{"name":"Sangeeta Wagner","role":"PRINCIPAL_INVESTIGATOR"}],"geoPoint":{"lat":39.1638,"lon":-119.7674}},{"facility":"The Machuca Foundation","status":"NOT_YET_RECRUITING","city":"Las Vegas","state":"Nevada","zip":"89101","country":"United States","contacts":[{"name":"Rogelio Machuca","role":"PRINCIPAL_INVESTIGATOR"}],"geoPoint":{"lat":36.17497,"lon":-115.13722}},{"facility":"University of North Carolina Medical Center","status":"NOT_YET_RECRUITING","city":"Chapel Hill","state":"North Carolina","zip":"27514","country":"United States","contacts":[{"name":"Klara Klein","role":"PRINCIPAL_INVESTIGATOR"}],"geoPoint":{"lat":35.9132,"lon":-79.05584}},{"facility":"Javara - Tryon Medical Partners","status":"NOT_YET_RECRUITING","city":"Charlotte","state":"North Carolina","zip":"28210","country":"United States","contacts":[{"name":"Christina Kennelly","role":"PRINCIPAL_INVESTIGATOR"}],"geoPoint":{"lat":35.22709,"lon":-80.84313}},{"facility":"Care Access - Fayetteville","status":"NOT_YET_RECRUITING","city":"Fayetteville","state":"North Carolina","zip":"28314","country":"United States","contacts":[{"name":"Daniel Uba","role":"PRINCIPAL_INVESTIGATOR"}],"geoPoint":{"lat":35.05266,"lon":-78.87836}},{"facility":"The Corvallis Clinic, P.C.","status":"NOT_YET_RECRUITING","city":"Corvallis","state":"Oregon","zip":"97330","country":"United States","contacts":[{"name":"Shannon Hopson","role":"PRINCIPAL_INVESTIGATOR"}],"geoPoint":{"lat":44.56457,"lon":-123.26204}},{"facility":"Clinical Research of Philadelphia","status":"RECRUITING","city":"Philadelphia","state":"Pennsylvania","zip":"19114","country":"United States","contacts":[{"name":"Lolita Vaughan","role":"PRINCIPAL_INVESTIGATOR"}],"geoPoint":{"lat":39.95233,"lon":-75.16379}},{"facility":"Frontier Clinical Research, LLC","status":"NOT_YET_RECRUITING","city":"Smithfield","state":"Pennsylvania","zip":"15478","country":"United States","contacts":[{"name":"Marcy Goisse","role":"PRINCIPAL_INVESTIGATOR"}],"geoPoint":{"lat":39.80313,"lon":-79.80783}},{"facility":"Velocity Clinical Research, Dallas","status":"NOT_YET_RECRUITING","city":"Dallas","state":"Texas","zip":"75230","country":"United States","contacts":[{"name":"Dan Lender","role":"PRINCIPAL_INVESTIGATOR"}],"geoPoint":{"lat":32.78306,"lon":-96.80667}},{"facility":"Biopharma Informatic, LLC","status":"RECRUITING","city":"Houston","state":"Texas","zip":"77043","country":"United States","contacts":[{"name":"Donald Gardner","role":"PRINCIPAL_INVESTIGATOR"}],"geoPoint":{"lat":29.76328,"lon":-95.36327}},{"facility":"Texas Valley Clinical Research (TVCR) - Mission","status":"RECRUITING","city":"Mission","state":"Texas","zip":"78572","country":"United States","contacts":[{"name":"Alejandro Gonzalez Campos","role":"PRINCIPAL_INVESTIGATOR"}],"geoPoint":{"lat":26.21591,"lon":-98.32529}},{"facility":"Consano Clinical Research, LLC","status":"RECRUITING","city":"Shavano Park","state":"Texas","zip":"78231","country":"United States","contacts":[{"name":"Michelle Welch","role":"PRINCIPAL_INVESTIGATOR"}],"geoPoint":{"lat":29.58495,"lon":-98.55252}},{"facility":"CARE - Centro de Alergia y Enfermedades Respiratorias","status":"NOT_YET_RECRUITING","city":"Ciudad Autónoma de Buenos Aires","state":"Buenos Aires","zip":"1414","country":"Argentina","contacts":[{"name":"Hernan Finkelstein","role":"PRINCIPAL_INVESTIGATOR"}],"geoPoint":{"lat":-34.61315,"lon":-58.37723}},{"facility":"CIPREC","status":"NOT_YET_RECRUITING","city":"Buenos Aires","state":"Ciudad Autónoma De Buenos Aires","zip":"C1119ACN","country":"Argentina","contacts":[{"name":"Angela Romero Zarante","role":"PRINCIPAL_INVESTIGATOR"}],"geoPoint":{"lat":-34.61315,"lon":-58.37723}},{"facility":"Centro Médico Viamonte","status":"NOT_YET_RECRUITING","city":"Buenos Aires","state":"Ciudad Autónoma De Buenos Aires","zip":"C1120AAC","country":"Argentina","contacts":[{"name":"Diego Aizenberg","role":"PRINCIPAL_INVESTIGATOR"}],"geoPoint":{"lat":-34.61315,"lon":-58.37723}},{"facility":"Instituto Centenario","status":"NOT_YET_RECRUITING","city":"Caba","state":"Ciudad Autónoma De Buenos Aires","zip":"1204","country":"Argentina","contacts":[{"name":"SUSANA SALZBERG","role":"PRINCIPAL_INVESTIGATOR"}],"geoPoint":{"lat":-34.61315,"lon":-58.37723}},{"facility":"Instituto Médico Catamarca IMEC","status":"NOT_YET_RECRUITING","city":"Rosario","state":"Santa Fe","zip":"2000","country":"Argentina","contacts":[{"name":"Natacha Maldonado","role":"PRINCIPAL_INVESTIGATOR"}],"geoPoint":{"lat":-32.94682,"lon":-60.63932}},{"facility":"Centro de Diagnóstico y Rehabilitación (CEDIR)","status":"NOT_YET_RECRUITING","city":"Santa Fe","zip":"3000","country":"Argentina","contacts":[{"name":"Antonio Saleme","role":"PRINCIPAL_INVESTIGATOR"}],"geoPoint":{"lat":-31.63333,"lon":-60.7}},{"facility":"The Second People's Hospital of Hefei","status":"NOT_YET_RECRUITING","city":"Hefei","state":"Anhui","zip":"230011","country":"China","contacts":[{"name":"Jun Ye","role":"PRINCIPAL_INVESTIGATOR"}],"geoPoint":{"lat":31.86389,"lon":117.28083}},{"facility":"Xuanwu Hospital Capital Medical University","status":"NOT_YET_RECRUITING","city":"Beijing","state":"Beijing","zip":"100053","country":"China","contacts":[{"name":"Shuangling Xiu","role":"PRINCIPAL_INVESTIGATOR"}],"geoPoint":{"lat":39.9075,"lon":116.39723}},{"facility":"Peking University Third Hospital","status":"NOT_YET_RECRUITING","city":"Beijing","state":"Beijing","zip":"100091","country":"China","contacts":[{"name":"Tianpei Hong","role":"PRINCIPAL_INVESTIGATOR"}],"geoPoint":{"lat":39.9075,"lon":116.39723}},{"facility":"The Second Affiliated Hospital Chongqing Medical University","status":"NOT_YET_RECRUITING","city":"Chongqing","state":"Chongqing","zip":"400010","country":"China","contacts":[{"name":"Dongfang Liu","role":"PRINCIPAL_INVESTIGATOR"}],"geoPoint":{"lat":29.56278,"lon":106.55278}},{"facility":"Zhujiang Hospital","status":"NOT_YET_RECRUITING","city":"Guangzhou","state":"Guangdong","zip":"510280","country":"China","contacts":[{"name":"Jia Sun","role":"PRINCIPAL_INVESTIGATOR"}],"geoPoint":{"lat":23.11667,"lon":113.25}},{"facility":"The Fourth Affiliated Hospital of Harbin Medical University","status":"NOT_YET_RECRUITING","city":"Harbin","state":"Heilongjiang","zip":"150001","country":"China","contacts":[{"name":"ZhiFeng Cheng","role":"PRINCIPAL_INVESTIGATOR"}],"geoPoint":{"lat":45.75,"lon":126.65}},{"facility":"The First Affiliated Hospital of Henan University of Science &Technology","status":"NOT_YET_RECRUITING","city":"Luoyang Shi","state":"Henan","zip":"471003","country":"China","contacts":[{"name":"Hongwei Jiang","role":"PRINCIPAL_INVESTIGATOR"}]},{"facility":"Zhongda Hospital Southeast University","status":"NOT_YET_RECRUITING","city":"Nanjing","state":"Jiangsu","zip":"210009","country":"China","contacts":[{"name":"Ling Li","role":"PRINCIPAL_INVESTIGATOR"}],"geoPoint":{"lat":32.06167,"lon":118.77778}},{"facility":"The Second Affiliated Hospital of Nanjing Medical University","status":"NOT_YET_RECRUITING","city":"Nanjing","state":"Jiangsu","zip":"210011","country":"China","contacts":[{"name":"Yibing Lu","role":"PRINCIPAL_INVESTIGATOR"}],"geoPoint":{"lat":32.06167,"lon":118.77778}},{"facility":"Jinan Central Hospital","status":"NOT_YET_RECRUITING","city":"Jinan","state":"Shandong","zip":"250013","country":"China","contacts":[{"name":"Xiaolin Dong","role":"PRINCIPAL_INVESTIGATOR"}],"geoPoint":{"lat":36.66833,"lon":116.99722}},{"facility":"Sichuan Provincial People's Hospital","status":"NOT_YET_RECRUITING","city":"Chengdu","state":"Sichuan","zip":"610072","country":"China","contacts":[{"name":"Yan Yang","role":"PRINCIPAL_INVESTIGATOR"}],"geoPoint":{"lat":30.66667,"lon":104.06667}},{"facility":"The Second Hospital of Tianjin Medical University","status":"NOT_YET_RECRUITING","city":"Tianjin","state":"Tianjin","zip":"300211","country":"China","contacts":[{"name":"Yu CHEN","role":"PRINCIPAL_INVESTIGATOR"}],"geoPoint":{"lat":39.14222,"lon":117.17667}},{"facility":"MUDr. Alena Vachova","status":"NOT_YET_RECRUITING","city":"Ceske Budejovice","state":"Jihočeský Kraj","zip":"37011","country":"Czechia","contacts":[{"name":"Alena Vachova","role":"PRINCIPAL_INVESTIGATOR"}],"geoPoint":{"lat":48.97447,"lon":14.47434}},{"facility":"VASOMED Clinic","status":"NOT_YET_RECRUITING","city":"Ostrava","state":"Moravskoslezský Kraj","zip":"710 00","country":"Czechia","contacts":[{"name":"David Maderic","role":"PRINCIPAL_INVESTIGATOR"}],"geoPoint":{"lat":49.83465,"lon":18.28204}},{"facility":"Milan Kvapil s.r.o., Diabetologicka ambulance","status":"NOT_YET_RECRUITING","city":"Praha","state":"Praha 4","zip":"14900","country":"Czechia","contacts":[{"name":"Dagmar Bartaskova","role":"PRINCIPAL_INVESTIGATOR"}],"geoPoint":{"lat":50.08804,"lon":14.42076}},{"facility":"Medical Plus","status":"NOT_YET_RECRUITING","city":"Uherske Hradiste","state":"Zlínský Kraj","zip":"686 01","country":"Czechia","contacts":[{"name":"Eva Dokoupilova","role":"PRINCIPAL_INVESTIGATOR"}],"geoPoint":{"lat":49.06975,"lon":17.45969}},{"facility":"Nemocnice Cesky Krumlov","status":"NOT_YET_RECRUITING","city":"Český Krumlov","zip":"381 01","country":"Czechia","contacts":[{"name":"Richard Kovar","role":"PRINCIPAL_INVESTIGATOR"}],"geoPoint":{"lat":48.81091,"lon":14.31521}},{"facility":"Medicover Neuroendokrinologie","status":"NOT_YET_RECRUITING","city":"Munich","state":"Bayern","zip":"81667","country":"Germany","contacts":[{"name":"Guenter Stalla","role":"PRINCIPAL_INVESTIGATOR"}],"geoPoint":{"lat":48.13743,"lon":11.57549}},{"facility":"InnoDiab Forschung Gmbh","status":"NOT_YET_RECRUITING","city":"Essen","state":"Nordrhein-Westfalen","zip":"45136","country":"Germany","contacts":[{"name":"Thomas Schürholz","role":"PRINCIPAL_INVESTIGATOR"}],"geoPoint":{"lat":51.45657,"lon":7.01228}},{"facility":"Medizentrum Essen Borbeck","status":"NOT_YET_RECRUITING","city":"Essen","state":"Nordrhein-Westfalen","zip":"45355","country":"Germany","contacts":[{"name":"Axel Schaefer","role":"PRINCIPAL_INVESTIGATOR"}],"geoPoint":{"lat":51.45657,"lon":7.01228}},{"facility":"AmBeNet GmbH","status":"NOT_YET_RECRUITING","city":"Leipzig","state":"Sachsen","zip":"04107","country":"Germany","contacts":[{"name":"Hans-Detlev Stahl","role":"PRINCIPAL_INVESTIGATOR"}],"geoPoint":{"lat":51.33962,"lon":12.37129}},{"facility":"Gemeinschaftspraxis Dr. Taeschner/Dr. Bonigut","status":"NOT_YET_RECRUITING","city":"Leipzig","state":"Sachsen","zip":"04249","country":"Germany","contacts":[{"name":"Heidrun Taeschner","role":"PRINCIPAL_INVESTIGATOR"}],"geoPoint":{"lat":51.33962,"lon":12.37129}},{"facility":"RED-Institut GmbH","status":"NOT_YET_RECRUITING","city":"Oldenburg","state":"Schleswig-Holstein","zip":"23758","country":"Germany","contacts":[{"name":"Thomas Schaum","role":"PRINCIPAL_INVESTIGATOR"}],"geoPoint":{"lat":53.14118,"lon":8.21467}},{"facility":"Diabetes Zentrum Wilhelmsburg","status":"NOT_YET_RECRUITING","city":"Hamburg","zip":"21109","country":"Germany","contacts":[{"name":"Peter Witzel","role":"PRINCIPAL_INVESTIGATOR"}],"geoPoint":{"lat":53.57532,"lon":10.01534}},{"facility":"Apollo Excelcare Hospital","status":"NOT_YET_RECRUITING","city":"Guwahati","state":"Assam","zip":"781033","country":"India","contacts":[{"name":"Manash Baruah","role":"PRINCIPAL_INVESTIGATOR"}],"geoPoint":{"lat":26.1844,"lon":91.7458}},{"facility":"Sir Ganga Ram Hospital","status":"NOT_YET_RECRUITING","city":"New Delhi","state":"Delhi","zip":"110060","country":"India","contacts":[{"name":"Ajay Aggarwal","role":"PRINCIPAL_INVESTIGATOR"}],"geoPoint":{"lat":28.63576,"lon":77.22445}},{"facility":"Karnataka Institute of Medical Sciences","status":"NOT_YET_RECRUITING","city":"Hubli","state":"Karnataka","zip":"580021","country":"India","contacts":[{"name":"Dr RAM Kaulgud","role":"PRINCIPAL_INVESTIGATOR"}],"geoPoint":{"lat":15.34776,"lon":75.13378}},{"facility":"Chellaram Diabetes Institute","status":"NOT_YET_RECRUITING","city":"Pune","state":"Maharashtra","zip":"411021","country":"India","contacts":[{"name":"Unnikrishnan Gopalkrishnan","role":"PRINCIPAL_INVESTIGATOR"}],"geoPoint":{"lat":18.51957,"lon":73.85535}},{"facility":"All India Institute of Medical Sciences","status":"NOT_YET_RECRUITING","city":"Bhubaneswar","state":"Odisha","zip":"751019","country":"India","contacts":[{"name":"Kishore Behera","role":"PRINCIPAL_INVESTIGATOR"}],"geoPoint":{"lat":20.27241,"lon":85.83385}},{"facility":"Diabetes Research Center","status":"NOT_YET_RECRUITING","city":"Hyderabad","state":"Telangana","zip":"500082","country":"India","contacts":[{"name":"Vishnupriya Paturi","role":"PRINCIPAL_INVESTIGATOR"}],"geoPoint":{"lat":17.38405,"lon":78.45636}},{"facility":"All India Institute of Medical Sciences - Rishikesh","status":"NOT_YET_RECRUITING","city":"Rishikesh","state":"Uttarakhand","zip":"249203","country":"India","contacts":[{"name":"Kalyani Sridharan","role":"PRINCIPAL_INVESTIGATOR"}],"geoPoint":{"lat":30.10778,"lon":78.29255}},{"facility":"Tokuyama Clinic","status":"NOT_YET_RECRUITING","city":"Mihama-ku,Chiba City","state":"Chiba","zip":"261-0004","country":"Japan","contacts":[{"role":"CONTACT","phone":"81120023812"},{"name":"Takahiko Tokuyama","role":"PRINCIPAL_INVESTIGATOR"}]},{"facility":"Hasegawa Medical Clinic","status":"NOT_YET_RECRUITING","city":"Chitose","state":"Hokkaido","zip":"066-0032","country":"Japan","contacts":[{"role":"CONTACT","phone":"81120023812"},{"name":"Atsushi Hasegawa","role":"PRINCIPAL_INVESTIGATOR"}],"geoPoint":{"lat":42.81944,"lon":141.65222}},{"facility":"Tsuchiura Medical & Health Care Center","status":"NOT_YET_RECRUITING","city":"Tsuchiura","state":"Ibaraki","zip":"300-0012","country":"Japan","contacts":[{"role":"CONTACT","phone":"81120023812"},{"name":"Natsuki Imoto","role":"PRINCIPAL_INVESTIGATOR"}],"geoPoint":{"lat":36.09047,"lon":140.21047}},{"facility":"Noritake Clinic","status":"NOT_YET_RECRUITING","city":"Ushiku","state":"Ibaraki","zip":"300-1207","country":"Japan","contacts":[{"role":"CONTACT","phone":"81120023812"},{"name":"Terumasa Nagase","role":"PRINCIPAL_INVESTIGATOR"}],"geoPoint":{"lat":35.96667,"lon":140.13333}},{"facility":"Olive Takamatsu Medical Clinic","status":"NOT_YET_RECRUITING","city":"Takamatsu","state":"Kagawa","zip":"760-0076","country":"Japan","contacts":[{"role":"CONTACT","phone":"81120023812"},{"name":"Toshiki Fukui","role":"PRINCIPAL_INVESTIGATOR"}],"geoPoint":{"lat":34.33333,"lon":134.05}},{"facility":"Medical Corporation Yuga Tsuruma Kaneshiro Diabetes Clinic","status":"NOT_YET_RECRUITING","city":"Yamato-shi","state":"Kanagawa","zip":"242-0004","country":"Japan","contacts":[{"role":"CONTACT","phone":"81120023812"},{"name":"Taro Asakura","role":"PRINCIPAL_INVESTIGATOR"}]},{"facility":"Yokohama Minoru Clinic","status":"NOT_YET_RECRUITING","city":"Yokohama","state":"Kanagawa","zip":"232-0064","country":"Japan","contacts":[{"role":"CONTACT","phone":"81120023812"},{"name":"Chino Nakamura","role":"PRINCIPAL_INVESTIGATOR"}],"geoPoint":{"lat":35.43333,"lon":139.65}},{"facility":"Medical Corporation Heishinkai OCROM Clinic","status":"NOT_YET_RECRUITING","city":"Suita-shi","state":"Osaka","zip":"565-0853","country":"Japan","contacts":[{"role":"CONTACT","phone":"81120023812"},{"name":"Satoshi Inoue","role":"PRINCIPAL_INVESTIGATOR"}],"geoPoint":{"lat":34.76143,"lon":135.51567}},{"facility":"The Institute of Medical Science, Asahi Life Foundation","status":"NOT_YET_RECRUITING","city":"Chuo-ku","state":"Tokyo","zip":"103-0002","country":"Japan","contacts":[{"role":"CONTACT","phone":"81120023812"},{"name":"Yukiko Onishi","role":"PRINCIPAL_INVESTIGATOR"}],"geoPoint":{"lat":35.57779,"lon":139.71685}},{"facility":"Tokyo-Eki Center-building Clinic","status":"NOT_YET_RECRUITING","city":"Chuo-ku","state":"Tokyo","zip":"103-0027","country":"Japan","contacts":[{"role":"CONTACT","phone":"81120023812"},{"name":"Arihiro Kiyosue","role":"PRINCIPAL_INVESTIGATOR"}],"geoPoint":{"lat":35.57779,"lon":139.71685}},{"facility":"Fukuwa Clinic","status":"NOT_YET_RECRUITING","city":"Chuo-ku","state":"Tokyo","zip":"104-0031","country":"Japan","contacts":[{"role":"CONTACT","phone":"81120023812"},{"name":"Yasushi Fukushima","role":"PRINCIPAL_INVESTIGATOR"}],"geoPoint":{"lat":35.57779,"lon":139.71685}},{"facility":"Medical Corporation Heishinkai ToCROM Clinic","status":"NOT_YET_RECRUITING","city":"Shinjuku-ku","state":"Tokyo","zip":"160-0008","country":"Japan","contacts":[{"role":"CONTACT","phone":"81120023812"},{"name":"Osamu Matsuoka","role":"PRINCIPAL_INVESTIGATOR"}],"geoPoint":{"lat":35.2946,"lon":139.57059}},{"facility":"Shimokitazawa Tomo Clinic","status":"NOT_YET_RECRUITING","city":"Tokyo","zip":"155-0031","country":"Japan","contacts":[{"role":"CONTACT","phone":"81120023812"},{"name":"Tomofumi Murakami","role":"PRINCIPAL_INVESTIGATOR"}],"geoPoint":{"lat":35.6895,"lon":139.69171}},{"facility":"RM Pharma Specialists - Unidad Especializada en Datos","status":"NOT_YET_RECRUITING","city":"Mexico City","state":"Distrito Federal","zip":"03100","country":"Mexico","contacts":[{"name":"Juan Jose Morales Virgen","role":"PRINCIPAL_INVESTIGATOR"}],"geoPoint":{"lat":19.42847,"lon":-99.12766}},{"facility":"Endocrinologia Especializada","status":"NOT_YET_RECRUITING","city":"Mexico","state":"Distrito Federal","zip":"11700","country":"Mexico","contacts":[{"name":"Joaquin Joya Galena","role":"PRINCIPAL_INVESTIGATOR"}],"geoPoint":{"lat":19.42847,"lon":-99.12766}},{"facility":"Diseno y Planeacion en Investigacion Medica - Guadalajara - Calle Amado Nervo","status":"NOT_YET_RECRUITING","city":"Guadalajara","state":"Jalisco","zip":"44600","country":"Mexico","contacts":[{"name":"Cesar Calvo","role":"PRINCIPAL_INVESTIGATOR"}],"geoPoint":{"lat":20.66682,"lon":-103.39182}},{"facility":"Centro Medico Zambrano Hellion","status":"NOT_YET_RECRUITING","city":"San Pedro Garza Garcia","state":"Nuevo León","zip":"66278","country":"Mexico","contacts":[{"name":"Leonardo Mancillas Adame","role":"PRINCIPAL_INVESTIGATOR"}],"geoPoint":{"lat":25.65716,"lon":-100.40268}},{"facility":"Medical Care and Research SA de CV","status":"NOT_YET_RECRUITING","city":"Merida","state":"Yucatán","zip":"97070","country":"Mexico","contacts":[{"name":"Christian González Montaño","role":"PRINCIPAL_INVESTIGATOR"}],"geoPoint":{"lat":20.97537,"lon":-89.61696}},{"facility":"Kohler & Milstein Research S.A. De C.V.","status":"NOT_YET_RECRUITING","city":"Mérida","state":"Yucatán","zip":"97070","country":"Mexico","contacts":[{"name":"Jesus Simon Campos","role":"PRINCIPAL_INVESTIGATOR"}],"geoPoint":{"lat":20.97537,"lon":-89.61696}},{"facility":"Enclifar Ensayos Clínicos Farmacológicos Sc","status":"NOT_YET_RECRUITING","city":"Chihuahua","zip":"31110","country":"Mexico","contacts":[{"name":"Luis Nevarez","role":"PRINCIPAL_INVESTIGATOR"}],"geoPoint":{"lat":28.63528,"lon":-106.08889}},{"facility":"Puerto Rico Health and Wellness Institute","status":"NOT_YET_RECRUITING","city":"Dorado","zip":"00646","country":"Puerto Rico","contacts":[{"name":"Elham Ghorbani","role":"PRINCIPAL_INVESTIGATOR"}],"geoPoint":{"lat":18.45883,"lon":-66.26767}},{"facility":"Isis Clinical Research Center","status":"NOT_YET_RECRUITING","city":"Guaynabo","zip":"00968","country":"Puerto Rico","contacts":[{"name":"Paola Mansilla-Letelier","role":"PRINCIPAL_INVESTIGATOR"}],"geoPoint":{"lat":18.35745,"lon":-66.111}}]},"referencesModule":{"seeAlsoLinks":[{"label":"A Study of Orforglipron (LY3502970) in Participants With Obesity or Overweight and at Least One Weight-Related Comorbidity (GZPO)","url":"https://trials.lilly.com/en-US/trial/609396"}]},"ipdSharingStatementModule":{"ipdSharing":"YES","description":"Anonymized individual patient level data will be provided in a secure access environment upon approval of a research proposal and a signed data sharing agreement.","infoTypes":["STUDY_PROTOCOL","SAP","CSR"],"timeFrame":"Data are available 6 months after the primary publication and approval of the indication studied in the US and EU, whichever is later. Data will be indefinitely available for requesting.","accessCriteria":"A research proposal must be approved by an independent review panel and researchers must sign a data sharing agreement.","url":"https://vivli.org/"}},"derivedSection":{"miscInfoModule":{"versionHolder":"2025-07-07"},"conditionBrowseModule":{"meshes":[{"id":"D009765","term":"Obesity"},{"id":"D050177","term":"Overweight"}],"ancestors":[{"id":"D044343","term":"Overnutrition"},{"id":"D009748","term":"Nutrition Disorders"},{"id":"D001835","term":"Body Weight"}],"browseLeaves":[{"id":"M7115","name":"Diabetes Mellitus","relevance":"LOW"},{"id":"M7119","name":"Diabetes Mellitus, Type 2","relevance":"LOW"},{"id":"M12701","name":"Obesity","asFound":"Obesity","relevance":"HIGH"},{"id":"M26186","name":"Overweight","asFound":"Overweight","relevance":"HIGH"},{"id":"M5114","name":"Body Weight","relevance":"LOW"},{"id":"M25307","name":"Overnutrition","relevance":"LOW"},{"id":"M12684","name":"Nutrition Disorders","relevance":"LOW"}],"browseBranches":[{"abbrev":"BC18","name":"Nutritional and Metabolic Diseases"},{"abbrev":"BC19","name":"Gland and Hormone Related Diseases"},{"abbrev":"All","name":"All Conditions"},{"abbrev":"BC23","name":"Symptoms and General Pathology"}]}},"hasResults":false}