{"protocolSection":{"identificationModule":{"nctId":"NCT05813288","orgStudyIdInfo":{"id":"AR-DEX-22-02"},"secondaryIdInfos":[{"id":"2023-503693-20","type":"EUDRACT_NUMBER"}],"organization":{"fullName":"Areteia Therapeutics","class":"INDUSTRY"},"briefTitle":"A Study to Assess the Effect of Dexpramipexole in Adolescents and Adults With Severe Eosinophilic Asthma (EXHALE-3)","officialTitle":"A Randomized, Double-blind, Placebo-controlled, Parallel-group Study to Assess the Efficacy, Safety, and Tolerability of Dexpramipexole Administered Orally for 52 Weeks in Participants With Severe Eosinophilic Asthma","acronym":"EXHALE-3"},"statusModule":{"statusVerifiedDate":"2025-06","overallStatus":"RECRUITING","expandedAccessInfo":{"hasExpandedAccess":false},"startDateStruct":{"date":"2023-03-27","type":"ACTUAL"},"primaryCompletionDateStruct":{"date":"2026-12","type":"ESTIMATED"},"completionDateStruct":{"date":"2027-02","type":"ESTIMATED"},"studyFirstSubmitDate":"2023-03-27","studyFirstSubmitQcDate":"2023-04-13","studyFirstPostDateStruct":{"date":"2023-04-14","type":"ACTUAL"},"lastUpdateSubmitDate":"2025-06-10","lastUpdatePostDateStruct":{"date":"2025-06-13","type":"ACTUAL"}},"sponsorCollaboratorsModule":{"responsibleParty":{"type":"SPONSOR"},"leadSponsor":{"name":"Areteia Therapeutics","class":"INDUSTRY"}},"oversightModule":{"oversightHasDmc":true,"isFdaRegulatedDrug":true,"isFdaRegulatedDevice":false,"isUsExport":false},"descriptionModule":{"briefSummary":"The objective of this clinical study is to investigate the safety, tolerability, and efficacy of dexpramipexole in participants with inadequately controlled severe eosinophilic asthma."},"conditionsModule":{"conditions":["Eosinophilic Asthma","Asthma; Eosinophilic","Asthma"],"keywords":["Exacerbations","Severe Asthma","Dexpramipexole","EXHALE","Areteia","EXHALE-3","Uncontrolled Asthma","Asthma Attack"]},"designModule":{"studyType":"INTERVENTIONAL","phases":["PHASE3"],"designInfo":{"allocation":"RANDOMIZED","interventionModel":"PARALLEL","primaryPurpose":"TREATMENT","maskingInfo":{"masking":"DOUBLE","whoMasked":["PARTICIPANT","INVESTIGATOR"]}},"enrollmentInfo":{"count":930,"type":"ESTIMATED"}},"armsInterventionsModule":{"armGroups":[{"label":"150 mg BID","type":"EXPERIMENTAL","description":"Dexpramipexole 150 mg oral tablet taken twice a day","interventionNames":["Drug: Dexpramipexole Dihydrochloride"]},{"label":"75 mg BID","type":"EXPERIMENTAL","description":"Dexpramipexole 75 mg oral tablet taken twice a day","interventionNames":["Drug: Dexpramipexole Dihydrochloride"]},{"label":"Placebo","type":"PLACEBO_COMPARATOR","description":"Placebo oral tablet taken twice a day","interventionNames":["Drug: Placebo"]}],"interventions":[{"type":"DRUG","name":"Dexpramipexole Dihydrochloride","description":"Oral administration of dexpramipexole tablet","armGroupLabels":["150 mg BID","75 mg BID"]},{"type":"DRUG","name":"Placebo","description":"Oral administration of placebo tablet","armGroupLabels":["Placebo"]}]},"outcomesModule":{"primaryOutcomes":[{"measure":"Annualized rate of severe asthma exacerbations over 52 weeks.","description":"A severe exacerbation was defined as a deterioration of asthma requiring: use of systemic corticosteroids for \\>=3 days; or hospitalization or emergency room visit because of asthma, requiring systemic corticosteroids; or death due to asthma.","timeFrame":"Day 1 (baseline, pre-dose) through Week 52"}],"secondaryOutcomes":[{"measure":"Absolute Change in pre-bronchodilator forced expiratory volume (Pre-BD FEV₁) from Baseline","description":"The absolute change from baseline in pre-bronchodilator forced expiratory volume, averaged across visits at Weeks 36, 44, and 52.","timeFrame":"Day 1 (baseline, pre-dose), Weeks 36, 44, 52"},{"measure":"Mean Change From Baseline at Week 52 in Asthma Control Questionnaire-6 (ACQ-6) (Key Secondary Endpoint)","description":"Change from baseline in ACQ-6 as compared to placebo at Week 52. The ACQ-6 captures asthma symptoms and short-acting β2-agonist use via subject-report. Questions are weighted equally and scored from 0 (totally controlled) to 6 (severely uncontrolled). The ACQ-6 score is the mean of the responses","timeFrame":"From randomization to Study Week 52"},{"measure":"Mean Change From Baseline at Week 52 in Standardized Asthma Quality of Life Questionnaire for 12 Years and Older (AQLQ+12) Total Score (Key Secondary Endpoint)","description":"Mean change from baseline in AQLQ+12 as compared to placebo at Week 52. The AQLQ+12 is a questionnaire that measures the health-related quality of life experienced by asthma subjects. The total score is defined as the average of all 32 questions in the AQLQ+12 questionnaire. AQLQ+12 is a 7-point scale questionnaire, ranging from 7 (no impairment) to 1 (severe impairment).","timeFrame":"From randomization to Study Week 52"},{"measure":"Annualized rate of severe exacerbations requiring an emergency over 52 weeks department visit or hospitalization","timeFrame":"Day 1 (baseline, pre-dose), Week 52"},{"measure":"Annualized rate of severe exacerbations (AAER) from Week 4 to Week 52.","timeFrame":"Week 4 through Week 52"},{"measure":"Change in absolute eosinophil count (AEC)","timeFrame":"Day 1 (baseline, pre-dose), Weeks 35, 44, and 52"},{"measure":"Average change from baseline in forced vital capacity (FVC)","timeFrame":"Day 1(baseline, pre-dose), Weeks 36, 44, and 52"},{"measure":"FVC, change from baseline at Weeks 4, 12, 20, 28, 36, 44, and 52.","timeFrame":"Day 1(baseline, pre-dose), Weeks 4, 12, 20, 28, 36, 44, and 52."},{"measure":"Post-bronchodilator FEV₁, change from baseline to Week 52","timeFrame":"Day 1 (baseline, pre-dose) through Week 52"},{"measure":"Time to first severe asthma exacerbation","timeFrame":"Up to Week 52"},{"measure":"Mean Change From Baseline at Week 52 in Asthma Symptom Diary (ASD)","description":"The Asthma Symptom Diary comprises of 10 items (5 items in the morning; 5 items in the evening). Asthma symptoms during night time and daytime are recorded by the patient each morning and evening in the daily diary. A daily ASD score is the mean of the 10 items. Responses for all 10 items are required to calculate the daily ASD score; otherwise, it is treated as missing. For the 7-day average asthma symptom score, scoring is done with no imputation using the mean of at least 4 of the 7 daily ASD scores as a mean weekly item score. The 7-day average ASD score ranges from 0 to 4, where 0 indicates no asthma symptoms.","timeFrame":"From randomization to Study Week 52"},{"measure":"Mean Change From Baseline at Week 52 in EQ-5D-5L","description":"EQ-5D-5L allows subjects to rate current health status on a scale of 0-100, with 0 being the worst imaginable health state.","timeFrame":"At Study Week 52"}]},"eligibilityModule":{"eligibilityCriteria":"Inclusion Criteria:\n\n1. Signed informed consent form and assent form, as appropriate.\n2. Male or female ≥12 years of age at Screening Visit 1.\n\n   Asthma-related criteria\n3. Documented physician diagnosis of asthma for ≥12 months prior to Screening Visit 1.\n4. Eosinophil count of ≥0.30x10⁹/L at Screening Visit 1. If the initial value is between 0.250x10⁹/L to 0.299x10⁹/L, then this may be repeated once at an unscheduled visit (prior to Screening Visit 2).\n5. Treatment of asthma, participants must satisfy all the below (items a to c):\n\n   1. Participants who have received asthma controller medication with medium or high dose inhaled corticosteroids (ICS ≥500 μg/day fluticasone propionate dry powder formulation daily or clinically comparable, per GINA 2021) on a regular basis for at least 12 months prior to Screening Visit 1.\n   2. Documented treatment with a stable dose of either medium or high dose ICS for at least 3 months prior to Visit 1. The ICS may be contained within an ICS/long-acting β2 agonist (LABA) combination product. Daily oral corticosteroids are an allowed concomitant medication; participants on daily oral corticosteroids must be on a stable dose for 3 months before Screening Visit 1.\n   3. Use of one of more additional daily maintenance asthma controller medications according to standard practice of care is required. Use of a stable dose of any additional asthma controller medications must be documented for at least 3 months prior to Screening Visit 1.\n6. Pre-BD FEV₁ ≥40% and \\<80% (\\<90% for participants 12 to 17 years of age) of predicted at Screening Visit 2.\n7. Variable airflow obstruction documented with at least one of the following criteria:\n\n   1. Bronchodilator reversibility at Screening Visit 2, as evidenced by ≥12% and ≥200 mL improvement in FEV₁, 15 to 30 minutes following inhalation of 400 µg (four puffs) of albuterol/salbutamol (≥12% and ≥160 mL for ages 12 to 17). Participants who do not meet the bronchodilator reversibility inclusion criterion but have ≥10% and ≥160 mL reversibility, may repeat the reversibility spirometry assessment once during the Screening period, at an unscheduled visit at least 7 days prior to baseline.\n   2. Bronchodilator reversibility, using the criteria above, documented in the past 24 months prior to Screening Visit 1 or during Screening.\n   3. Peak flow variation of ≥20% over a 2-week period, documented in the past 24 months prior to Screening Visit 1 or during Screening.\n   4. Airflow variability in clinic FEV₁ ≥20% between two consecutive clinic visits, documented in the past 24 months prior to Screening Visit 1.\n   5. Airway hyperresponsiveness (provocative concentration causing a 20% fall in FEV₁ of methacholine \\<8 mg/mL or other clinically relevant bronchoprovocation testing) documented in the past 24 months prior to Screening Visit 1 or during Screening.\n8. ACQ-6 ≥1.5 at Screening Visit 2.\n9. Documented history of at least two asthma exacerbations requiring treatment with systemic corticosteroids (intramuscular, intravenous, or oral) within the past 12-month period prior to Screening Visit 1.\n\n   General medical history\n10. Negative urine pregnancy test for women of childbearing potential (WOCBP; after menarche) at the Screening and Baseline visits.\n11. WOCBP must use either of the following methods of birth control, from Screening Visit 1 through the End of Study Visit:\n\n    1. A highly effective form of birth control (confirmed by the investigator). Highly effective forms of birth control include: true sexual abstinence, a vasectomized sexual partner, Implanon, female sterilization by tubal occlusion, any effective Intrauterine device (IUD), IUD/intrauterine system (IUS), Levonorgestrel Intrauterine system, or oral contraceptive.\n\n       * Or\n    2. Two protocol acceptable methods of contraception in tandem.\n\n       Women not of childbearing potential are defined as women who are either permanently sterilized (hysterectomy, bilateral oophorectomy, or bilateral salpingectomy), or who are postmenopausal. Women will be considered postmenopausal if they have been amenorrheic for ≥12 months prior to the planned date of the Baseline Visit without an alternative medical cause. The following age specific requirements apply:\n    3. Women \\<50 years old will be considered postmenopausal if they have been amenorrheic for 12 months or more following cessation of exogenous hormonal treatment and follicle stimulating hormone levels in the postmenopausal range.\n    4. Women ≥50 years old will be considered postmenopausal if they have been amenorrheic for 12 months or more following cessation of all exogenous hormonal treatment.\n\nExclusion Criteria:\n\nAsthma-related criteria\n\n1. A participant who experiences a severe asthma exacerbation (defined as a deterioration of asthma that results in emergency treatment, hospitalization due to asthma, or treatment with systemic corticosteroids) at any time from 4 weeks prior to Screening Visit 1.\n\n   Participants who experience an asthma exacerbation during the Screening/Run-in Period may remain in screening and proceed with study visits 14 days after they have completed their course of oral steroids or returned to their pre-Screening Visit maintenance dose of oral steroids and the investigator considers participant has returned to baseline status.\n2. Current diagnosis of diseases which may confound interpretation of this study's findings such as allergic bronchopulmonary aspergillosis, eosinophilic granulomatosis with polyangiitis, eosinophilic gastrointestinal diseases, hypereosinophilic syndrome, or lung diseases (eg, chronic obstructive pulmonary disease, idiopathic pulmonary fibrosis).\n3. Respiratory infection: Upper or lower respiratory tract, sinus, or middle ear infection within the 4 weeks before Screening Visit 1.\n\n   Prohibited medications/procedures\n4. Treatment with a biologic investigational drug in the last 5 months prior to Screening Visit 1. Treatment with non-biologic investigational drugs in the previous 30 days or five-half-lives prior to Screening Visit 1, whichever is longer. Treatment with GSK3511294 (long-acting anti-IL-5) in the past 12 months.\n5. Treatment with any of the following monoclonal antibody therapies within 120 days prior to Baseline: benralizumab, dupilumab, mepolizumab, reslizumab, omalizumab, tezepelumab, or tralokinumab.\n6. Treatment with pramipexole (Mirapex®) within 30 days of Baseline.\n7. Treatment with selected drugs known to have a substantial risk of neutropenia in the past 30 days prior to Screening Visit 1.\n8. Bronchial thermoplasty procedure in the past 12 months prior to Screening Visit 1 or planned during the coming year.\n\n   General medical history\n9. Weight \\<40 kg at Screening Visit 1.\n10. Current smoking within 12 months prior to Screening Visit 1 or a smoking history of \\>10 pack-years. Smoking includes tobacco, vaping, and/or marijuana use.\n11. Known or suspected alcohol or drug abuse\n12. Uncontrolled severe hypertension: systolic blood pressure \\>180 mmHg or diastolic blood pressure \\>110 mmHg prior to Baseline Visit despite anti-hypertensive therapy.\n13. History of malignancy that required surgery (excluding local and wide-local excision), radiation therapy and/or systemic therapy during the 5 years prior to Baseline Visit.\n14. History of human immunodeficiency virus (HIV) infection or chronic infection with hepatitis B or C.\n15. A helminth parasitic infection diagnosed within 24 weeks prior Screening Visit 1 that has not been treated with or has failed to respond to standard of care (SoC) therapy.\n16. Medical or other condition likely to interfere with participant's ability to undergo study procedures, adhere to visit schedule, or comply with study requirements.\n17. Known or suspected noncompliance with medication.\n18. Unwillingness or inability to follow the procedures outlined in the protocol.\n\n    Clinical safety labs\n19. Absolute neutrophil count \\<2.000x10⁹/L at screening at Screening Visit 1 or Screening Visit 2.\n20. Renal dysfunction, defined as an estimated glomerular filtration rate (eGFR) \\<60 mL/min/1.73m² at Screening Visit 2 (using the Chronic Kidney Disease Epidemiology Collaboration \\[CKD-EPI\\] formula \\[Levey et al, 2009\\] for age ≥18 years at screening; using the Bedside Schwartz \\[Schwartz and Work, 2009\\] eGFR formula for age \\<18).\n21. Active liver disease defined as any known current infectious, neoplastic, or metabolic pathology of the liver or unexplained elevations in alanine aminotransferase (ALT), aspartate aminotransferase (AST), \\>3x the upper limit of normal (ULN), or total bilirubin \\>2x ULN at Screening Visit 2 confirmed by a repeat abnormal measurement of the relevant value(s), at least 1 week apart.\n\n    Cardiac safety\n22. History of New York Heart Association class IV heart failure or last known left ventricular ejection fraction \\<25%.\n23. History of major adverse cardiovascular event (MACE) within 3 months prior to the Baseline Visit.\n24. History of cardiac arrhythmia within 3 months prior to Baseline Visit that is not controlled by medication or via ablation.\n25. History of long QT syndrome.\n26. Corrected QT interval by Fridericia (QTcF) interval \\>450 ms for males and \\>470 ms for females at Screening Visit 2 or QTcF ≥480 ms for participants with bundle branch block.\n27. Clinically important abnormalities in resting ECG that may interfere with the interpretation of QTcF interval changes at Screening Visit 2, including heart rate \\<45 beats per minute (bpm) or \\>100 bpm.\n\n    Pregnancy/Lactation\n28. Pregnant women or women breastfeeding.\n29. Males who are unwilling to use an acceptable method of birth control during the entire study period (ie, condom with spermicide).\n30. Allergy or hypersensitivity to dexpramipexole or any of its components.","healthyVolunteers":false,"sex":"ALL","minimumAge":"12 Years","maximumAge":"99 Years","stdAges":["CHILD","ADULT","OLDER_ADULT"]},"contactsLocationsModule":{"centralContacts":[{"name":"EXHALE Recruiting","role":"CONTACT","phone":"888-584-9281","email":"clinicaltrials@areteiatx.com"}],"overallOfficials":[{"name":"Michael E. Wechsler, MD","affiliation":"National Jewish Health","role":"PRINCIPAL_INVESTIGATOR"}],"locations":[{"facility":"Research Site 30001-287","status":"RECRUITING","city":"Mobile","state":"Alabama","zip":"36608","country":"United States","contacts":[{"role":"CONTACT","email":"clinicaltrials@areteiatx.com"}],"geoPoint":{"lat":30.69436,"lon":-88.04305}},{"facility":"Research Site 30001-487","status":"RECRUITING","city":"Chandler","state":"Arizona","zip":"85224","country":"United States","contacts":[{"role":"CONTACT","email":"clinicaltrials@areteiatx.com"}],"geoPoint":{"lat":33.30616,"lon":-111.84125}},{"facility":"Research Site 30001-462","status":"RECRUITING","city":"Peoria","state":"Arizona","zip":"85381","country":"United States","contacts":[{"role":"CONTACT","email":"clinicaltrials@areteiatx.com"}],"geoPoint":{"lat":33.5806,"lon":-112.23738}},{"facility":"Research Site US-30001-462","status":"RECRUITING","city":"Peoria","state":"Arizona","zip":"85381","country":"United States","contacts":[{"role":"CONTACT","email":"clinicaltrials@areteiatx.com"}],"geoPoint":{"lat":33.5806,"lon":-112.23738}},{"facility":"Research Site 30001-322","status":"RECRUITING","city":"Surprise","state":"Arizona","zip":"85378","country":"United States","contacts":[{"role":"CONTACT","email":"clinicaltrials@areteiatx.com"}],"geoPoint":{"lat":33.63059,"lon":-112.33322}},{"facility":"Research Site 30001-010","status":"RECRUITING","city":"Little Rock","state":"Arkansas","zip":"72212","country":"United States","contacts":[{"role":"CONTACT","email":"clinicaltrials@areteiatx.com"}],"geoPoint":{"lat":34.74648,"lon":-92.28959}},{"facility":"Research Site 30001-485","status":"RECRUITING","city":"Inglewood","state":"California","zip":"96410","country":"United States","contacts":[{"role":"CONTACT","email":"clinicaltrials@areteiatx.com"}],"geoPoint":{"lat":33.96168,"lon":-118.35313}},{"facility":"Research Site 30001-497","status":"RECRUITING","city":"Los Angeles","state":"California","zip":"90017","country":"United States","contacts":[{"role":"CONTACT","email":"clinicaltrials@areteiatx.com"}],"geoPoint":{"lat":34.05223,"lon":-118.24368}},{"facility":"Research Site 30001-489","status":"ACTIVE_NOT_RECRUITING","city":"Pasadena","state":"California","zip":"91105","country":"United States","geoPoint":{"lat":34.14778,"lon":-118.14452}},{"facility":"Research Site US-30001-434","status":"RECRUITING","city":"San diego","state":"California","zip":"92123","country":"United States","contacts":[{"role":"CONTACT","email":"clinicaltrials@areteiatx.com"}],"geoPoint":{"lat":32.71533,"lon":-117.15726}},{"facility":"Research Site 30001-484","status":"RECRUITING","city":"Santa Monica","state":"California","zip":"90424","country":"United States","contacts":[{"role":"CONTACT","email":"clinicaltrials@areteiatx.com"}],"geoPoint":{"lat":34.01945,"lon":-118.49119}},{"facility":"Research Site US-30001-304","status":"RECRUITING","city":"Valencia","state":"California","zip":"91355","country":"United States","contacts":[{"role":"CONTACT","email":"clinicaltrials@areteiatx.com"}],"geoPoint":{"lat":34.44361,"lon":-118.60953}},{"facility":"Research Site 30001-305","status":"RECRUITING","city":"Valencia","state":"California","zip":"97355","country":"United States","contacts":[{"role":"CONTACT","email":"clinicaltrials@areteiatx.com"}],"geoPoint":{"lat":34.44361,"lon":-118.60953}},{"facility":"Research Site 30001-291","status":"RECRUITING","city":"Jacksonville","state":"Florida","zip":"32216","country":"United States","contacts":[{"role":"CONTACT","email":"clinicaltrials@areteiatx.com"}],"geoPoint":{"lat":30.33218,"lon":-81.65565}},{"facility":"Research Site 30001-318","status":"COMPLETED","city":"Maitland","state":"Florida","zip":"32751","country":"United States","geoPoint":{"lat":28.62778,"lon":-81.36312}},{"facility":"Research Site 30001-311","status":"RECRUITING","city":"Miami","state":"Florida","zip":"33144","country":"United States","contacts":[{"role":"CONTACT","email":"clinicaltrials@areteiatx.com"}],"geoPoint":{"lat":25.77427,"lon":-80.19366}},{"facility":"Research Site 30001-288","status":"RECRUITING","city":"Miami","state":"Florida","zip":"33165","country":"United States","contacts":[{"role":"CONTACT","email":"clinicaltrials@areteiatx.com"}],"geoPoint":{"lat":25.77427,"lon":-80.19366}},{"facility":"Research Site 30001-310","status":"RECRUITING","city":"Miami","state":"Florida","zip":"33165","country":"United States","contacts":[{"role":"CONTACT","email":"clinicaltrials@areteiatx.com"}],"geoPoint":{"lat":25.77427,"lon":-80.19366}},{"facility":"Research Site 30001-329","status":"RECRUITING","city":"Miami","state":"Florida","zip":"33165","country":"United States","contacts":[{"role":"CONTACT","email":"clinicaltrials@areteiatx.com"}],"geoPoint":{"lat":25.77427,"lon":-80.19366}},{"facility":"Research Site 30001-082","status":"ACTIVE_NOT_RECRUITING","city":"Miami","state":"Florida","zip":"33179","country":"United States","geoPoint":{"lat":25.77427,"lon":-80.19366}},{"facility":"Research Site 30001-301","status":"RECRUITING","city":"Naples","state":"Florida","zip":"34103","country":"United States","contacts":[{"role":"CONTACT","email":"clinicaltrials@areteiatx.com"}],"geoPoint":{"lat":26.14234,"lon":-81.79596}},{"facility":"Research Site 30001-348","status":"COMPLETED","city":"Ocala","state":"Florida","zip":"34471","country":"United States","geoPoint":{"lat":29.1872,"lon":-82.14009}},{"facility":"Research Site 30001-331","status":"RECRUITING","city":"Orlando","state":"Florida","zip":"32807","country":"United States","contacts":[{"role":"CONTACT","email":"clinicaltrials@areteiatx.com"}],"geoPoint":{"lat":28.53834,"lon":-81.37924}},{"facility":"Research Site 30001-293","status":"RECRUITING","city":"Orlando","state":"Florida","zip":"32819","country":"United States","contacts":[{"role":"CONTACT","email":"clinicaltrials@areteiatx.com"}],"geoPoint":{"lat":28.53834,"lon":-81.37924}},{"facility":"Research Site 30001-312","status":"RECRUITING","city":"Pembroke Pines","state":"Florida","zip":"33026","country":"United States","contacts":[{"role":"CONTACT","email":"clinicaltrials@areteiatx.com"}],"geoPoint":{"lat":26.00315,"lon":-80.22394}},{"facility":"Research Site US-30001-429","status":"RECRUITING","city":"Plantation","state":"Florida","zip":"33317","country":"United States","contacts":[{"role":"CONTACT","email":"clinicaltrials@areteiatx.com"}],"geoPoint":{"lat":26.13421,"lon":-80.23184}},{"facility":"Research Site 30001-319","status":"RECRUITING","city":"Viera","state":"Florida","zip":"32940","country":"United States","contacts":[{"role":"CONTACT","email":"clinicaltrials@areteiatx.com"}],"geoPoint":{"lat":28.24696,"lon":-80.737}},{"facility":"Research Site US-30001-452","status":"RECRUITING","city":"Dunwoody","state":"Georgia","zip":"30350","country":"United States","contacts":[{"role":"CONTACT","email":"clinicaltrials@areteiatx.com"}],"geoPoint":{"lat":33.94621,"lon":-84.33465}},{"facility":"Research Site 30001-483","status":"RECRUITING","city":"East Point","state":"Georgia","zip":"30344","country":"United States","contacts":[{"role":"CONTACT","email":"clinicaltrials@areteiatx.com"}],"geoPoint":{"lat":33.67955,"lon":-84.43937}},{"facility":"Research Site 30001-366","status":"RECRUITING","city":"Lilburn","state":"Georgia","zip":"30047","country":"United States","contacts":[{"role":"CONTACT","email":"clinicaltrials@areteiatx.com"}],"geoPoint":{"lat":33.8901,"lon":-84.14297}},{"facility":"Research Site 30001-328","status":"RECRUITING","city":"Maywood","state":"Illinois","zip":"60153","country":"United States","contacts":[{"role":"CONTACT","email":"clinicaltrials@areteiatx.com"}],"geoPoint":{"lat":41.8792,"lon":-87.84312}},{"facility":"Research Site 30001-347","status":"RECRUITING","city":"Louisville","state":"Kentucky","zip":"40202","country":"United States","contacts":[{"role":"CONTACT","email":"clinicaltrials@areteiatx.com"}],"geoPoint":{"lat":38.25424,"lon":-85.75941}},{"facility":"Research Site US-30001-437","status":"RECRUITING","city":"Alexandria","state":"Louisiana","zip":"71303","country":"United States","geoPoint":{"lat":31.31129,"lon":-92.44514}},{"facility":"Research Site 30001-286","status":"RECRUITING","city":"Lafayette","state":"Louisiana","zip":"70508","country":"United States","geoPoint":{"lat":30.22409,"lon":-92.01984}},{"facility":"Research Site 30001-313","status":"COMPLETED","city":"Marrero","state":"Louisiana","zip":"70072","country":"United States","geoPoint":{"lat":29.89937,"lon":-90.10035}},{"facility":"Research Site US-30001-352","status":"RECRUITING","city":"Zachary","state":"Louisiana","zip":"70791","country":"United States","geoPoint":{"lat":30.64852,"lon":-91.1565}},{"facility":"Research Site US-30001-414","status":"RECRUITING","city":"Annapolis","state":"Maryland","zip":"37067","country":"United States","geoPoint":{"lat":38.97845,"lon":-76.49218}},{"facility":"Research Site 30001-472","status":"RECRUITING","city":"Farmington Hills","state":"Michigan","zip":"48336","country":"United States","contacts":[{"role":"CONTACT","email":"clinicaltrials@areteiatx.com"}],"geoPoint":{"lat":42.48531,"lon":-83.37716}},{"facility":"Research Site 30001-442","status":"RECRUITING","city":"Southfield","state":"Michigan","zip":"48034","country":"United States","contacts":[{"role":"CONTACT","email":"clinicaltrials@areteiatx.com"}],"geoPoint":{"lat":42.47337,"lon":-83.22187}},{"facility":"Research Site 30001-372","status":"RECRUITING","city":"Warren","state":"Michigan","zip":"48088","country":"United States","geoPoint":{"lat":42.49042,"lon":-83.01306}},{"facility":"Research Site 30001-421","status":"RECRUITING","city":"Mankato","state":"Minnesota","zip":"56001","country":"United States","contacts":[{"role":"CONTACT","email":"clinicaltrials@areteiatx.com"}],"geoPoint":{"lat":44.15906,"lon":-94.00915}},{"facility":"Research Site 30001-363","status":"ACTIVE_NOT_RECRUITING","city":"Edison","state":"New Jersey","zip":"08817","country":"United States","geoPoint":{"lat":40.51872,"lon":-74.4121}},{"facility":"Research Site 30001-474","status":"RECRUITING","city":"Massena","state":"New York","zip":"13662","country":"United States","contacts":[{"role":"CONTACT","email":"clinicaltrials@areteiatx.com"}],"geoPoint":{"lat":44.9281,"lon":-74.89186}},{"facility":"Research Site 30001-455","status":"RECRUITING","city":"New York","state":"New York","zip":"10016","country":"United States","contacts":[{"role":"CONTACT","email":"clinicaltrials@areteiatx.com"}],"geoPoint":{"lat":40.71427,"lon":-74.00597}},{"facility":"Research Site US-30001-369","status":"RECRUITING","city":"New York","state":"New York","zip":"10029","country":"United States","geoPoint":{"lat":40.71427,"lon":-74.00597}},{"facility":"Research Site 30001-300","status":"COMPLETED","city":"Schenectady","state":"New York","zip":"12304","country":"United States","geoPoint":{"lat":42.81424,"lon":-73.93957}},{"facility":"Research Site US-30001-398","status":"RECRUITING","city":"Charlotte","state":"North Carolina","zip":"28277","country":"United States","geoPoint":{"lat":35.22709,"lon":-80.84313}},{"facility":"Research Site 30001-439","status":"RECRUITING","city":"Rocky Mount","state":"North Carolina","zip":"27804","country":"United States","contacts":[{"role":"CONTACT","email":"clinicaltrials@areteiatx.com"}],"geoPoint":{"lat":35.93821,"lon":-77.79053}},{"facility":"Research Site 30001-413","status":"RECRUITING","city":"Cleveland","state":"Ohio","zip":"44106","country":"United States","contacts":[{"role":"CONTACT","email":"clinicaltrials@areteiatx.com"}],"geoPoint":{"lat":41.4995,"lon":-81.69541}},{"facility":"Research Site 30001-495","status":"RECRUITING","city":"Columbus","state":"Ohio","zip":"43235","country":"United States","contacts":[{"role":"CONTACT","email":"clinicaltrials@areteiatx.com"}],"geoPoint":{"lat":39.96118,"lon":-82.99879}},{"facility":"Research Site US-30001-327","status":"RECRUITING","city":"Philadelphia","state":"Pennsylvania","zip":"19140","country":"United States","geoPoint":{"lat":39.95233,"lon":-75.16379}},{"facility":"Research Site US-30001-414","status":"RECRUITING","city":"Franklin","state":"Tennessee","zip":"37067","country":"United States","geoPoint":{"lat":35.92506,"lon":-86.86889}},{"facility":"Research Site US-30001-364","status":"RECRUITING","city":"Memphis","state":"Tennessee","zip":"38105","country":"United States","geoPoint":{"lat":35.14953,"lon":-90.04898}},{"facility":"Research Site 30001-334","status":"RECRUITING","city":"Allen","state":"Texas","zip":"60607","country":"United States","geoPoint":{"lat":33.10317,"lon":-96.67055}},{"facility":"Research Site 30001-090","status":"RECRUITING","city":"Austin","state":"Texas","zip":"78726","country":"United States","geoPoint":{"lat":30.26715,"lon":-97.74306}},{"facility":"Research Site 30001-290","status":"WITHDRAWN","city":"Austin","state":"Texas","zip":"78726","country":"United States","geoPoint":{"lat":30.26715,"lon":-97.74306}},{"facility":"Research Site 30001-415","status":"RECRUITING","city":"Dallas","state":"Texas","zip":"75246","country":"United States","contacts":[{"role":"CONTACT","email":"clinicaltrials@areteiatx.com"}],"geoPoint":{"lat":32.78306,"lon":-96.80667}},{"facility":"Research Site US-30001-418","status":"COMPLETED","city":"Frisco","state":"Texas","zip":"75034","country":"United States","geoPoint":{"lat":33.15067,"lon":-96.82361}},{"facility":"Research Site 30001-299","status":"COMPLETED","city":"Houston","state":"Texas","zip":"77063","country":"United States","geoPoint":{"lat":29.76328,"lon":-95.36327}},{"facility":"Research Site 30001-315","status":"RECRUITING","city":"Katy","state":"Texas","zip":"77494","country":"United States","geoPoint":{"lat":29.78579,"lon":-95.8244}},{"facility":"Research Site 30001-295","status":"RECRUITING","city":"McKinney","state":"Texas","zip":"75069","country":"United States","geoPoint":{"lat":33.19762,"lon":-96.61527}},{"facility":"Research Site 30001-373","status":"RECRUITING","city":"Mesquite","state":"Texas","zip":"75150","country":"United States","geoPoint":{"lat":32.7668,"lon":-96.59916}},{"facility":"Research Site 30001-481","status":"RECRUITING","city":"Nederland","state":"Texas","zip":"71627","country":"United States","contacts":[{"role":"CONTACT","email":"clinicaltrials@areteiatx.com"}],"geoPoint":{"lat":29.97438,"lon":-93.9924}},{"facility":"Research Site 30001-297","status":"RECRUITING","city":"Pearland","state":"Texas","zip":"77584","country":"United States","geoPoint":{"lat":29.56357,"lon":-95.28605}},{"facility":"Research Site 30001-238","status":"RECRUITING","city":"San Antonio","state":"Texas","zip":"78258","country":"United States","geoPoint":{"lat":29.42412,"lon":-98.49363}},{"facility":"Research Site 30001-377","status":"RECRUITING","city":"San Antonio","state":"Texas","zip":"78258","country":"United States","geoPoint":{"lat":29.42412,"lon":-98.49363}},{"facility":"Research Site 30001-335","status":"RECRUITING","city":"Sugar Land","state":"Texas","zip":"77479","country":"United States","geoPoint":{"lat":29.61968,"lon":-95.63495}},{"facility":"Research Site 30001-333","status":"RECRUITING","city":"Pleasant View","state":"Utah","zip":"84404","country":"United States","geoPoint":{"lat":41.31828,"lon":-111.99216}},{"facility":"Research Site 30054-035","status":"RECRUITING","city":"Buenos Aires","zip":"30054-035","country":"Argentina","contacts":[{"role":"CONTACT","email":"clinicaltrials@areteiatx.com"}],"geoPoint":{"lat":-34.61315,"lon":-58.37723}},{"facility":"Research Site 30054-031","status":"RECRUITING","city":"Buenos Aires","zip":"4190","country":"Argentina","contacts":[{"role":"CONTACT","email":"clinicaltrials@areteiatx.com"}],"geoPoint":{"lat":-34.61315,"lon":-58.37723}},{"facility":"Research Site 30054-048","status":"RECRUITING","city":"Buenos Aires","zip":"8000","country":"Argentina","contacts":[{"role":"CONTACT","email":"clinicaltrials@areteiatx.com"}],"geoPoint":{"lat":-34.61315,"lon":-58.37723}},{"facility":"Research Site 30054-045","status":"RECRUITING","city":"Buenos Aires","zip":"B1646EBJ","country":"Argentina","contacts":[{"role":"CONTACT","email":"clinicaltrials@areteiatx.com"}],"geoPoint":{"lat":-34.61315,"lon":-58.37723}},{"facility":"Research Site 30054-026","status":"RECRUITING","city":"Buenos Aires","zip":"B1824KAJ","country":"Argentina","contacts":[{"role":"CONTACT","email":"clinicaltrials@areteiatx.com"}],"geoPoint":{"lat":-34.61315,"lon":-58.37723}},{"facility":"Research Site 30054-049","status":"RECRUITING","city":"Buenos Aires","zip":"B1842","country":"Argentina","contacts":[{"role":"CONTACT","email":"clinicaltrials@areteiatx.com"}],"geoPoint":{"lat":-34.61315,"lon":-58.37723}},{"facility":"Research Site 30054-050","status":"RECRUITING","city":"Buenos Aires","zip":"B1842","country":"Argentina","contacts":[{"role":"CONTACT","email":"clinicaltrials@areteiatx.com"}],"geoPoint":{"lat":-34.61315,"lon":-58.37723}},{"facility":"Research Site 30054-044","status":"RECRUITING","city":"Buenos Aires","zip":"B1878FNR","country":"Argentina","contacts":[{"role":"CONTACT","email":"clinicaltrials@areteiatx.com"}],"geoPoint":{"lat":-34.61315,"lon":-58.37723}},{"facility":"Research Site -30054-012","status":"RECRUITING","city":"Buenos Aires","zip":"B1900BNN","country":"Argentina","contacts":[{"role":"CONTACT","email":"clinicaltrials@areteiatx.com"}],"geoPoint":{"lat":-34.61315,"lon":-58.37723}},{"facility":"Research Site 30054-034","status":"RECRUITING","city":"Buenos Aires","zip":"B8000JRB","country":"Argentina","contacts":[{"role":"CONTACT","email":"clinicaltrials@areteiatx.com"}],"geoPoint":{"lat":-34.61315,"lon":-58.37723}},{"facility":"Research Site 30054-024","status":"RECRUITING","city":"Buenos Aires","zip":"C1425BEN","country":"Argentina","geoPoint":{"lat":-34.61315,"lon":-58.37723}},{"facility":"Research Site 30054-008","status":"RECRUITING","city":"Buenos Aires","zip":"C1426ABP","country":"Argentina","geoPoint":{"lat":-34.61315,"lon":-58.37723}},{"facility":"Research Site -30054-043","status":"RECRUITING","city":"Buenos Aires","zip":"Cl426ABP","country":"Argentina","contacts":[{"role":"CONTACT","email":"clinicaltrials@areteiatx.com"}],"geoPoint":{"lat":-34.61315,"lon":-58.37723}},{"facility":"Research Site 30054-054","status":"RECRUITING","city":"Concepcion del Uruguay","zip":"E3260EPD","country":"Argentina","contacts":[{"role":"CONTACT","email":"clinicaltrials@areteiatx.com"}],"geoPoint":{"lat":-32.48249,"lon":-58.23722}},{"facility":"Research Site 30054-051","status":"RECRUITING","city":"Cordoba","zip":"5000","country":"Argentina","contacts":[{"role":"CONTACT","email":"clinicaltrials@areteiatx.com"}],"geoPoint":{"lat":-31.4135,"lon":-64.18105}},{"facility":"Research Site 30054-052","status":"RECRUITING","city":"Cordoba","zip":"5000","country":"Argentina","contacts":[{"role":"CONTACT","email":"clinicaltrials@areteiatx.com"}],"geoPoint":{"lat":-31.4135,"lon":-64.18105}},{"facility":"Research Site 30054-047","status":"RECRUITING","city":"Mendoza","zip":"5509","country":"Argentina","contacts":[{"role":"CONTACT","email":"clinicaltrials@areteiatx.com"}],"geoPoint":{"lat":-32.89084,"lon":-68.82717}},{"facility":"Research Site 30054-010","status":"RECRUITING","city":"Mendoza","zip":"M5500CCG","country":"Argentina","geoPoint":{"lat":-32.89084,"lon":-68.82717}},{"facility":"Research Site 30054-032","status":"RECRUITING","city":"Mendoza","zip":"M5501GCA","country":"Argentina","contacts":[{"role":"CONTACT","email":"clinicaltrials@areteiatx.com"}],"geoPoint":{"lat":-32.89084,"lon":-68.82717}},{"facility":"Research Site 30054-028","status":"RECRUITING","city":"Mendoza","zip":"M550JIAAJ","country":"Argentina","contacts":[{"role":"CONTACT","email":"clinicaltrials@areteiatx.com"}],"geoPoint":{"lat":-32.89084,"lon":-68.82717}},{"facility":"Research Site 30054-042","status":"RECRUITING","city":"Santa Fe","zip":"2128","country":"Argentina","contacts":[{"role":"CONTACT","email":"clinicaltrials@areteiatx.com"}],"geoPoint":{"lat":-31.63333,"lon":-60.7}},{"facility":"Research Site 30055-036","status":"RECRUITING","city":"Curitiba","zip":"808101-00","country":"Brazil","contacts":[{"role":"CONTACT","email":"clinicaltrials@areteiatx.com"}],"geoPoint":{"lat":-25.42778,"lon":-49.27306}},{"facility":"Research Site 30055-021","status":"RECRUITING","city":"Porto Alegre","zip":"90410-000","country":"Brazil","contacts":[{"role":"CONTACT","email":"clinicaltrials@areteiatx.com"}],"geoPoint":{"lat":-30.03306,"lon":-51.23}},{"facility":"Research Site 30055-035","status":"RECRUITING","city":"Rio de Janeiro","zip":"22061-080","country":"Brazil","contacts":[{"role":"CONTACT","email":"clinicaltrials@areteiatx.com"}],"geoPoint":{"lat":-22.90278,"lon":-43.2075}},{"facility":"Research Site 30055-025","status":"RECRUITING","city":"Salvador","zip":"40060-325","country":"Brazil","contacts":[{"role":"CONTACT","email":"clinicaltrials@areteiatx.com"}],"geoPoint":{"lat":-12.97111,"lon":-38.51083}},{"facility":"Research Site 30055-025","status":"RECRUITING","city":"Sao Paulo","zip":"03164-000","country":"Brazil","contacts":[{"role":"CONTACT","email":"clinicaltrials@areteiatx.com"}],"geoPoint":{"lat":-23.5475,"lon":-46.63611}},{"facility":"Research Site 30056-013","status":"RECRUITING","city":"Santiago","state":"Providencia","zip":"7501126","country":"Chile","geoPoint":{"lat":-33.45694,"lon":-70.64827}},{"facility":"Research Site 30056-009","status":"RECRUITING","city":"Curico","zip":"3341643","country":"Chile","contacts":[{"role":"CONTACT","email":"clinicaltrials@areteiatx.com"}],"geoPoint":{"lat":-34.98279,"lon":-71.23943}},{"facility":"Research Site 30056-007","status":"RECRUITING","city":"Santiago","zip":"7500657","country":"Chile","contacts":[{"role":"CONTACT","email":"clinicaltrials@areteiatx.com"}],"geoPoint":{"lat":-33.45694,"lon":-70.64827}},{"facility":"Research Site 30056-013","status":"RECRUITING","city":"Santiago","zip":"7501126","country":"Chile","contacts":[{"role":"CONTACT","email":"clinicaltrials@areteiatx.com"}],"geoPoint":{"lat":-33.45694,"lon":-70.64827}},{"facility":"Research Site 30056-011","status":"RECRUITING","city":"Santiago","zip":"7510000","country":"Chile","contacts":[{"role":"CONTACT","email":"clinicaltrials@areteiatx.com"}],"geoPoint":{"lat":-33.45694,"lon":-70.64827}},{"facility":"Research Site 30056-010","status":"RECRUITING","city":"Santiago","zip":"7630226","country":"Chile","contacts":[{"role":"CONTACT","email":"clinicaltrials@areteiatx.com"}],"geoPoint":{"lat":-33.45694,"lon":-70.64827}},{"facility":"Research Site 30056-006","status":"RECRUITING","city":"Santiago","zip":"8330034","country":"Chile","contacts":[{"role":"CONTACT","email":"clinicaltrials@areteiatx.com"}],"geoPoint":{"lat":-33.45694,"lon":-70.64827}},{"facility":"Research Site 30056-012","status":"RECRUITING","city":"Santiago","zip":"8389001","country":"Chile","contacts":[{"role":"CONTACT","email":"clinicaltrials@areteiatx.com"}],"geoPoint":{"lat":-33.45694,"lon":-70.64827}},{"facility":"Research Site 30056-005","status":"RECRUITING","city":"Temuco","zip":"4781151","country":"Chile","contacts":[{"role":"CONTACT","email":"clinicaltrials@areteiatx.com"}],"geoPoint":{"lat":-38.73965,"lon":-72.59842}},{"facility":"Research Site 30056-014","status":"RECRUITING","city":"Vina Del Mar","zip":"2520598","country":"Chile","contacts":[{"role":"CONTACT","email":"clinicaltrials@areteiatx.com"}],"geoPoint":{"lat":-33.02457,"lon":-71.55183}},{"facility":"Research Site 20086-021","status":"RECRUITING","city":"Shanghai","zip":"201299","country":"China","contacts":[{"role":"CONTACT","email":"clinicaltrials@areteiatx.com"}],"geoPoint":{"lat":31.22222,"lon":121.45806}},{"facility":"Research Site 30385-008","status":"RECRUITING","city":"Zadar","zip":"23000","country":"Croatia","contacts":[{"role":"CONTACT","email":"clinicaltrials@areteiatx.com"}],"geoPoint":{"lat":44.11972,"lon":15.24222}},{"facility":"Research Site 30385-002","status":"RECRUITING","city":"Zagreb","zip":"10000","country":"Croatia","contacts":[{"role":"CONTACT","email":"clinicaltrials@areteiatx.com"}],"geoPoint":{"lat":45.81444,"lon":15.97798}},{"facility":"Research Site 30385-007","status":"RECRUITING","city":"Zagreb","zip":"10000","country":"Croatia","contacts":[{"role":"CONTACT","email":"clinicaltrials@areteiatx.com"}],"geoPoint":{"lat":45.81444,"lon":15.97798}},{"facility":"Research Site 30420-018","status":"RECRUITING","city":"Brno","zip":"61 800","country":"Czechia","contacts":[{"role":"CONTACT","email":"clinicaltrials@areteiatx.com"}],"geoPoint":{"lat":49.19522,"lon":16.60796}},{"facility":"Research Site 30420-012","status":"RECRUITING","city":"Brno","zip":"62 500","country":"Czechia","contacts":[{"role":"CONTACT","email":"clinicaltrials@areteiatx.com"}],"geoPoint":{"lat":49.19522,"lon":16.60796}},{"facility":"Research Site 30420-003","status":"RECRUITING","city":"Jindrichuv Hradec","zip":"37 701","country":"Czechia","contacts":[{"role":"CONTACT","email":"clinicaltrials@areteiatx.com"}],"geoPoint":{"lat":49.14404,"lon":15.00301}},{"facility":"Research Site 30420-007","status":"RECRUITING","city":"Lovosice","zip":"41 002","country":"Czechia","contacts":[{"role":"CONTACT","email":"clinicaltrials@areteiatx.com"}],"geoPoint":{"lat":50.51504,"lon":14.05103}},{"facility":"Research Site 30420-014","status":"RECRUITING","city":"Olomouc","zip":"77 900","country":"Czechia","contacts":[{"role":"CONTACT","email":"clinicaltrials@areteiatx.com"}],"geoPoint":{"lat":49.59552,"lon":17.25175}},{"facility":"Research Site 30420-010","status":"RECRUITING","city":"Strakonice","zip":"38 601","country":"Czechia","contacts":[{"role":"CONTACT","email":"clinicaltrials@areteiatx.com"}],"geoPoint":{"lat":49.26141,"lon":13.90237}},{"facility":"Research Site 30420-009","status":"RECRUITING","city":"Teplice","zip":"41 501","country":"Czechia","contacts":[{"role":"CONTACT","email":"clinicaltrials@areteiatx.com"}],"geoPoint":{"lat":50.6404,"lon":13.82451}},{"facility":"Research Site 30033-012","status":"RECRUITING","city":"Cholet","zip":"49300","country":"France","contacts":[{"role":"CONTACT","email":"clinicaltrials@areteiatx.com"}],"geoPoint":{"lat":47.06667,"lon":-0.88333}},{"facility":"Research Site 30033-005","status":"RECRUITING","city":"Grenoble Cedex 9","zip":"38043","country":"France","contacts":[{"role":"CONTACT","email":"clinicaltrials@areteiatx.com"}],"geoPoint":{"lat":45.16667,"lon":5.71667}},{"facility":"Research Site 30033-013","status":"RECRUITING","city":"Libourne","zip":"33500","country":"France","contacts":[{"role":"CONTACT","email":"clinicaltrials@areteiatx.com"}],"geoPoint":{"lat":44.91667,"lon":-0.23333}},{"facility":"Research Site 30033-014","status":"RECRUITING","city":"Lille Cedex","zip":"59037","country":"France","contacts":[{"role":"CONTACT","email":"clinicaltrials@areteiatx.com"}],"geoPoint":{"lat":50.63297,"lon":3.05858}},{"facility":"Research Site 30033-002","status":"RECRUITING","city":"Lyon Cedex 4","zip":"69317","country":"France","contacts":[{"role":"CONTACT","email":"clinicaltrials@areteiatx.com"}],"geoPoint":{"lat":45.74848,"lon":4.84669}},{"facility":"Research Site 30033-001","status":"RECRUITING","city":"Marseille","zip":"13003","country":"France","contacts":[{"role":"CONTACT","email":"clinicaltrials@areteiatx.com"}],"geoPoint":{"lat":43.29551,"lon":5.38958}},{"facility":"Research Site 30033-006","status":"RECRUITING","city":"Marseille","zip":"13015","country":"France","contacts":[{"role":"CONTACT","email":"clinicaltrials@areteiatx.com"}],"geoPoint":{"lat":43.29551,"lon":5.38958}},{"facility":"Research Site 30033-007","status":"RECRUITING","city":"Montpellier Cedex 5","zip":"34295","country":"France","contacts":[{"role":"CONTACT","email":"clinicaltrials@areteiatx.com"}],"geoPoint":{"lat":43.61092,"lon":3.87723}},{"facility":"Research Site 30033-003","status":"RECRUITING","city":"Paris","zip":"75018","country":"France","contacts":[{"role":"CONTACT","email":"clinicaltrials@areteiatx.com"}],"geoPoint":{"lat":48.85341,"lon":2.3488}},{"facility":"Research Site 30033-015","status":"RECRUITING","city":"Reims","zip":"51100","country":"France","contacts":[{"role":"CONTACT","email":"clinicaltrials@areteiatx.com"}],"geoPoint":{"lat":49.25,"lon":4.03333}},{"facility":"Research Site 30033-004","status":"RECRUITING","city":"Saint Herblain","zip":"44800","country":"France","contacts":[{"role":"CONTACT","email":"clinicaltrials@areteiatx.com"}],"geoPoint":{"lat":47.21765,"lon":-1.64841}},{"facility":"Research Site 30049-081","status":"RECRUITING","city":"Augsburg","zip":"86150","country":"Germany","contacts":[{"role":"CONTACT","email":"clinicaltrials@areteiatx.com"}],"geoPoint":{"lat":48.37154,"lon":10.89851}},{"facility":"Research Site 30049-060","status":"RECRUITING","city":"Berlin","zip":"10717","country":"Germany","contacts":[{"role":"CONTACT","email":"clinicaltrials@areteiatx.com"}],"geoPoint":{"lat":52.52437,"lon":13.41053}},{"facility":"Research Site 30049-005","status":"RECRUITING","city":"Berlin","zip":"10961","country":"Germany","contacts":[{"role":"CONTACT","email":"clinicaltrials@areteiatx.com"}],"geoPoint":{"lat":52.52437,"lon":13.41053}},{"facility":"Research Site 30049-004","status":"RECRUITING","city":"Cottbus","zip":"03050","country":"Germany","contacts":[{"role":"CONTACT","email":"clinicaltrials@areteiatx.com"}],"geoPoint":{"lat":51.75769,"lon":14.32888}},{"facility":"Research Site 30049-082","status":"RECRUITING","city":"Delitzsch","zip":"04509","country":"Germany","contacts":[{"role":"CONTACT","email":"clinicaltrials@areteiatx.com"}],"geoPoint":{"lat":51.52546,"lon":12.34284}},{"facility":"Research Site 30049-059","status":"RECRUITING","city":"Frankfurt","zip":"63089","country":"Germany","contacts":[{"role":"CONTACT","email":"clinicaltrials@areteiatx.com"}],"geoPoint":{"lat":50.11552,"lon":8.68417}},{"facility":"Research Site 30049-019","status":"RECRUITING","city":"Frankfurt","zip":"95606","country":"Germany","contacts":[{"role":"CONTACT","email":"clinicaltrials@areteiatx.com"}],"geoPoint":{"lat":50.11552,"lon":8.68417}},{"facility":"Research Site 30049-006","status":"RECRUITING","city":"Furstenwalde","zip":"15517","country":"Germany","contacts":[{"role":"CONTACT","email":"clinicaltrials@areteiatx.com"}],"geoPoint":{"lat":52.36067,"lon":14.06185}},{"facility":"Research Site 30049-035","status":"RECRUITING","city":"Hannover","zip":"30625","country":"Germany","contacts":[{"role":"CONTACT","email":"clinicaltrials@areteiatx.com"}],"geoPoint":{"lat":52.37052,"lon":9.73322}},{"facility":"Research Site 30049-073","status":"RECRUITING","city":"Homburg","zip":"66421","country":"Germany","contacts":[{"role":"CONTACT","email":"clinicaltrials@areteiatx.com"}],"geoPoint":{"lat":49.32637,"lon":7.33867}},{"facility":"Research Site 30049-061","status":"RECRUITING","city":"Leipzig","zip":"04275","country":"Germany","contacts":[{"role":"CONTACT","email":"clinicaltrials@areteiatx.com"}],"geoPoint":{"lat":51.33962,"lon":12.37129}},{"facility":"Research Site 30049-056","status":"RECRUITING","city":"Leipzig","zip":"04357","country":"Germany","contacts":[{"role":"CONTACT","email":"clinicaltrials@areteiatx.com"}],"geoPoint":{"lat":51.33962,"lon":12.37129}},{"facility":"Research Site 30049-051","status":"RECRUITING","city":"Munich","zip":"80539","country":"Germany","contacts":[{"role":"CONTACT","email":"clinicaltrials@areteiatx.com"}],"geoPoint":{"lat":48.13743,"lon":11.57549}},{"facility":"Research Site 30049-028","status":"RECRUITING","city":"Munich","zip":"81241","country":"Germany","contacts":[{"role":"CONTACT","email":"clinicaltrials@areteiatx.com"}],"geoPoint":{"lat":48.13743,"lon":11.57549}},{"facility":"Research Site 30036-005","status":"RECRUITING","city":"Balassagyarmat","zip":"2660","country":"Hungary","contacts":[{"role":"CONTACT","email":"clinicaltrials@areteiatx.com"}],"geoPoint":{"lat":48.07296,"lon":19.29614}},{"facility":"Research Site 30036-001","status":"RECRUITING","city":"Budapest","zip":"1122","country":"Hungary","contacts":[{"role":"CONTACT","email":"clinicaltrials@areteiatx.com"}],"geoPoint":{"lat":47.49801,"lon":19.03991}},{"facility":"Research Site 30036-014","status":"RECRUITING","city":"Debrecen","zip":"4027","country":"Hungary","contacts":[{"role":"CONTACT","email":"clinicaltrials@areteiatx.com"}],"geoPoint":{"lat":47.53333,"lon":21.63333}},{"facility":"Research Site 30036-017","status":"RECRUITING","city":"Edelény","zip":"3780","country":"Hungary","contacts":[{"role":"CONTACT","email":"clinicaltrials@areteiatx.com"}],"geoPoint":{"lat":48.3,"lon":20.73333}},{"facility":"Research Site 30036-013","status":"RECRUITING","city":"Godollo","zip":"2100","country":"Hungary","contacts":[{"role":"CONTACT","email":"clinicaltrials@areteiatx.com"}],"geoPoint":{"lat":47.59657,"lon":19.35515}},{"facility":"Research Site 30036-006","status":"RECRUITING","city":"Szeged","zip":"6720","country":"Hungary","contacts":[{"role":"CONTACT","email":"clinicaltrials@areteiatx.com"}],"geoPoint":{"lat":46.253,"lon":20.14824}},{"facility":"Research Site 30036-018","status":"RECRUITING","city":"Szigetvar","zip":"7900","country":"Hungary","contacts":[{"role":"CONTACT","email":"clinicaltrials@areteiatx.com"}],"geoPoint":{"lat":46.04865,"lon":17.80554}},{"facility":"Research Site 30091-006","status":"RECRUITING","city":"Ahmedabad","state":"Gujarat","zip":"382345","country":"India","geoPoint":{"lat":23.02579,"lon":72.58727}},{"facility":"Research Site 30091-010","status":"RECRUITING","city":"Ahmedabad","state":"Gujarat","zip":"382350","country":"India","geoPoint":{"lat":23.02579,"lon":72.58727}},{"facility":"Research Site 30091-011","status":"RECRUITING","city":"Himmatnagar","state":"Gujarat","zip":"383001","country":"India"},{"facility":"Research Site 30091-001","status":"RECRUITING","city":"Sūrat","state":"Gujarat","zip":"395006","country":"India","geoPoint":{"lat":21.19594,"lon":72.83023}},{"facility":"Research Site 30091-024","status":"RECRUITING","city":"Rohtak","state":"Haryana","zip":"124001","country":"India","geoPoint":{"lat":28.89447,"lon":76.58917}},{"facility":"Research Site 30091-043","status":"RECRUITING","city":"Aurangabad","state":"Maharashta","zip":"431001","country":"India","geoPoint":{"lat":19.87757,"lon":75.34226}},{"facility":"Research Site 30091-004","status":"RECRUITING","city":"Nagpur","state":"Maharashta","zip":"440010","country":"India","geoPoint":{"lat":21.14631,"lon":79.08491}},{"facility":"Research Site 30091-023","status":"RECRUITING","city":"Nagpur","state":"Maharashta","zip":"440010","country":"India","geoPoint":{"lat":21.14631,"lon":79.08491}},{"facility":"Research Site 30091-033","status":"RECRUITING","city":"Pune","state":"Maharashta","zip":"411057","country":"India","geoPoint":{"lat":18.51957,"lon":73.85535}},{"facility":"Research Site 30091-018","status":"RECRUITING","city":"Jaipur","state":"Rajasthan","zip":"302039","country":"India","geoPoint":{"lat":26.91962,"lon":75.78781}},{"facility":"Research Site 30091-021","status":"RECRUITING","city":"Kanpur","zip":"208002","country":"India","geoPoint":{"lat":26.46523,"lon":80.34975}},{"facility":"Research Site 30972-008","status":"RECRUITING","city":"Beer-Sheva","country":"Israel","contacts":[{"role":"CONTACT","email":"clinicaltrials@areteiatx.com"}],"geoPoint":{"lat":31.25181,"lon":34.7913}},{"facility":"Research Site 30972-001","status":"RECRUITING","city":"Jerusalem","zip":"9112026851","country":"Israel","contacts":[{"role":"CONTACT","email":"clinicaltrials@areteiatx.com"}],"geoPoint":{"lat":31.76904,"lon":35.21633}},{"facility":"Research Site 30972-009","status":"RECRUITING","city":"Kfar Saba","zip":"4428164","country":"Israel","geoPoint":{"lat":32.175,"lon":34.90694}},{"facility":"Research Site 30972-011","status":"RECRUITING","city":"Ramat Gan","zip":"5262000","country":"Israel","contacts":[{"role":"CONTACT","email":"clinicaltrials@areteiatx.com"}],"geoPoint":{"lat":32.08227,"lon":34.81065}},{"facility":"Research Site 30972-005","status":"RECRUITING","city":"Sha'ar Ha'Aliya","zip":"3109601","country":"Israel","contacts":[{"role":"CONTACT","email":"clinicaltrials@areteiatx.com"}],"geoPoint":{"lat":32.81667,"lon":34.96667}},{"facility":"Research Site 30039-004","status":"RECRUITING","city":"Bergamo","zip":"24127","country":"Italy","contacts":[{"role":"CONTACT","email":"clinicaltrials@areteiatx.com"}],"geoPoint":{"lat":45.69601,"lon":9.66721}},{"facility":"Research Site 30039-013","status":"RECRUITING","city":"Napoli","zip":"80131","country":"Italy","contacts":[{"role":"CONTACT","email":"clinicaltrials@areteiatx.com"}],"geoPoint":{"lat":40.85216,"lon":14.26811}},{"facility":"Research Site 30039-002","status":"RECRUITING","city":"Padova","zip":"35128","country":"Italy","contacts":[{"role":"CONTACT","email":"clinicaltrials@areteiatx.com"}],"geoPoint":{"lat":45.40797,"lon":11.88586}},{"facility":"Research Site 30039-017","status":"RECRUITING","city":"Reggio Emilia","zip":"42123","country":"Italy","contacts":[{"role":"CONTACT","email":"clinicaltrials@areteiatx.com"}],"geoPoint":{"lat":44.69825,"lon":10.63125}},{"facility":"Research Site 30039-011","status":"RECRUITING","city":"Roma","zip":"00168","country":"Italy","contacts":[{"role":"CONTACT","email":"clinicaltrials@areteiatx.com"}],"geoPoint":{"lat":41.89193,"lon":12.51133}},{"facility":"Research Site 20081-010","status":"RECRUITING","city":"Kanazawa","zip":"920-8650","country":"Japan","contacts":[{"role":"CONTACT","email":"clinicaltrials@areteiatx.com"}],"geoPoint":{"lat":36.6,"lon":136.61667}},{"facility":"Research Site 30082-019","status":"RECRUITING","city":"Gwangju","zip":"61469","country":"Korea, Republic of","contacts":[{"role":"CONTACT","email":"clinicaltrials@areteiatx.com"}],"geoPoint":{"lat":35.15472,"lon":126.91556}},{"facility":"Research Site 30082-022","status":"RECRUITING","city":"Seoul","zip":"02841","country":"Korea, Republic of","contacts":[{"role":"CONTACT","email":"clinicaltrials@areteiatx.com"}],"geoPoint":{"lat":37.566,"lon":126.9784}},{"facility":"Research Site 30082-018","status":"RECRUITING","city":"Seoul","zip":"03312","country":"Korea, Republic of","contacts":[{"role":"CONTACT","email":"clinicaltrials@areteiatx.com"}],"geoPoint":{"lat":37.566,"lon":126.9784}},{"facility":"Research Site 20082-028","status":"RECRUITING","city":"Seoul","zip":"05278","country":"Korea, Republic of","contacts":[{"role":"CONTACT","email":"clinicaltrials@areteiatx.com"}],"geoPoint":{"lat":37.566,"lon":126.9784}},{"facility":"Research Site 30082-010","status":"RECRUITING","city":"Suwon","zip":"16499","country":"Korea, Republic of","contacts":[{"role":"CONTACT","email":"clinicaltrials@areteiatx.com"}],"geoPoint":{"lat":37.29111,"lon":127.00889}},{"facility":"Research Site 30082-017","status":"RECRUITING","city":"Wŏnju","zip":"26426","country":"Korea, Republic of","geoPoint":{"lat":37.35139,"lon":127.94528}},{"facility":"Research Site 30370-016","status":"RECRUITING","city":"Kaunas","zip":"50161","country":"Lithuania","contacts":[{"role":"CONTACT","email":"clinicaltrials@areteiatx.com"}],"geoPoint":{"lat":54.90272,"lon":23.90961}},{"facility":"Research Site 30370-017","status":"RECRUITING","city":"Klaipeda","zip":"92231","country":"Lithuania","contacts":[{"role":"CONTACT","email":"clinicaltrials@areteiatx.com"}],"geoPoint":{"lat":55.70888,"lon":21.14311}},{"facility":"Research Site 30370-002","status":"RECRUITING","city":"Vilnius","zip":"06256","country":"Lithuania","contacts":[{"role":"CONTACT","email":"clinicaltrials@areteiatx.com"}],"geoPoint":{"lat":54.68916,"lon":25.2798}},{"facility":"Research Site 30052-024","status":"RECRUITING","city":"Guadalajara","state":"Jalisco","zip":"44100","country":"Mexico","geoPoint":{"lat":20.66682,"lon":-103.39182}},{"facility":"Research Site 30052-025","status":"RECRUITING","city":"Morelia","state":"Michoacon","zip":"58260","country":"Mexico","contacts":[{"role":"CONTACT","email":"clinicaltrials@areteiatx.com"}],"geoPoint":{"lat":19.70078,"lon":-101.18443}},{"facility":"Research Site 30052-026","status":"RECRUITING","city":"Chihuahua","zip":"31203","country":"Mexico","contacts":[{"role":"CONTACT","email":"clinicaltrials@areteiatx.com"}],"geoPoint":{"lat":28.63528,"lon":-106.08889}},{"facility":"Research Site 30052-030","status":"RECRUITING","city":"Durango","zip":"34080","country":"Mexico","contacts":[{"role":"CONTACT","email":"clinicaltrials@areteiatx.com"}],"geoPoint":{"lat":24.02032,"lon":-104.65756}},{"facility":"Research Site 30052-033","status":"RECRUITING","city":"Leon","zip":"37160","country":"Mexico","contacts":[{"role":"CONTACT","email":"clinicaltrials@areteiatx.com"}],"geoPoint":{"lat":21.12908,"lon":-101.67374}},{"facility":"Research Site 30052-028","status":"RECRUITING","city":"Mexico City","zip":"6700","country":"Mexico","contacts":[{"role":"CONTACT","email":"clinicaltrials@areteiatx.com"}],"geoPoint":{"lat":19.42847,"lon":-99.12766}},{"facility":"Research Site 30052-023","status":"RECRUITING","city":"Monterrey","zip":"64718","country":"Mexico","contacts":[{"role":"CONTACT","email":"clinicaltrials@areteiatx.com"}],"geoPoint":{"lat":25.67507,"lon":-100.31847}},{"facility":"Research Site -30051-023","status":"RECRUITING","city":"Arequipa","zip":"04017","country":"Peru","contacts":[{"role":"CONTACT","email":"clinicaltrials@areteiatx.com"}],"geoPoint":{"lat":-16.39889,"lon":-71.535}},{"facility":"Research Site 30051-022","status":"RECRUITING","city":"Lima","zip":"15023","country":"Peru","contacts":[{"role":"CONTACT","email":"clinicaltrials@areteiatx.com"}],"geoPoint":{"lat":-12.04318,"lon":-77.02824}},{"facility":"Research Site 30051-026","status":"RECRUITING","city":"Lima","zip":"15023","country":"Peru","contacts":[{"role":"CONTACT","email":"clinicaltrials@areteiatx.com"}],"geoPoint":{"lat":-12.04318,"lon":-77.02824}},{"facility":"Research Site 30051-020","status":"RECRUITING","city":"Lima","zip":"15046","country":"Peru","contacts":[{"role":"CONTACT","email":"clinicaltrials@areteiatx.com"}],"geoPoint":{"lat":-12.04318,"lon":-77.02824}},{"facility":"Research Site -30051-028","status":"RECRUITING","city":"Lima","zip":"15072","country":"Peru","contacts":[{"role":"CONTACT","email":"clinicaltrials@areteiatx.com"}],"geoPoint":{"lat":-12.04318,"lon":-77.02824}},{"facility":"Research Site 30051-017","status":"RECRUITING","city":"Lima","zip":"15072","country":"Peru","contacts":[{"role":"CONTACT","email":"clinicaltrials@areteiatx.com"}],"geoPoint":{"lat":-12.04318,"lon":-77.02824}},{"facility":"Research Site 30051-021","status":"RECRUITING","city":"Lima","zip":"15801","country":"Peru","contacts":[{"role":"CONTACT","email":"clinicaltrials@areteiatx.com"}],"geoPoint":{"lat":-12.04318,"lon":-77.02824}},{"facility":"Research Site 30787-388","status":"RECRUITING","city":"Rio Piedras","zip":"00918","country":"Puerto Rico","contacts":[{"role":"CONTACT","email":"clinicaltrials@areteiatx.com"}],"geoPoint":{"lat":18.39745,"lon":-66.04989}},{"facility":"Research Site 30001-383","status":"RECRUITING","city":"San Juan","zip":"00918","country":"Puerto Rico","contacts":[{"role":"CONTACT","email":"clinicaltrials@areteiatx.com"}],"geoPoint":{"lat":18.46633,"lon":-66.10572}},{"facility":"Research Site 30787-405","status":"RECRUITING","city":"San Juan","zip":"00918","country":"Puerto Rico","contacts":[{"role":"CONTACT","email":"clinicaltrials@areteiatx.com"}],"geoPoint":{"lat":18.46633,"lon":-66.10572}},{"facility":"Research Site 30001-345","status":"RECRUITING","city":"Vega Baja","zip":"00694","country":"Puerto Rico","contacts":[{"role":"CONTACT","email":"clinicaltrials@areteiatx.com"}],"geoPoint":{"lat":18.44439,"lon":-66.38767}},{"facility":"Research Site 30027-013","status":"RECRUITING","city":"Benoni","zip":"1501","country":"South Africa","geoPoint":{"lat":-26.18848,"lon":28.32078}},{"facility":"Research Site 30027-009","status":"RECRUITING","city":"Cape Town","zip":"7530","country":"South Africa","geoPoint":{"lat":-33.92584,"lon":18.42322}},{"facility":"Research Site 30027-011","status":"RECRUITING","city":"Cape Town","zip":"7570","country":"South Africa","geoPoint":{"lat":-33.92584,"lon":18.42322}},{"facility":"Research Site 30027-012","status":"RECRUITING","city":"Cape Town","zip":"7700","country":"South Africa","contacts":[{"role":"CONTACT","email":"clinicaltrials@areteiatx.com"}],"geoPoint":{"lat":-33.92584,"lon":18.42322}},{"facility":"Research Site 30027-021","status":"RECRUITING","city":"Cape Town","zip":"7700","country":"South Africa","contacts":[{"role":"CONTACT","email":"clinicaltrials@areteiatx.com"}],"geoPoint":{"lat":-33.92584,"lon":18.42322}},{"facility":"Research Site 30027-007","status":"RECRUITING","city":"Durban","zip":"3630","country":"South Africa","contacts":[{"role":"CONTACT","email":"clinicaltrials@areteiatx.com"}],"geoPoint":{"lat":-29.8579,"lon":31.0292}},{"facility":"Research Site 30027-001","status":"RECRUITING","city":"Durban","zip":"4000","country":"South Africa","geoPoint":{"lat":-29.8579,"lon":31.0292}},{"facility":"Research Site 30027-014","status":"RECRUITING","city":"Durban","zip":"4091","country":"South Africa","geoPoint":{"lat":-29.8579,"lon":31.0292}},{"facility":"Research Site 30027-023","status":"RECRUITING","city":"Durban","zip":"4301","country":"South Africa","contacts":[{"role":"CONTACT","email":"clinicaltrials@areteiatx.com"}],"geoPoint":{"lat":-29.8579,"lon":31.0292}},{"facility":"Research Site 30027-010","status":"RECRUITING","city":"Durban","zip":"4450","country":"South Africa","geoPoint":{"lat":-29.8579,"lon":31.0292}},{"facility":"Research Site 30027-030","status":"RECRUITING","city":"Johannesburg","zip":"1827","country":"South Africa","contacts":[{"role":"CONTACT","email":"clinicaltrials@areteiatx.com"}],"geoPoint":{"lat":-26.20227,"lon":28.04363}},{"facility":"Research Site 30027-026","status":"RECRUITING","city":"Johannesburg","zip":"2193","country":"South Africa","contacts":[{"role":"CONTACT","email":"clinicaltrials@areteiatx.com"}],"geoPoint":{"lat":-26.20227,"lon":28.04363}},{"facility":"Research Site 30027-031","status":"RECRUITING","city":"Krugersdorp","zip":"1739","country":"South Africa","contacts":[{"role":"CONTACT","email":"clinicaltrials@areteiatx.com"}],"geoPoint":{"lat":-26.08577,"lon":27.77515}},{"facility":"Research Site 30027-008","status":"RECRUITING","city":"KwaZulu","zip":"4092","country":"South Africa","geoPoint":{"lat":-31.28948,"lon":29.45508}},{"facility":"Research Site 30027-032","status":"RECRUITING","city":"Plettenberg Bay","zip":"6600","country":"South Africa","contacts":[{"role":"CONTACT","email":"clinicaltrials@areteiatx.com"}],"geoPoint":{"lat":-34.05274,"lon":23.3716}},{"facility":"Research Site 30027-029","status":"RECRUITING","city":"Polokwane","zip":"0699","country":"South Africa","contacts":[{"role":"CONTACT","email":"clinicaltrials@areteiatx.com"}],"geoPoint":{"lat":-23.90449,"lon":29.46885}},{"facility":"Research Site 30027-004","status":"RECRUITING","city":"Pretoria","zip":"0002","country":"South Africa","contacts":[{"role":"CONTACT","email":"clinicaltrials@areteiatx.com"}],"geoPoint":{"lat":-25.74486,"lon":28.18783}},{"facility":"Research Site 30027-019","status":"RECRUITING","city":"Pretoria","zip":"0204","country":"South Africa","contacts":[{"role":"CONTACT","email":"clinicaltrials@areteiatx.com"}],"geoPoint":{"lat":-25.74486,"lon":28.18783}},{"facility":"Research Site 30027-015","status":"RECRUITING","city":"Thabazimbi","zip":"0380","country":"South Africa","contacts":[{"role":"CONTACT","email":"clinicaltrials@areteiatx.com"}],"geoPoint":{"lat":-24.59165,"lon":27.41155}},{"facility":"Research Site 30027-018","status":"RECRUITING","city":"Vereeniging","zip":"1935","country":"South Africa","contacts":[{"role":"CONTACT","email":"clinicaltrials@areteiatx.com"}],"geoPoint":{"lat":-26.67313,"lon":27.92615}},{"facility":"Research Site 30027-017","status":"RECRUITING","city":"Welkom","zip":"9460","country":"South Africa","contacts":[{"role":"CONTACT","email":"clinicaltrials@areteiatx.com"}],"geoPoint":{"lat":-27.97742,"lon":26.73506}},{"facility":"Research Site 30034-046","status":"RECRUITING","city":"A Coruna","zip":"15006","country":"Spain","contacts":[{"role":"CONTACT","email":"clinicaltrials@areteiatx.com"}],"geoPoint":{"lat":43.37135,"lon":-8.396}},{"facility":"Research Site 30034-052","status":"RECRUITING","city":"A Coruna","zip":"15706","country":"Spain","contacts":[{"role":"CONTACT","email":"clinicaltrials@areteiatx.com"}],"geoPoint":{"lat":43.37135,"lon":-8.396}},{"facility":"Research Site 30034-011","status":"RECRUITING","city":"Barcelona","zip":"08017","country":"Spain","contacts":[{"role":"CONTACT","email":"clinicaltrials@areteiatx.com"}],"geoPoint":{"lat":41.38879,"lon":2.15899}},{"facility":"Research Site 30034-049","status":"RECRUITING","city":"Barcelona","zip":"08025","country":"Spain","contacts":[{"role":"CONTACT","email":"clinicaltrials@areteiatx.com"}],"geoPoint":{"lat":41.38879,"lon":2.15899}},{"facility":"Research Site 30034-013","status":"RECRUITING","city":"Barcelona","zip":"08036","country":"Spain","contacts":[{"role":"CONTACT","email":"clinicaltrials@areteiatx.com"}],"geoPoint":{"lat":41.38879,"lon":2.15899}},{"facility":"Research Site 30034-021","status":"RECRUITING","city":"Lugo","zip":"27003","country":"Spain","contacts":[{"role":"CONTACT","email":"clinicaltrials@areteiatx.com"}],"geoPoint":{"lat":43.00992,"lon":-7.55602}},{"facility":"Research Site 30034-053","status":"RECRUITING","city":"Madrid","zip":"28040","country":"Spain","contacts":[{"role":"CONTACT","email":"clinicaltrials@areteiatx.com"}],"geoPoint":{"lat":40.4165,"lon":-3.70256}},{"facility":"Research Site 30034-037","status":"RECRUITING","city":"Madrid","zip":"28046","country":"Spain","contacts":[{"role":"CONTACT","email":"clinicaltrials@areteiatx.com"}],"geoPoint":{"lat":40.4165,"lon":-3.70256}},{"facility":"Research Site 30034-045","status":"RECRUITING","city":"Madrid","zip":"28046","country":"Spain","contacts":[{"role":"CONTACT","email":"clinicaltrials@areteiatx.com"}],"geoPoint":{"lat":40.4165,"lon":-3.70256}},{"facility":"Research Site 30034-050","status":"RECRUITING","city":"Santander","zip":"39008","country":"Spain","contacts":[{"role":"CONTACT","email":"clinicaltrials@areteiatx.com"}],"geoPoint":{"lat":43.46472,"lon":-3.80444}},{"facility":"Research Site 30034-043","status":"RECRUITING","city":"Valencia","zip":"46017","country":"Spain","contacts":[{"role":"CONTACT","email":"clinicaltrials@areteiatx.com"}],"geoPoint":{"lat":39.46975,"lon":-0.37739}},{"facility":"Research Site 30034-041","status":"RECRUITING","city":"Vigo","zip":"36211","country":"Spain","contacts":[{"role":"CONTACT","email":"clinicaltrials@areteiatx.com"}],"geoPoint":{"lat":42.23282,"lon":-8.72264}},{"facility":"Research Site 30886-013","status":"RECRUITING","city":"Douliu","zip":"640","country":"Taiwan","contacts":[{"role":"CONTACT","email":"clinicaltrials@areteiatx.com"}],"geoPoint":{"lat":23.70944,"lon":120.54333}},{"facility":"Research Site 30886-004","status":"RECRUITING","city":"New Taipei City","zip":"220","country":"Taiwan","contacts":[{"role":"CONTACT","email":"clinicaltrials@areteiatx.com"}],"geoPoint":{"lat":25.01111,"lon":121.44583}},{"facility":"Research Site 30886-006","status":"RECRUITING","city":"New Taipei City","zip":"23561","country":"Taiwan","contacts":[{"role":"CONTACT","email":"clinicaltrials@areteiatx.com"}],"geoPoint":{"lat":25.01111,"lon":121.44583}},{"facility":"Research Site 30886-005","status":"RECRUITING","city":"Taichung","zip":"404327","country":"Taiwan","contacts":[{"role":"CONTACT","email":"clinicaltrials@areteiatx.com"}],"geoPoint":{"lat":24.1469,"lon":120.6839}},{"facility":"Research Site 30886-007","status":"RECRUITING","city":"Taichung","zip":"40705","country":"Taiwan","contacts":[{"role":"CONTACT","email":"clinicaltrials@areteiatx.com"}],"geoPoint":{"lat":24.1469,"lon":120.6839}},{"facility":"Research Site 30886-011","status":"RECRUITING","city":"Tainan","country":"Taiwan","contacts":[{"role":"CONTACT","email":"clinicaltrials@areteiatx.com"}],"geoPoint":{"lat":22.99083,"lon":120.21333}},{"facility":"Research Site 30886-010","status":"RECRUITING","city":"Taipei","zip":"100","country":"Taiwan","contacts":[{"role":"CONTACT","email":"clinicaltrials@areteiatx.com"}],"geoPoint":{"lat":25.04776,"lon":121.53185}},{"facility":"Research Site 30886-008","status":"RECRUITING","city":"Taipei","zip":"11031","country":"Taiwan","contacts":[{"role":"CONTACT","email":"clinicaltrials@areteiatx.com"}],"geoPoint":{"lat":25.04776,"lon":121.53185}},{"facility":"Research Site 30886-003","status":"RECRUITING","city":"Taipei","zip":"112","country":"Taiwan","contacts":[{"role":"CONTACT","email":"clinicaltrials@areteiatx.com"}],"geoPoint":{"lat":25.04776,"lon":121.53185}},{"facility":"Research Site 30886-009","status":"RECRUITING","city":"Taipei","zip":"112","country":"Taiwan","contacts":[{"role":"CONTACT","email":"clinicaltrials@areteiatx.com"}],"geoPoint":{"lat":25.04776,"lon":121.53185}},{"facility":"Research Site 30090-018","status":"RECRUITING","city":"Ankara","zip":"06230","country":"Turkey","contacts":[{"role":"CONTACT","email":"clinicaltrials@areteiatx.com"}],"geoPoint":{"lat":39.91987,"lon":32.85427}},{"facility":"Research Site 30090-021","status":"RECRUITING","city":"Ankara","zip":"06230","country":"Turkey","contacts":[{"role":"CONTACT","email":"clinicaltrials@areteiatx.com"}],"geoPoint":{"lat":39.91987,"lon":32.85427}},{"facility":"Research Site 30090-008","status":"RECRUITING","city":"Ankara","zip":"06620","country":"Turkey","contacts":[{"role":"CONTACT","email":"clinicaltrials@areteiatx.com"}],"geoPoint":{"lat":39.91987,"lon":32.85427}},{"facility":"Research Site 30090-009","status":"RECRUITING","city":"Ankara","zip":"06930","country":"Turkey","contacts":[{"role":"CONTACT","email":"clinicaltrials@areteiatx.com"}],"geoPoint":{"lat":39.91987,"lon":32.85427}},{"facility":"Research Site 30090-019","status":"RECRUITING","city":"Bornova","zip":"35100","country":"Turkey","contacts":[{"role":"CONTACT","email":"clinicaltrials@areteiatx.com"}],"geoPoint":{"lat":38.47921,"lon":27.2399}},{"facility":"Research Site 30090-020","status":"RECRUITING","city":"Istanbul","zip":"34020","country":"Turkey","contacts":[{"role":"CONTACT","email":"clinicaltrials@areteiatx.com"}],"geoPoint":{"lat":41.01384,"lon":28.94966}},{"facility":"Research Site 30090-013","status":"RECRUITING","city":"Mersin","zip":"33110","country":"Turkey","contacts":[{"role":"CONTACT","email":"clinicaltrials@areteiatx.com"}],"geoPoint":{"lat":36.79526,"lon":34.61792}},{"facility":"Research Site 30380-002","status":"RECRUITING","city":"Chernivtsi","zip":"58001","country":"Ukraine","contacts":[{"role":"CONTACT","email":"clinicaltrials@areteiatx.com"}],"geoPoint":{"lat":48.29149,"lon":25.94034}},{"facility":"Research Site 30380-011","status":"RECRUITING","city":"Kyiv","zip":"03057","country":"Ukraine","contacts":[{"role":"CONTACT","email":"clinicaltrials@areteiatx.com"}],"geoPoint":{"lat":50.45466,"lon":30.5238}},{"facility":"Research Site 30044-027","status":"COMPLETED","city":"Glasgow","zip":"G20 7BE","country":"United Kingdom","geoPoint":{"lat":55.86515,"lon":-4.25763}},{"facility":"Research Site 30044-059","status":"COMPLETED","city":"High Wycombe","zip":"HP11 2QW","country":"United Kingdom","geoPoint":{"lat":51.62907,"lon":-0.74934}},{"facility":"Research Site 30044-039","status":"RECRUITING","city":"Leicester","zip":"LE3 9QP","country":"United Kingdom","contacts":[{"role":"CONTACT","email":"clinicaltrials@areteiatx.com"}],"geoPoint":{"lat":52.6386,"lon":-1.13169}},{"facility":"Research Site 30044-025","status":"RECRUITING","city":"Sheffield","zip":"S25FX","country":"United Kingdom","contacts":[{"role":"CONTACT","email":"clinicaltrials@areteiatx.com"}],"geoPoint":{"lat":53.38297,"lon":-1.4659}}]},"ipdSharingStatementModule":{"ipdSharing":"NO"}},"derivedSection":{"miscInfoModule":{"versionHolder":"2025-07-07","removedCountries":["Czech Republic"]},"conditionBrowseModule":{"meshes":[{"id":"D001249","term":"Asthma"},{"id":"D011657","term":"Pulmonary Eosinophilia"}],"ancestors":[{"id":"D001982","term":"Bronchial Diseases"},{"id":"D012140","term":"Respiratory Tract Diseases"},{"id":"D008173","term":"Lung Diseases, Obstructive"},{"id":"D008171","term":"Lung Diseases"},{"id":"D012130","term":"Respiratory Hypersensitivity"},{"id":"D006969","term":"Hypersensitivity, Immediate"},{"id":"D006967","term":"Hypersensitivity"},{"id":"D007154","term":"Immune System Diseases"},{"id":"D017681","term":"Hypereosinophilic Syndrome"},{"id":"D004802","term":"Eosinophilia"},{"id":"D007960","term":"Leukocyte Disorders"},{"id":"D006402","term":"Hematologic Diseases"}],"browseLeaves":[{"id":"M4556","name":"Asthma","asFound":"Asthma","relevance":"HIGH"},{"id":"M14511","name":"Pulmonary Eosinophilia","asFound":"Eosinophilic Asthma","relevance":"HIGH"},{"id":"M7961","name":"Eosinophilia","relevance":"LOW"},{"id":"M5258","name":"Bronchial Diseases","relevance":"LOW"},{"id":"M14977","name":"Respiratory Tract Diseases","relevance":"LOW"},{"id":"M11168","name":"Lung Diseases","relevance":"LOW"},{"id":"M11170","name":"Lung Diseases, Obstructive","relevance":"LOW"},{"id":"M10018","name":"Hypersensitivity","relevance":"LOW"},{"id":"M14967","name":"Respiratory Hypersensitivity","relevance":"LOW"},{"id":"M10020","name":"Hypersensitivity, Immediate","relevance":"LOW"},{"id":"M10200","name":"Immune System Diseases","relevance":"LOW"},{"id":"M16355","name":"Syndrome","relevance":"LOW"},{"id":"M19901","name":"Hypereosinophilic Syndrome","relevance":"LOW"},{"id":"M10963","name":"Leukocyte Disorders","relevance":"LOW"},{"id":"M9490","name":"Hematologic Diseases","relevance":"LOW"},{"id":"T2886","name":"Hypereosinophilic Syndrome","relevance":"LOW"}],"browseBranches":[{"abbrev":"BC08","name":"Respiratory Tract (Lung and Bronchial) Diseases"},{"abbrev":"BC20","name":"Immune System Diseases"},{"abbrev":"All","name":"All Conditions"},{"abbrev":"BC15","name":"Blood and Lymph Conditions"},{"abbrev":"BC23","name":"Symptoms and General Pathology"},{"abbrev":"Rare","name":"Rare Diseases"}]},"interventionBrowseModule":{"meshes":[{"id":"D000077487","term":"Pramipexole"},{"id":"D000097662","term":"Dexpramipexole"}],"ancestors":[{"id":"D000975","term":"Antioxidants"},{"id":"D045504","term":"Molecular Mechanisms of Pharmacological Action"},{"id":"D020011","term":"Protective Agents"},{"id":"D045505","term":"Physiological Effects of Drugs"},{"id":"D015259","term":"Dopamine Agents"},{"id":"D018377","term":"Neurotransmitter Agents"},{"id":"D000978","term":"Antiparkinson Agents"},{"id":"D018726","term":"Anti-Dyskinesia Agents"},{"id":"D018491","term":"Dopamine Agonists"}],"browseLeaves":[{"id":"M1813","name":"Pramipexole","asFound":"Smallpox","relevance":"HIGH"},{"id":"M3373","name":"Dexpramipexole","asFound":"Smallpox","relevance":"HIGH"},{"id":"M4292","name":"Antioxidants","relevance":"LOW"},{"id":"M21869","name":"Protective Agents","relevance":"LOW"},{"id":"M7473","name":"Dopamine","relevance":"LOW"},{"id":"M17962","name":"Dopamine Agents","relevance":"LOW"},{"id":"M20504","name":"Neurotransmitter Agents","relevance":"LOW"},{"id":"M4295","name":"Antiparkinson Agents","relevance":"LOW"},{"id":"M20595","name":"Dopamine Agonists","relevance":"LOW"}],"browseBranches":[{"abbrev":"AnDyAg","name":"Anti-Dyskinesia Agents"},{"abbrev":"All","name":"All Drugs and Chemicals"},{"abbrev":"CaAg","name":"Cardiotonic Agents"}]}},"hasResults":false}