{"protocolSection":{"identificationModule":{"nctId":"NCT06948422","orgStudyIdInfo":{"id":"27223"},"secondaryIdInfos":[{"id":"J2A-MC-GZPL","type":"OTHER","domain":"Eli Lilly and Company"},{"id":"J2A-MC-GZL1","type":"OTHER","domain":"Eli Lilly and Company"},{"id":"J2A-MC-GZL2","type":"OTHER","domain":"Eli Lilly and Company"}],"organization":{"fullName":"Eli Lilly and Company","class":"INDUSTRY"},"briefTitle":"A Master Protocol for Orforglipron (LY3502970) in Participants With Hypertension and Obesity or Overweight: (ATTAIN-Hypertension Screening)","officialTitle":"A Master Protocol to Investigate the Efficacy and Safety of Orforglipron Once Daily in Participants With Hypertension and Obesity or Overweight: Randomized, Double-Blind, Placebo-Controlled Trials (ATTAIN-HYPERTENSION)"},"statusModule":{"statusVerifiedDate":"2025-06","overallStatus":"RECRUITING","expandedAccessInfo":{"hasExpandedAccess":false},"startDateStruct":{"date":"2025-04-30","type":"ACTUAL"},"primaryCompletionDateStruct":{"date":"2027-09","type":"ESTIMATED"},"completionDateStruct":{"date":"2027-09","type":"ESTIMATED"},"studyFirstSubmitDate":"2025-04-21","studyFirstSubmitQcDate":"2025-04-21","studyFirstPostDateStruct":{"date":"2025-04-29","type":"ACTUAL"},"lastUpdateSubmitDate":"2025-06-24","lastUpdatePostDateStruct":{"date":"2025-06-25","type":"ACTUAL"}},"sponsorCollaboratorsModule":{"responsibleParty":{"type":"SPONSOR"},"leadSponsor":{"name":"Eli Lilly and Company","class":"INDUSTRY"}},"oversightModule":{"oversightHasDmc":false,"isFdaRegulatedDrug":true,"isFdaRegulatedDevice":false},"descriptionModule":{"briefSummary":"The GZPL master protocol will support 2 independent studies, J2A-MC-GZL1 (GZL1) and J2A-MC-GZL2 (GZL2). The purpose of this study is to create a framework to evaluate the safety and efficacy of orforglipron for the treatment of hypertension in participants with obesity or overweight."},"conditionsModule":{"conditions":["Hypertension"]},"designModule":{"studyType":"INTERVENTIONAL","phases":["PHASE3"],"designInfo":{"allocation":"RANDOMIZED","interventionModel":"PARALLEL","primaryPurpose":"SCREENING","maskingInfo":{"masking":"DOUBLE","whoMasked":["PARTICIPANT","INVESTIGATOR"]}},"enrollmentInfo":{"count":974,"type":"ESTIMATED"}},"armsInterventionsModule":{"armGroups":[{"label":"Orforglipron (GZL1)","type":"EXPERIMENTAL","description":"Participants will receive orforglipron orally or placebo.","interventionNames":["Drug: Orforglipron","Drug: Placebo"]},{"label":"Orforglipron (GZL2)","type":"EXPERIMENTAL","description":"Participants will receive orforglipron orally or placebo.","interventionNames":["Drug: Orforglipron","Drug: Placebo"]}],"interventions":[{"type":"DRUG","name":"Orforglipron","description":"Administered orally.","armGroupLabels":["Orforglipron (GZL1)","Orforglipron (GZL2)"],"otherNames":["LY3502970"]},{"type":"DRUG","name":"Placebo","description":"Administered orally.","armGroupLabels":["Orforglipron (GZL1)","Orforglipron (GZL2)"]}]},"outcomesModule":{"primaryOutcomes":[{"measure":"Number of Participants Allocated to Each ISA","timeFrame":"Week -8 to Week 0"}]},"eligibilityModule":{"eligibilityCriteria":"Inclusion Criteria:\n\n* Has systolic blood pressure (SBP) ≥ 140 mmHg and/or diastolic blood pressure (DBP) ≥ 90 mmHg (if DBP criteria alone is met, SBP must be ≥130 mmHg) at screening (Visit 1).\n* Has SBP ≥ 140 mmHg and/or DBP ≥ 90 mmHg (if DBP criteria alone is met, SBP must be ≥130 mmHg) at week 0 (Visit 3).\n* Untreated for hypertension, or on stable antihypertensive medications ≥ 30 days prior to Visit 1.\n* Have a body mass index (BMI) ≥ 25 kg/m².\n\nExclusion Criteria:\n\n* Has SBP ≥170 mmHg and/or DBP ≥110 mmHg at Visit 1 or at Visit 3.\n* Has known secondary causes of hypertension\n* Have heart failure with reduced ejection fraction (HFrEF) diagnosis\n* Have had any of the following conditions within 90 days prior to screening.\n\n  * hospitalization for hypertension or for congestive heart failure\n  * acute coronary syndrome or acute myocardial infarction, or\n  * cerebrovascular accident (stroke).\n* Have type 1 diabetes (T1D)\n* Have acute or chronic hepatitis, including a history of autoimmune hepatitis","healthyVolunteers":false,"sex":"ALL","minimumAge":"18 Years","stdAges":["ADULT","OLDER_ADULT"]},"contactsLocationsModule":{"centralContacts":[{"name":"There may be multiple sites in this clinical trial. 1-877-CTLILLY (1-877-285-4559) or","role":"CONTACT","phone":"1-317-615-4559","email":"clinical_inquiry_hub@lilly.com"}],"overallOfficials":[{"name":"Call 1-877-CTLILLY (1-877-285-4559) or 1-317-615-4559 Mon - Fri 9 AM - 5 PM Eastern time (UTC/GMT - 5 hours, EST)","affiliation":"Eli Lilly and Company","role":"STUDY_DIRECTOR"}],"locations":[{"facility":"Elite Clinical Studies, LLC","status":"RECRUITING","city":"Phoenix","state":"Arizona","zip":"85018","country":"United States","contacts":[{"role":"CONTACT","phone":"602-788-3437"},{"name":"Joseph Lillo, DO","role":"PRINCIPAL_INVESTIGATOR"}],"geoPoint":{"lat":33.44838,"lon":-112.07404}},{"facility":"Valley Clinical Trials, Inc.","status":"RECRUITING","city":"Covina","state":"California","zip":"91723","country":"United States","contacts":[{"role":"CONTACT","phone":"626-598-4952"},{"name":"Fahed Bitar","role":"PRINCIPAL_INVESTIGATOR"}],"geoPoint":{"lat":34.09001,"lon":-117.89034}},{"facility":"Valley Clinical Trials, Inc.","status":"RECRUITING","city":"Northridge","state":"California","zip":"91325","country":"United States","contacts":[{"role":"CONTACT","phone":"818-280-4220"},{"name":"Christopher Chow","role":"PRINCIPAL_INVESTIGATOR"}],"geoPoint":{"lat":34.22834,"lon":-118.53675}},{"facility":"Chase Medical Research, LLC","status":"RECRUITING","city":"Waterbury","state":"Connecticut","zip":"06708","country":"United States","contacts":[{"role":"CONTACT","phone":"203-419-4420"},{"name":"Joseph Soufer","role":"PRINCIPAL_INVESTIGATOR"}],"geoPoint":{"lat":41.55815,"lon":-73.0515}},{"facility":"Excel Medical Clinical Trials","status":"RECRUITING","city":"Boca Raton","state":"Florida","zip":"33434","country":"United States","contacts":[{"role":"CONTACT","phone":"305-631-6704"},{"name":"Michael Hafran","role":"PRINCIPAL_INVESTIGATOR"}],"geoPoint":{"lat":26.3669,"lon":-80.13033}},{"facility":"Care Access - Brandon","status":"RECRUITING","city":"Brandon","state":"Florida","zip":"33510","country":"United States","contacts":[{"role":"CONTACT","phone":"813-582-7224"},{"name":"Parenkumar Patel","role":"PRINCIPAL_INVESTIGATOR"}],"geoPoint":{"lat":27.9378,"lon":-82.28592}},{"facility":"Northeast Research Institute - Downtown Office","status":"RECRUITING","city":"Jacksonville","state":"Florida","zip":"32204","country":"United States","contacts":[{"role":"CONTACT","phone":"904-541-8225"},{"name":"David Sutton","role":"PRINCIPAL_INVESTIGATOR"}],"geoPoint":{"lat":30.33218,"lon":-81.65565}},{"facility":"Peace River Cardiovascular Center","status":"RECRUITING","city":"Port Charlotte","state":"Florida","zip":"33952","country":"United States","contacts":[{"role":"CONTACT","phone":"941-629-5356"},{"name":"David Hotchkiss","role":"PRINCIPAL_INVESTIGATOR"}],"geoPoint":{"lat":26.97617,"lon":-82.09064}},{"facility":"Care Access - Sun City Center - Cypress Village Boulevard","status":"RECRUITING","city":"Sun City Center","state":"Florida","zip":"33573","country":"United States","contacts":[{"role":"CONTACT","phone":"877-791-0656"},{"name":"Gigi Lefebvre","role":"PRINCIPAL_INVESTIGATOR"}],"geoPoint":{"lat":27.71809,"lon":-82.35176}},{"facility":"East-West Medical Research Institute","status":"RECRUITING","city":"Honolulu","state":"Hawaii","zip":"96814","country":"United States","contacts":[{"role":"CONTACT","phone":"808-531-6886"},{"name":"Cindy Pau","role":"PRINCIPAL_INVESTIGATOR"}],"geoPoint":{"lat":21.30694,"lon":-157.85833}},{"facility":"Sinai Hospital Of Baltimore","status":"RECRUITING","city":"Baltimore","state":"Maryland","zip":"21209","country":"United States","contacts":[{"role":"CONTACT","phone":"410-367-2590"},{"name":"Paul Gurbel","role":"PRINCIPAL_INVESTIGATOR"}],"geoPoint":{"lat":39.29038,"lon":-76.61219}},{"facility":"Ascension Saint Agnes Heart Care","status":"RECRUITING","city":"Baltimore","state":"Maryland","zip":"21229","country":"United States","contacts":[{"role":"CONTACT","phone":"443-798-2670"},{"name":"Jeffrey Cole","role":"PRINCIPAL_INVESTIGATOR"}],"geoPoint":{"lat":39.29038,"lon":-76.61219}},{"facility":"Lucida Clinical Trials","status":"RECRUITING","city":"New Bedford","state":"Massachusetts","zip":"02740","country":"United States","contacts":[{"role":"CONTACT","phone":"508-720-2015"},{"name":"David Shih","role":"PRINCIPAL_INVESTIGATOR"}],"geoPoint":{"lat":41.63622,"lon":-70.93421}},{"facility":"Arcturus Healthcare , PLC, Troy Internal Medicine Research Division","status":"RECRUITING","city":"Troy","state":"Michigan","zip":"48098","country":"United States","contacts":[{"role":"CONTACT","phone":"248-312-0025"},{"name":"Neil Fraser","role":"PRINCIPAL_INVESTIGATOR"}],"geoPoint":{"lat":42.60559,"lon":-83.14993}},{"facility":"StudyMetrix Research","status":"RECRUITING","city":"Saint Peters","state":"Missouri","zip":"63303","country":"United States","contacts":[{"role":"CONTACT","phone":"636-387-5100"},{"name":"Timothy Smith","role":"PRINCIPAL_INVESTIGATOR"}],"geoPoint":{"lat":38.80033,"lon":-90.62651}},{"facility":"Excel Clinical Research, LLC","status":"RECRUITING","city":"Las Vegas","state":"Nevada","zip":"89109","country":"United States","contacts":[{"role":"CONTACT","phone":"702-680-1500"},{"name":"Tawni Christensen","role":"PRINCIPAL_INVESTIGATOR"}],"geoPoint":{"lat":36.17497,"lon":-115.13722}},{"facility":"Palm Research Center Sunset","status":"RECRUITING","city":"Las Vegas","state":"Nevada","zip":"89148","country":"United States","contacts":[{"role":"CONTACT","phone":"702-736-5161"},{"name":"Samer Nakhle","role":"PRINCIPAL_INVESTIGATOR"}],"geoPoint":{"lat":36.17497,"lon":-115.13722}},{"facility":"Rochester Clinical Research, LLC","status":"RECRUITING","city":"Rochester","state":"New York","zip":"14609","country":"United States","contacts":[{"role":"CONTACT","phone":"585-288-0890"},{"name":"Matthew Davis","role":"PRINCIPAL_INVESTIGATOR"}],"geoPoint":{"lat":43.15478,"lon":-77.61556}},{"facility":"Remington-Davis, Inc","status":"RECRUITING","city":"Columbus","state":"Ohio","zip":"43215","country":"United States","contacts":[{"role":"CONTACT","phone":"614-487-2560"},{"name":"Roy St. John","role":"PRINCIPAL_INVESTIGATOR"}],"geoPoint":{"lat":39.96118,"lon":-82.99879}},{"facility":"PriMED Clinical Research","status":"RECRUITING","city":"Dayton","state":"Ohio","zip":"45429","country":"United States","contacts":[{"role":"CONTACT","phone":"937-534-4201"},{"name":"William Randall","role":"PRINCIPAL_INVESTIGATOR"}],"geoPoint":{"lat":39.75895,"lon":-84.19161}},{"facility":"Advanced Research Institute - Tigard","status":"RECRUITING","city":"Tigard","state":"Oregon","zip":"97223","country":"United States","contacts":[{"role":"CONTACT","phone":"503-610-0033"},{"name":"James Bergthold","role":"PRINCIPAL_INVESTIGATOR"}],"geoPoint":{"lat":45.43123,"lon":-122.77149}},{"facility":"Care Access - Mauldin","status":"RECRUITING","city":"Mauldin","state":"South Carolina","zip":"29662","country":"United States","contacts":[{"role":"CONTACT","phone":"864-202-6290"},{"name":"Anne Tuggle","role":"PRINCIPAL_INVESTIGATOR"}],"geoPoint":{"lat":34.77873,"lon":-82.31012}},{"facility":"Dallas Heart and Vascular Consultants, PA","status":"NOT_YET_RECRUITING","city":"Duncanville","state":"Texas","zip":"75137","country":"United States","contacts":[{"role":"CONTACT","phone":"281-944-3610"},{"name":"Imran Afridi, MD","role":"PRINCIPAL_INVESTIGATOR"}],"geoPoint":{"lat":32.6518,"lon":-96.90834}},{"facility":"Texas Institute of Cardiology, PA","status":"RECRUITING","city":"McKinney","state":"Texas","zip":"75071","country":"United States","contacts":[{"role":"CONTACT","phone":"214-544-7555"},{"name":"Faisal Wahid","role":"PRINCIPAL_INVESTIGATOR"}],"geoPoint":{"lat":33.19762,"lon":-96.61527}},{"facility":"North Hills Family Medicine/North Hills Medical Research","status":"RECRUITING","city":"North Richland Hills","state":"Texas","zip":"76180","country":"United States","contacts":[{"role":"CONTACT","phone":"817-595-3399"},{"name":"John Gabriel","role":"PRINCIPAL_INVESTIGATOR"}],"geoPoint":{"lat":32.8343,"lon":-97.2289}},{"facility":"Advanced Research Institute","status":"RECRUITING","city":"Ogden","state":"Utah","zip":"84405","country":"United States","contacts":[{"role":"CONTACT","phone":"801-409-2040"},{"name":"Michael Woolman","role":"PRINCIPAL_INVESTIGATOR"}],"geoPoint":{"lat":41.223,"lon":-111.97383}},{"facility":"Carient Heart & Vascular - Manassas","status":"RECRUITING","city":"Manassas","state":"Virginia","zip":"20109","country":"United States","contacts":[{"role":"CONTACT","phone":"703-335-8750"},{"name":"Hamid Taheri","role":"PRINCIPAL_INVESTIGATOR"}],"geoPoint":{"lat":38.75095,"lon":-77.47527}},{"facility":"Health Research of Hampton Roads, Inc.","status":"RECRUITING","city":"Newport News","state":"Virginia","zip":"23606","country":"United States","contacts":[{"role":"CONTACT","phone":"757-591-8100"},{"name":"George Freeman","role":"PRINCIPAL_INVESTIGATOR"}],"geoPoint":{"lat":37.08339,"lon":-76.46965}},{"facility":"National Clinical Research, Inc","status":"RECRUITING","city":"Richmond","state":"Virginia","zip":"23294","country":"United States","contacts":[{"role":"CONTACT","phone":"804-672-2995"},{"name":"John Scott","role":"PRINCIPAL_INVESTIGATOR"}],"geoPoint":{"lat":37.55376,"lon":-77.46026}},{"facility":"Eastside Research Associates","status":"RECRUITING","city":"Redmond","state":"Washington","zip":"98052","country":"United States","contacts":[{"role":"CONTACT","phone":"425-869-6828"},{"name":"Kevin Hanson","role":"PRINCIPAL_INVESTIGATOR"}],"geoPoint":{"lat":47.67399,"lon":-122.12151}},{"facility":"Santa Maria de la Salud Centro Medico","status":"NOT_YET_RECRUITING","city":"San Isidro","state":"Buenos Aires","zip":"1642","country":"Argentina","contacts":[{"role":"CONTACT","phone":"+5491151774608"},{"name":"Virginia Kotliar Lublin","role":"PRINCIPAL_INVESTIGATOR"}],"geoPoint":{"lat":-34.4721,"lon":-58.52708}},{"facility":"CIPREC","status":"NOT_YET_RECRUITING","city":"Buenos Aires","state":"Ciudad Autónoma De Buenos Aires","zip":"C1119ACN","country":"Argentina","contacts":[{"role":"CONTACT","phone":"5491165496764"},{"name":"Angela Romero Zarante","role":"PRINCIPAL_INVESTIGATOR"}],"geoPoint":{"lat":-34.61315,"lon":-58.37723}},{"facility":"Centro de Investigaciones Clínicas Baigorria","status":"NOT_YET_RECRUITING","city":"Granadero Baigorria","state":"Santa Fe","zip":"2152","country":"Argentina","contacts":[{"role":"CONTACT","phone":"5493412106243"},{"name":"Juan Dominguez","role":"PRINCIPAL_INVESTIGATOR"}],"geoPoint":{"lat":-32.85683,"lon":-60.71754}},{"facility":"INECO Neurociencias Oroño","status":"NOT_YET_RECRUITING","city":"Rosario","state":"Santa Fe","zip":"2000","country":"Argentina","contacts":[{"role":"CONTACT","phone":"543415004351"},{"name":"Dana Miralles","role":"PRINCIPAL_INVESTIGATOR"}],"geoPoint":{"lat":-32.94682,"lon":-60.63932}},{"facility":"Instituto Médico Fundación Grupo Colaborativo Rosario Investigación y Prevención Medica","status":"NOT_YET_RECRUITING","city":"Rosario","state":"Santa Fe","zip":"2000","country":"Argentina","contacts":[{"role":"CONTACT","phone":"543416928531"},{"name":"Horacio Sessa","role":"PRINCIPAL_INVESTIGATOR"}],"geoPoint":{"lat":-32.94682,"lon":-60.63932}},{"facility":"Instituto Médico Especializado (IME)","status":"NOT_YET_RECRUITING","city":"Buenos Aires","zip":"1405","country":"Argentina","contacts":[{"role":"CONTACT","phone":"541134864122"},{"name":"Gabriela Rossi","role":"PRINCIPAL_INVESTIGATOR"}],"geoPoint":{"lat":-34.61315,"lon":-58.37723}},{"facility":"CIPREC","status":"NOT_YET_RECRUITING","city":"Buenos Aires","zip":"C1061AAS","country":"Argentina","contacts":[{"role":"CONTACT","phone":"5491128690843"},{"name":"Fernando Guerlloy","role":"PRINCIPAL_INVESTIGATOR"}],"geoPoint":{"lat":-34.61315,"lon":-58.37723}},{"facility":"CEMEDIC","status":"NOT_YET_RECRUITING","city":"Buenos Aires","zip":"C1407GTN","country":"Argentina","contacts":[{"role":"CONTACT","phone":"54 11 46356624"},{"name":"Claudio Majul","role":"PRINCIPAL_INVESTIGATOR"}],"geoPoint":{"lat":-34.61315,"lon":-58.37723}},{"facility":"Instituto de Investigaciones Clínicas Córdoba","status":"NOT_YET_RECRUITING","city":"Córdoba","zip":"5000","country":"Argentina","contacts":[{"role":"CONTACT","phone":"03515102154"},{"name":"Mauro Pautasso","role":"PRINCIPAL_INVESTIGATOR"}],"geoPoint":{"lat":-31.4135,"lon":-64.18105}},{"facility":"Beijing Pinggu District Hospital","status":"NOT_YET_RECRUITING","city":"Beijing","state":"Beijing","zip":"101200","country":"China","contacts":[{"role":"CONTACT","phone":"13911080328"},{"name":"yufeng li","role":"PRINCIPAL_INVESTIGATOR"}],"geoPoint":{"lat":39.9075,"lon":116.39723}},{"facility":"The Second Affiliated Hospital of Chongqing Medical University - Yuzhong Campus","status":"NOT_YET_RECRUITING","city":"Chongqing","state":"Chongqing","zip":"400010","country":"China","contacts":[{"name":"Zhiyu Ling","role":"PRINCIPAL_INVESTIGATOR"}],"geoPoint":{"lat":29.56278,"lon":106.55278}},{"facility":"The First Affiliated Hospital of Henan University of Science &Technology","status":"NOT_YET_RECRUITING","city":"Luoyang Shi","state":"Henan","zip":"471003","country":"China","contacts":[{"role":"CONTACT","phone":"13653880139"},{"name":"Hongwei Jiang","role":"PRINCIPAL_INVESTIGATOR"}]},{"facility":"Changde First People's Hospital","status":"NOT_YET_RECRUITING","city":"Changde","state":"Hunan","zip":"415000","country":"China","contacts":[{"name":"Liangqing GE","role":"PRINCIPAL_INVESTIGATOR"}],"geoPoint":{"lat":29.04638,"lon":111.6783}},{"facility":"Wuxi People's Hospital","status":"NOT_YET_RECRUITING","city":"Wuxi","state":"Jiangsu","zip":"214023","country":"China","contacts":[{"name":"Ruxing Wang","role":"PRINCIPAL_INVESTIGATOR"}],"geoPoint":{"lat":31.56887,"lon":120.28857}},{"facility":"China-Japan Union Hospital","status":"NOT_YET_RECRUITING","city":"Changchun","state":"Jilin","zip":"130033","country":"China","contacts":[{"name":"Yuquan He","role":"PRINCIPAL_INVESTIGATOR"}],"geoPoint":{"lat":43.88,"lon":125.32278}},{"facility":"Siping Central People's Hospital","status":"NOT_YET_RECRUITING","city":"Siping","state":"Jilin","zip":"136000","country":"China","contacts":[{"role":"CONTACT","phone":"8613843400730"},{"name":"Zhihua Fang","role":"PRINCIPAL_INVESTIGATOR"}],"geoPoint":{"lat":43.16143,"lon":124.37785}},{"facility":"Shaanxi provincial people's hospital","status":"NOT_YET_RECRUITING","city":"Xian","state":"Shaanxi","zip":"710068","country":"China","contacts":[{"role":"CONTACT","phone":"8613519186905"},{"name":"Junkui Wang","role":"PRINCIPAL_INVESTIGATOR"}],"geoPoint":{"lat":34.25833,"lon":108.92861}},{"facility":"Jinan Central Hospital","status":"NOT_YET_RECRUITING","city":"Jinan","state":"Shandong","zip":"250013","country":"China","contacts":[{"name":"guohai Su","role":"PRINCIPAL_INVESTIGATOR"}],"geoPoint":{"lat":36.66833,"lon":116.99722}},{"facility":"Ruijin Hospital Shanghai Jiaotong University School of Medicine","status":"NOT_YET_RECRUITING","city":"Shanghai","state":"Shanghai","zip":"200001","country":"China","contacts":[{"name":"Jiguang Wang","role":"PRINCIPAL_INVESTIGATOR"}],"geoPoint":{"lat":31.22222,"lon":121.45806}},{"facility":"Sichuan Provincial People's Hospital","status":"NOT_YET_RECRUITING","city":"Chengdu","state":"Sichuan","zip":"610072","country":"China","contacts":[{"role":"CONTACT","phone":"18981838728"},{"name":"Yan Shu","role":"PRINCIPAL_INVESTIGATOR"}],"geoPoint":{"lat":30.66667,"lon":104.06667}},{"facility":"Lishui Central Hospital","status":"NOT_YET_RECRUITING","city":"Lishui City","state":"Zhejiang","country":"China","contacts":[{"name":"Lingchun Lv","role":"PRINCIPAL_INVESTIGATOR"}]},{"facility":"Top Moravia Health","status":"NOT_YET_RECRUITING","city":"Brno","state":"Brno-město","zip":"61500","country":"Czechia","contacts":[{"role":"CONTACT","phone":"00420 734 395 787"},{"name":"Veronika Fendrychova","role":"PRINCIPAL_INVESTIGATOR"}],"geoPoint":{"lat":49.19522,"lon":16.60796}},{"facility":"Ordinace Rihackovi, s.r.o.","status":"NOT_YET_RECRUITING","city":"Brno","state":"Brno-město","zip":"641 00","country":"Czechia","contacts":[{"role":"CONTACT","phone":"420733393445"},{"name":"Ivan Rihacek","role":"PRINCIPAL_INVESTIGATOR"}],"geoPoint":{"lat":49.19522,"lon":16.60796}},{"facility":"CTC Hodonin s.r.o.","status":"NOT_YET_RECRUITING","city":"Hodonin","state":"Hodonín","zip":"695 01","country":"Czechia","contacts":[{"role":"CONTACT","phone":"420777215598"},{"name":"Jiri Matuska","role":"PRINCIPAL_INVESTIGATOR"}],"geoPoint":{"lat":48.84893,"lon":17.13244}},{"facility":"CCR Ostrava s.r.o","status":"NOT_YET_RECRUITING","city":"Ostrava","state":"Moravskoslezský Kraj","zip":"702 00","country":"Czechia","contacts":[{"role":"CONTACT","phone":"+420731250539"},{"name":"Jozef Dodulik","role":"PRINCIPAL_INVESTIGATOR"}],"geoPoint":{"lat":49.83465,"lon":18.28204}},{"facility":"Diahelp s.r.o","status":"NOT_YET_RECRUITING","city":"Pardubice V","state":"Pardubice","zip":"530 02","country":"Czechia","contacts":[{"role":"CONTACT","phone":"420 606 753 365"},{"name":"Juraj Divinec","role":"PRINCIPAL_INVESTIGATOR"}]},{"facility":"Angiocentrum Komorany","status":"NOT_YET_RECRUITING","city":"Prague","state":"Praha 12","zip":"143 00","country":"Czechia","contacts":[{"role":"CONTACT","phone":"00420792335472"},{"name":"Ales Horacek","role":"PRINCIPAL_INVESTIGATOR"}],"geoPoint":{"lat":50.08804,"lon":14.42076}},{"facility":"MUDr. Sarka Drinkova","status":"NOT_YET_RECRUITING","city":"Ledec nad Sazavou","state":"Vysočina","zip":"584 01","country":"Czechia","contacts":[{"role":"CONTACT","phone":"420777775579"},{"name":"Sarka Drinkova","role":"PRINCIPAL_INVESTIGATOR"}],"geoPoint":{"lat":49.69517,"lon":15.27772}},{"facility":"Clinoxus","status":"NOT_YET_RECRUITING","city":"Praha 4","zip":"140 00","country":"Czechia","contacts":[{"role":"CONTACT","phone":"+420775983326"},{"name":"Jaroslav Macasek Ph.D.","role":"PRINCIPAL_INVESTIGATOR"}],"geoPoint":{"lat":50.08804,"lon":14.42076}},{"facility":"Praglandia s.r.o","status":"NOT_YET_RECRUITING","city":"Praha 5","zip":"150 00","country":"Czechia","contacts":[{"role":"CONTACT","phone":"420731586736"},{"name":"Vaclav Pavlinak","role":"PRINCIPAL_INVESTIGATOR"}],"geoPoint":{"lat":50.08804,"lon":14.42076}},{"facility":"Kardiologische Praxis Dr. med. univ. Wolfgang Jungmair","status":"NOT_YET_RECRUITING","city":"Bad Homburg","state":"Hessen","zip":"61348","country":"Germany","contacts":[{"role":"CONTACT","phone":"49 6172 - 123 99 73 - 0"},{"name":"Wolfgang Jungmair","role":"PRINCIPAL_INVESTIGATOR"}],"geoPoint":{"lat":50.22683,"lon":8.61816}},{"facility":"Medizentrum Essen Borbeck","status":"NOT_YET_RECRUITING","city":"Essen","state":"Nordrhein-Westfalen","zip":"45355","country":"Germany","contacts":[{"role":"CONTACT","phone":"492018664428"},{"name":"Axel Schaefer","role":"PRINCIPAL_INVESTIGATOR"}],"geoPoint":{"lat":51.45657,"lon":7.01228}},{"facility":"Zentrum fur klinische Forschung - Köln","status":"NOT_YET_RECRUITING","city":"Köln","state":"Nordrhein-Westfalen","zip":"51069","country":"Germany","contacts":[{"role":"CONTACT","phone":"00492212972813"},{"name":"Bastian Kirsch","role":"PRINCIPAL_INVESTIGATOR"}],"geoPoint":{"lat":50.93333,"lon":6.95}},{"facility":"Hausärztlich-Kardiologisches MVZ am Felsenkeller GmbH/Zentrum für klinische Studien","status":"NOT_YET_RECRUITING","city":"Dresden","state":"Sachsen","zip":"01277","country":"Germany","contacts":[{"role":"CONTACT","phone":"49 351 33944483"},{"name":"Maria Rudolf","role":"PRINCIPAL_INVESTIGATOR"}],"geoPoint":{"lat":51.05089,"lon":13.73832}},{"facility":"Universitaetsklinikum Carl Gustav Carus Dresden","status":"NOT_YET_RECRUITING","city":"Dresden","state":"Sachsen","zip":"01307","country":"Germany","contacts":[{"role":"CONTACT","phone":"49 351 458 13651"},{"name":"Nikolaos Perakakis","role":"PRINCIPAL_INVESTIGATOR"}],"geoPoint":{"lat":51.05089,"lon":13.73832}},{"facility":"AmBeNet GmbH","status":"NOT_YET_RECRUITING","city":"Leipzig","state":"Sachsen","zip":"04107","country":"Germany","contacts":[{"role":"CONTACT","phone":"4934196276326"},{"name":"Hans-Detlev Stahl","role":"PRINCIPAL_INVESTIGATOR"}],"geoPoint":{"lat":51.33962,"lon":12.37129}},{"facility":"Familienmedizinisches Zentrum Radowsky","status":"NOT_YET_RECRUITING","city":"Leipzig","state":"Sachsen","zip":"04179","country":"Germany","contacts":[{"role":"CONTACT","phone":"493414124188"},{"name":"Frank Radowsky","role":"PRINCIPAL_INVESTIGATOR"}],"geoPoint":{"lat":51.33962,"lon":12.37129}},{"facility":"RED-Institut GmbH","status":"NOT_YET_RECRUITING","city":"Oldenburg","state":"Schleswig-Holstein","zip":"23758","country":"Germany","contacts":[{"role":"CONTACT","phone":"0049436150630128"},{"name":"Thomas Schaum","role":"PRINCIPAL_INVESTIGATOR"}],"geoPoint":{"lat":53.14118,"lon":8.21467}},{"facility":"emovis GmbH","status":"NOT_YET_RECRUITING","city":"Berlin","zip":"10629","country":"Germany","contacts":[{"role":"CONTACT","phone":"49 30 310136-10"},{"name":"Kerstin Sturm","role":"PRINCIPAL_INVESTIGATOR"}],"geoPoint":{"lat":52.52437,"lon":13.41053}},{"facility":"Athens Medical Center - Psychikon branch","status":"NOT_YET_RECRUITING","city":"Athens","state":"Attikí (Region)","zip":"115 25","country":"Greece","contacts":[{"role":"CONTACT","phone":"00302106974287"},{"name":"Gerasimos Karousos","role":"PRINCIPAL_INVESTIGATOR"}],"geoPoint":{"lat":37.97945,"lon":23.71622}},{"facility":"General Hospital of Athens \"G. Gennimatas\"","status":"NOT_YET_RECRUITING","city":"Athens","state":"Attikí","zip":"11527","country":"Greece","contacts":[{"role":"CONTACT","phone":"00302132034093"},{"name":"Athina Markou","role":"PRINCIPAL_INVESTIGATOR"}],"geoPoint":{"lat":37.97945,"lon":23.71622}},{"facility":"University Hospital of Ioannina","status":"NOT_YET_RECRUITING","city":"Ioannina","state":"Ioánnina","zip":"45500","country":"Greece","contacts":[{"role":"CONTACT","phone":"302651099846"},{"name":"Vasileios Tsimichodimos","role":"PRINCIPAL_INVESTIGATOR"}],"geoPoint":{"lat":39.66486,"lon":20.85189}},{"facility":"G. Gennimatas General Hospital of Thessaloniki","status":"NOT_YET_RECRUITING","city":"Thessaloniki","state":"Thessaloníki","zip":"546 35","country":"Greece","contacts":[{"role":"CONTACT","phone":"00302313308119"},{"name":"Ioannis Stergiou","role":"PRINCIPAL_INVESTIGATOR"}],"geoPoint":{"lat":40.64361,"lon":22.93086}},{"facility":"AHEPA University General Hospital of Thessaloniki","status":"NOT_YET_RECRUITING","city":"Thessaloniki","state":"Thessaloníki","zip":"546 36","country":"Greece","contacts":[{"role":"CONTACT","phone":"+302310994838"},{"name":"Georgios Giannakoulas","role":"PRINCIPAL_INVESTIGATOR"}],"geoPoint":{"lat":40.64361,"lon":22.93086}},{"facility":"Papageorgiou General Hospital of Thessaloniki","status":"NOT_YET_RECRUITING","city":"Thessaloniki","state":"Thessaloníki","zip":"56403","country":"Greece","contacts":[{"role":"CONTACT","phone":"(0030)2313323180"},{"name":"Glykeria Tzatzagou","role":"PRINCIPAL_INVESTIGATOR"}],"geoPoint":{"lat":40.64361,"lon":22.93086}},{"facility":"G.B. Pant Institute of Postgraduate Medical Education & Research","status":"NOT_YET_RECRUITING","city":"New Delhi","state":"Delhi","zip":"110002","country":"India","contacts":[{"role":"CONTACT","phone":"09718599105"},{"name":"Vimal Mehta","role":"PRINCIPAL_INVESTIGATOR"}],"geoPoint":{"lat":28.63576,"lon":77.22445}},{"facility":"Life Care Hospital and Research Centre","status":"NOT_YET_RECRUITING","city":"Bangalore","state":"Karnataka","zip":"560092","country":"India","contacts":[{"name":"Kumar K","role":"PRINCIPAL_INVESTIGATOR"}],"geoPoint":{"lat":12.97194,"lon":77.59369}},{"facility":"Ashirwad Hospital and Research Centre","status":"NOT_YET_RECRUITING","city":"Ulhasnagar","state":"Maharashtra","zip":"421004","country":"India","contacts":[{"role":"CONTACT","phone":"9823932501"},{"name":"Anuj Bhasin","role":"PRINCIPAL_INVESTIGATOR"}],"geoPoint":{"lat":19.21667,"lon":73.15}},{"facility":"All India Institute of Medical Sciences","status":"NOT_YET_RECRUITING","city":"Bhubaneswar","state":"Odisha","zip":"751019","country":"India","contacts":[{"role":"CONTACT","phone":"+91-7675992616"},{"name":"Debasis Acharya","role":"PRINCIPAL_INVESTIGATOR"}],"geoPoint":{"lat":20.27241,"lon":85.83385}},{"facility":"Mikannohana Clinic, Diabetes, Endocrinology and Metabolism","status":"NOT_YET_RECRUITING","city":"Matsuyama","state":"Ehime","zip":"7900034","country":"Japan","contacts":[{"role":"CONTACT","phone":"81120023812"},{"name":"Tetsuji Niiya","role":"PRINCIPAL_INVESTIGATOR"}],"geoPoint":{"lat":33.83916,"lon":132.76574}},{"facility":"Takai Internal Medicine Clinic","status":"NOT_YET_RECRUITING","city":"Kamakura-shi","state":"Kanagawa","zip":"247-0056","country":"Japan","contacts":[{"role":"CONTACT","phone":"81120023812"},{"name":"Masahiko Takai","role":"PRINCIPAL_INVESTIGATOR"}],"geoPoint":{"lat":35.30889,"lon":139.55028}},{"facility":"Medical Corporation Yuga Tsuruma Kaneshiro Diabetes Clinic","status":"NOT_YET_RECRUITING","city":"Yamato-shi","state":"Kanagawa","zip":"242-0004","country":"Japan","contacts":[{"role":"CONTACT","phone":"81120023812"},{"name":"Taro Asakura","role":"PRINCIPAL_INVESTIGATOR"}]},{"facility":"Tokyo-Eki Center-building Clinic","status":"NOT_YET_RECRUITING","city":"Chuo-ku","state":"Tokyo","zip":"103-0027","country":"Japan","contacts":[{"role":"CONTACT","phone":"81120023812"},{"name":"Arihiro Kiyosue","role":"PRINCIPAL_INVESTIGATOR"}],"geoPoint":{"lat":35.57779,"lon":139.71685}},{"facility":"Fukuwa Clinic","status":"NOT_YET_RECRUITING","city":"Chuo-ku","state":"Tokyo","zip":"104-0031","country":"Japan","contacts":[{"role":"CONTACT","phone":"81120023812"},{"name":"Yasushi Fukushima","role":"PRINCIPAL_INVESTIGATOR"}],"geoPoint":{"lat":35.57779,"lon":139.71685}},{"facility":"NZOZ Regionalna Poradnia Diabetologiczna","status":"NOT_YET_RECRUITING","city":"Wroclaw","state":"Dolnośląskie","zip":"50-127","country":"Poland","contacts":[{"name":"Teresa Stasinska","role":"PRINCIPAL_INVESTIGATOR"}],"geoPoint":{"lat":51.1,"lon":17.03333}},{"facility":"Centrum Medyczne \"Hipokrates\" S.C. Elżbieta I Grzegorz Grześk","status":"NOT_YET_RECRUITING","city":"Bydgoszcz","state":"Kujawsko-pomorskie","zip":"85-092","country":"Poland","contacts":[{"role":"CONTACT","phone":"48 603 127 021"},{"name":"Grzegorz Grzesk","role":"PRINCIPAL_INVESTIGATOR"}],"geoPoint":{"lat":53.1235,"lon":18.00762}},{"facility":"NZOZ Centrum Medyczne KERmed","status":"NOT_YET_RECRUITING","city":"Bydgoszcz","state":"Kujawsko-pomorskie","zip":"85-231","country":"Poland","contacts":[{"role":"CONTACT","phone":"48600249404"},{"name":"Tomasz Lugowski","role":"PRINCIPAL_INVESTIGATOR"}],"geoPoint":{"lat":53.1235,"lon":18.00762}},{"facility":"Balsam Medica","status":"NOT_YET_RECRUITING","city":"Warsaw","state":"Mazowieckie","zip":"01-249","country":"Poland","contacts":[{"name":"Lukasz Januszkiewicz","role":"PRINCIPAL_INVESTIGATOR"}],"geoPoint":{"lat":52.22977,"lon":21.01178}},{"facility":"Private Practice - Dr. Robert Witek","status":"NOT_YET_RECRUITING","city":"Tarnów","state":"Małopolskie","zip":"33-100","country":"Poland","contacts":[{"role":"CONTACT","phone":"48516767772"},{"name":"Robert Witek","role":"PRINCIPAL_INVESTIGATOR"}],"geoPoint":{"lat":50.01381,"lon":20.98698}},{"facility":"Wojewodzki Szpital im. Sw. Ojca Pio w Przemyslu","status":"NOT_YET_RECRUITING","city":"Przemysl","state":"Podkarpackie","zip":"37-700","country":"Poland","contacts":[{"name":"Lukasz Wisniowski","role":"PRINCIPAL_INVESTIGATOR"}],"geoPoint":{"lat":49.78498,"lon":22.76728}},{"facility":"Uniwersytecki Szpital Kliniczny w Białymstoku","status":"NOT_YET_RECRUITING","city":"Białystok","state":"Podlaskie","zip":"15-276","country":"Poland","contacts":[{"name":"Anna Poplawska-Kita","role":"PRINCIPAL_INVESTIGATOR"}],"geoPoint":{"lat":53.13333,"lon":23.16433}},{"facility":"IRMED","status":"NOT_YET_RECRUITING","city":"Piotrkow Trybunalski","state":"Łódzkie","zip":"97-300","country":"Poland","contacts":[{"role":"CONTACT","phone":"48447890484"},{"name":"TOMASZ CIURUS","role":"PRINCIPAL_INVESTIGATOR"}],"geoPoint":{"lat":51.40547,"lon":19.70321}},{"facility":"Dorado Medical Complex","status":"RECRUITING","city":"Dorado","zip":"00646","country":"Puerto Rico","contacts":[{"role":"CONTACT","phone":"787278-1576"},{"name":"Luis Pagan-Cardona","role":"PRINCIPAL_INVESTIGATOR"}],"geoPoint":{"lat":18.45883,"lon":-66.26767}},{"facility":"Puerto Rico Medical Research","status":"RECRUITING","city":"Ponce","zip":"00717","country":"Puerto Rico","contacts":[{"role":"CONTACT","phone":"787-284-5366"},{"name":"Jose Santiago","role":"PRINCIPAL_INVESTIGATOR"}],"geoPoint":{"lat":18.01108,"lon":-66.61406}},{"facility":"CHUAC-Complejo Hospitalario Universitario A Coruña","status":"NOT_YET_RECRUITING","city":"A Coruña","state":"A Coruña [La Coruña]","zip":"15001","country":"Spain","contacts":[{"role":"CONTACT","phone":"34 628 544 729"},{"name":"Jose Luis Diaz Diaz","role":"PRINCIPAL_INVESTIGATOR"}],"geoPoint":{"lat":43.37135,"lon":-8.396}},{"facility":"Hospital San Rafael - La Coruña","status":"NOT_YET_RECRUITING","city":"La Coruña","state":"A Coruña [La Coruña]","zip":"15006","country":"Spain","contacts":[{"role":"CONTACT","phone":"655624017"},{"name":"Alfonso Soto Gonzalez","role":"PRINCIPAL_INVESTIGATOR"}],"geoPoint":{"lat":43.37135,"lon":-8.396}},{"facility":"Hospital Quiron Infanta Luisa","status":"NOT_YET_RECRUITING","city":"Sevilla","state":"Andalucía","zip":"41010","country":"Spain","contacts":[{"role":"CONTACT","phone":"670502836"},{"name":"MARGARITA RIVAS FERNANDEZ","role":"PRINCIPAL_INVESTIGATOR"}],"geoPoint":{"lat":37.38283,"lon":-5.97317}},{"facility":"EAP Sardenya","status":"NOT_YET_RECRUITING","city":"Barcelona","state":"Barcelona [Barcelona]","zip":"08025","country":"Spain","contacts":[{"name":"Carlos Brotons Cuixart","role":"PRINCIPAL_INVESTIGATOR"}],"geoPoint":{"lat":41.38879,"lon":2.15899}},{"facility":"EAP Osona Sud - Alt Congost S.L.P","status":"NOT_YET_RECRUITING","city":"Centelles","state":"Barcelona [Barcelona]","zip":"08540","country":"Spain","contacts":[{"role":"CONTACT","phone":"(+34) 93 881 04 85"},{"name":"Silvia Narejos Perez","role":"PRINCIPAL_INVESTIGATOR"}],"geoPoint":{"lat":41.79746,"lon":2.21902}},{"facility":"Complejo Asistencial Universitario de León - Hospital de León","status":"NOT_YET_RECRUITING","city":"León","state":"Castilla Y León","zip":"24071","country":"Spain","contacts":[{"role":"CONTACT","phone":"34987237400 Ext 43044"},{"name":"Maria Ballesteros Pomar","role":"PRINCIPAL_INVESTIGATOR"}],"geoPoint":{"lat":42.60003,"lon":-5.57032}},{"facility":"Clínica nuevas Tecnologías en Diabetes y Endocrinología (NTDE)","status":"NOT_YET_RECRUITING","city":"Sevilla","zip":"41003","country":"Spain","contacts":[{"role":"CONTACT","phone":"+ 34 954709183"},{"name":"Alberto Aliaga Verdugo","role":"PRINCIPAL_INVESTIGATOR"}],"geoPoint":{"lat":37.38283,"lon":-5.97317}}]},"ipdSharingStatementModule":{"ipdSharing":"YES","description":"Anonymized individual patient level data will be provided in a secure access environment upon approval of a research proposal and a signed data sharing agreement.","infoTypes":["STUDY_PROTOCOL","SAP","CSR"],"timeFrame":"Data are available 6 months after the primary publication and approval of the indication studied in the US and European Union (EU), whichever is later. Data will be indefinitely available for requesting.","accessCriteria":"A research proposal must be approved by an independent review panel and researchers must sign a data sharing agreement.","url":"http://vivli.org/"}},"derivedSection":{"miscInfoModule":{"versionHolder":"2025-07-07"},"conditionBrowseModule":{"meshes":[{"id":"D006973","term":"Hypertension"},{"id":"D050177","term":"Overweight"}],"ancestors":[{"id":"D044343","term":"Overnutrition"},{"id":"D009748","term":"Nutrition Disorders"},{"id":"D001835","term":"Body Weight"},{"id":"D014652","term":"Vascular Diseases"},{"id":"D002318","term":"Cardiovascular Diseases"}],"browseLeaves":[{"id":"M12701","name":"Obesity","relevance":"LOW"},{"id":"M10024","name":"Hypertension","asFound":"Hypertension","relevance":"HIGH"},{"id":"M26186","name":"Overweight","asFound":"Overweight","relevance":"HIGH"},{"id":"M25307","name":"Overnutrition","relevance":"LOW"},{"id":"M12684","name":"Nutrition Disorders","relevance":"LOW"},{"id":"M5114","name":"Body Weight","relevance":"LOW"},{"id":"M17400","name":"Vascular Diseases","relevance":"LOW"}],"browseBranches":[{"abbrev":"BC18","name":"Nutritional and Metabolic Diseases"},{"abbrev":"BC23","name":"Symptoms and General Pathology"},{"abbrev":"All","name":"All Conditions"},{"abbrev":"BC14","name":"Heart and Blood Diseases"}]}},"hasResults":false}