{"protocolSection":{"identificationModule":{"nctId":"NCT06344104","orgStudyIdInfo":{"id":"D6970C00008"},"organization":{"fullName":"AstraZeneca","class":"INDUSTRY"},"briefTitle":"A Study to Investigate the Efficacy and Safety of Baxdrostat in Participants With Uncontrolled Hypertension on Two or More Medications Including Participants With Resistant Hypertension","officialTitle":"A Double-Blind, Randomised, Placebo-Controlled, Multicentre Study Evaluating the Efficacy and Safety of Baxdrostat in Participants With Uncontrolled Hypertension on Two or More Medications Including Participants With Resistant Hypertension","acronym":"BaxAsia"},"statusModule":{"statusVerifiedDate":"2025-01","overallStatus":"RECRUITING","expandedAccessInfo":{"hasExpandedAccess":false},"startDateStruct":{"date":"2024-04-08","type":"ACTUAL"},"primaryCompletionDateStruct":{"date":"2026-05-20","type":"ESTIMATED"},"completionDateStruct":{"date":"2026-05-20","type":"ESTIMATED"},"studyFirstSubmitDate":"2024-03-27","studyFirstSubmitQcDate":"2024-03-27","studyFirstPostDateStruct":{"date":"2024-04-03","type":"ACTUAL"},"lastUpdateSubmitDate":"2025-01-09","lastUpdatePostDateStruct":{"date":"2025-01-10","type":"ACTUAL"}},"sponsorCollaboratorsModule":{"responsibleParty":{"type":"SPONSOR"},"leadSponsor":{"name":"AstraZeneca","class":"INDUSTRY"}},"oversightModule":{"oversightHasDmc":true,"isFdaRegulatedDrug":false,"isFdaRegulatedDevice":false},"descriptionModule":{"briefSummary":"The purpose of this study is to measure the efficacy and safety of baxdrostat in participants with uHTN or rHTN. The main objective is to compare the difference in SBP change from baseline at Week 12 of treatment between participants receiving 2 mg baxdrostat or 1 mg baxdrostat tablets and participants receiving placebo tablets.","detailedDescription":"This is a Phase III, multicentre, randomised, double-blinded, placebo-controlled, parallel group study to evaluate the safety, tolerability and effect of 1 or 2 mg baxdrostat versus placebo, administered QD orally, on the reduction of SBP in approximately 300 participants aged ≥ 18 years with HTN (≥ 140 mmHg at Screening; ≥ 135 mmHg at randomisation) despite a stable regimen of 2 antihypertensive agents at baseline, one of which is a diuretic (uHTN); or ≥ 3 antihypertensive agents at baseline, one of which is a diuretic (rHTN)."},"conditionsModule":{"conditions":["Uncontrolled Hypertension","Resistant Hypertension"],"keywords":["Hypertension","Uncontrolled hypertension","Resistant hypertension","Blood pressure","Baxdrostat","CIN-107","Aldosterone","Aldosterone synthase"]},"designModule":{"studyType":"INTERVENTIONAL","phases":["PHASE3"],"designInfo":{"allocation":"RANDOMIZED","interventionModel":"PARALLEL","interventionModelDescription":"placebo control","primaryPurpose":"TREATMENT","maskingInfo":{"masking":"QUADRUPLE","whoMasked":["PARTICIPANT","CARE_PROVIDER","INVESTIGATOR","OUTCOMES_ASSESSOR"]}},"enrollmentInfo":{"count":300,"type":"ESTIMATED"}},"armsInterventionsModule":{"armGroups":[{"label":"2 mg baxdrostat","type":"EXPERIMENTAL","description":"2 mg baxdrostat administered orally, once daily (QD)","interventionNames":["Drug: Baxdrostat"]},{"label":"1 mg baxdrostat","type":"EXPERIMENTAL","description":"1 mg baxdrostat administered orally, once daily (QD).","interventionNames":["Drug: Baxdrostat"]},{"label":"placebo","type":"PLACEBO_COMPARATOR","description":"Placebo administered orally, once daily (QD)","interventionNames":["Drug: Placebo"]}],"interventions":[{"type":"DRUG","name":"Baxdrostat","description":"Baxdrostat tablet administered orally, once daily (QD). Unit dose strength:\n\n* 1 mg per tablet for 1mg baxdrostat Arm\n* 2 mg per tablet for 2mg baxdrostat Arm","armGroupLabels":["1 mg baxdrostat","2 mg baxdrostat"],"otherNames":["CIN-107"]},{"type":"DRUG","name":"Placebo","description":"Placebo tablet administered orally, once daily (QD).","armGroupLabels":["placebo"]}]},"outcomesModule":{"primaryOutcomes":[{"measure":"Change from baseline in seated SBP at Week 12","description":"To assess the effect of 2 mg baxdrostat versus placebo on seated SBP at Week 12","timeFrame":"At Week 12"}],"secondaryOutcomes":[{"measure":"Change from baseline in seated SBP at Week 12","description":"To assess the effect of 1 mg baxdrostat versus placebo on seated SBP at Week 12","timeFrame":"At Week 12"},{"measure":"Change from RWD baseline (Week 24) in seated SBP at Week 32","description":"To assess the effect of 2 mg baxdrostat versus placebo on seated SBP at 8 weeks after randomised withdrawal","timeFrame":"At Week 32"},{"measure":"Change from baseline in the mean ambulatory 24-hour SBP at Week 12 as measured by ABPM","description":"To assess the effect of treatment with baxdrostat 2 mg vs placebo on ambulatory 24-hour average SBP at Week 12","timeFrame":"At Week 12"},{"measure":"Change from baseline in the mean ambulatory 24-hour SBP at Week 12 as measured by ABPM","description":"To assess the effect of treatment with baxdrostat 1 mg vs placebo on ambulatory 24-hour average SBP at Week 12","timeFrame":"At Week 12"},{"measure":"Change from baseline in seated DBP at Week 12","description":"To assess the effect of 2 mg baxdrostat versus placebo on seated DBP at Week 12","timeFrame":"At Week 12"},{"measure":"Achieving seated SBP < 140 mmHg at Week 12","description":"To assess the effect of 2 mg baxdrostat versus placebo on achieving seated SBP \\< 140 mmHg at Week 12","timeFrame":"At Week 12"},{"measure":"Change from baseline in seated DBP at Week 12","description":"To assess the effect of 1 mg baxdrostat versus placebo on seated DBP at Week 12","timeFrame":"At Week 12"},{"measure":"Achieving seated SBP < 140 mmHg at Week 12","description":"To assess the effect of 1 mg baxdrostat versus placebo on achieving seated SBP \\< 140 mmHg at Week 12","timeFrame":"At Week 12"},{"measure":"Change from baseline in seated SBP at Week 12","description":"To assess the effect of 2 mg baxdrostat versus placebo on seated SBP at Week 12 in the rHTN subgroup","timeFrame":"At Week 12"},{"measure":"Change from baseline in seated SBP at Week 12","description":"To assess the effect of 1 mg baxdrostat versus placebo on seated SBP at Week 12 in the rHTN subgroup","timeFrame":"At Week 12"}],"otherOutcomes":[{"measure":"Number of participants with adverse events (AEs)","description":"To assess the safety and tolerability of baxdrostat versus placebo. Occurrence of adverse events (AE), including serious adverse events (SAEs), adverse events leading to treatment discontinuation (DAE) and adverse events of special interest (AESI)","timeFrame":"Up to week 54"}]},"eligibilityModule":{"eligibilityCriteria":"Inclusion Criteria:\n\n* Male or female participants must be ≥ 18 years old.\n* Mean seated SBP on automated office blood pressure measurement (AOBPM) ≥ 140 mmHg at Screening.\n* Fulfil at least 1 of the following 2 criteria:\n\n  1. uHTN subpopulation: have a stable regimen (≥ 4 weeks) of 2 antihypertensive medications, from different therapeutic classes (at least one must be a diuretic), at maximum tolerated dose in the judgement of the Investigator.\n  2. rHTN subpopulation: have a stable regimen (≥ 4 weeks) of ≥ 3 antihypertensive medications, from different therapeutic classes (at least one must be a diuretic), at maximum tolerated dose in the judgement of the Investigator.\n* Estimated glomerular filtration rate ≥ 45 mL/min/1.73m2 at Screening.\n* Serum potassium (K+) level ≥ 3.5 and \\< 5.0 mmol/L at Screening.• Mean seated SBP on AOBPM ≥ 135 mmHg at Baseline.\n\nExclusion Criteria:\n\n* Mean seated SBP on AOBPM ≥ 170 mmHg.\n* Mean seated DBP on AOBPM ≥ 105 mmHg.\n* Serum sodium level (Na+) \\< 135 mmol/L at Screening.\n* Has the following known secondary causes of hypertension: renal artery stenosis, uncontrolled or untreated hyperthyroidism, uncontrolled or untreated hypothyroidism, pheochromocytoma, Cushing's syndrome, aortic coarctation.\n* NYHA functional heart failure class IV at Screening.","healthyVolunteers":false,"sex":"ALL","minimumAge":"18 Years","stdAges":["ADULT","OLDER_ADULT"]},"contactsLocationsModule":{"centralContacts":[{"name":"AstraZeneca Clinical Study Information Center","role":"CONTACT","phone":"1-877-240-9479","email":"information.center@astrazeneca.com"}],"locations":[{"facility":"Research Site","status":"RECRUITING","city":"Bahia Blanca","zip":"8000","country":"Argentina","geoPoint":{"lat":-38.71959,"lon":-62.27243}},{"facility":"Research Site","status":"RECRUITING","city":"Caba","zip":"C1426","country":"Argentina","geoPoint":{"lat":-34.61315,"lon":-58.37723}},{"facility":"Research Site","status":"RECRUITING","city":"Ciudad de Buenos Aires","zip":"C1419AHL","country":"Argentina","geoPoint":{"lat":-34.61315,"lon":-58.37723}},{"facility":"Research Site","status":"RECRUITING","city":"San Miguel de Tucuman","zip":"T4000ICL","country":"Argentina","geoPoint":{"lat":-26.82414,"lon":-65.2226}},{"facility":"Research Site","status":"RECRUITING","city":"San Nicolas de los Arroyos","zip":"B2900DPA","country":"Argentina","geoPoint":{"lat":-33.33578,"lon":-60.22523}},{"facility":"Research Site","status":"ACTIVE_NOT_RECRUITING","city":"Coffs Harbour","zip":"02450","country":"Australia","geoPoint":{"lat":-30.29626,"lon":153.11351}},{"facility":"Research Site","status":"ACTIVE_NOT_RECRUITING","city":"Gosford","zip":"2250","country":"Australia","geoPoint":{"lat":-33.4244,"lon":151.34399}},{"facility":"Research Site","status":"ACTIVE_NOT_RECRUITING","city":"Hoppers Crossing","zip":"3029","country":"Australia","geoPoint":{"lat":-37.88264,"lon":144.7003}},{"facility":"Research Site","status":"ACTIVE_NOT_RECRUITING","city":"Ipswich","zip":"4305","country":"Australia","geoPoint":{"lat":-27.61181,"lon":152.76821}},{"facility":"Research Site","status":"RECRUITING","city":"Baotou","zip":"014010","country":"China","geoPoint":{"lat":40.65222,"lon":109.82222}},{"facility":"Research Site","status":"RECRUITING","city":"Beijing","zip":"100029","country":"China","geoPoint":{"lat":39.9075,"lon":116.39723}},{"facility":"Research Site","status":"RECRUITING","city":"Beijing","zip":"100044","country":"China","geoPoint":{"lat":39.9075,"lon":116.39723}},{"facility":"Research Site","status":"RECRUITING","city":"Bengbu","zip":"233060","country":"China","geoPoint":{"lat":32.94083,"lon":117.36083}},{"facility":"Research Site","status":"RECRUITING","city":"Changde","zip":"415003","country":"China","geoPoint":{"lat":29.04638,"lon":111.6783}},{"facility":"Research Site","status":"RECRUITING","city":"Changsha","zip":"410015","country":"China","geoPoint":{"lat":28.19874,"lon":112.97087}},{"facility":"Research Site","status":"RECRUITING","city":"Changsha","zip":"430033","country":"China","geoPoint":{"lat":28.19874,"lon":112.97087}},{"facility":"Research Site","status":"RECRUITING","city":"Changzhou","zip":"272100","country":"China","geoPoint":{"lat":31.77359,"lon":119.95401}},{"facility":"Research Site","status":"RECRUITING","city":"Chengdu","zip":"610041","country":"China","geoPoint":{"lat":30.66667,"lon":104.06667}},{"facility":"Research Site","status":"RECRUITING","city":"Chongqing","zip":"400010","country":"China","geoPoint":{"lat":29.56278,"lon":106.55278}},{"facility":"Research Site","status":"RECRUITING","city":"Chongqing","zip":"400014","country":"China","geoPoint":{"lat":29.56278,"lon":106.55278}},{"facility":"Research Site","status":"RECRUITING","city":"Chongqing","zip":"400042","country":"China","geoPoint":{"lat":29.56278,"lon":106.55278}},{"facility":"Research Site","status":"RECRUITING","city":"Deyang","zip":"618000","country":"China","geoPoint":{"lat":31.13019,"lon":104.38198}},{"facility":"Research Site","status":"RECRUITING","city":"Guangzhou","zip":"510100","country":"China","geoPoint":{"lat":23.11667,"lon":113.25}},{"facility":"Research Site","status":"RECRUITING","city":"Ha'er Bin","zip":"150001","country":"China"},{"facility":"Research Site","status":"RECRUITING","city":"Hangzhou","zip":"310014","country":"China","geoPoint":{"lat":30.29365,"lon":120.16142}},{"facility":"Research Site","status":"RECRUITING","city":"Hefei","zip":"230601","country":"China","geoPoint":{"lat":31.86389,"lon":117.28083}},{"facility":"Research Site","status":"RECRUITING","city":"Heze","zip":"274099","country":"China","geoPoint":{"lat":35.23929,"lon":115.47358}},{"facility":"Research Site","status":"RECRUITING","city":"Jiujiang","zip":"332000","country":"China","geoPoint":{"lat":29.70475,"lon":116.00206}},{"facility":"Research Site","status":"RECRUITING","city":"Luoyang","zip":"471000","country":"China","geoPoint":{"lat":34.68361,"lon":112.45361}},{"facility":"Research Site","status":"RECRUITING","city":"Meihekou","zip":"135022","country":"China","geoPoint":{"lat":42.52722,"lon":125.67528}},{"facility":"Research Site","status":"RECRUITING","city":"Nanchang","zip":"330009","country":"China","geoPoint":{"lat":28.68396,"lon":115.85306}},{"facility":"Research Site","status":"RECRUITING","city":"Nanchong","zip":"637900","country":"China","geoPoint":{"lat":30.79508,"lon":106.08473}},{"facility":"Research Site","status":"RECRUITING","city":"Nanjing","zip":"210009","country":"China","geoPoint":{"lat":32.06167,"lon":118.77778}},{"facility":"Research Site","status":"WITHDRAWN","city":"Ningbo","zip":"315020","country":"China","geoPoint":{"lat":29.87819,"lon":121.54945}},{"facility":"Research Site","status":"RECRUITING","city":"Panjin","zip":"124009","country":"China","geoPoint":{"lat":41.121,"lon":122.0739}},{"facility":"Research Site","status":"RECRUITING","city":"Puyang","zip":"457000","country":"China","geoPoint":{"lat":29.45679,"lon":119.88872}},{"facility":"Research Site","status":"WITHDRAWN","city":"Qiqihar","zip":"161000","country":"China","geoPoint":{"lat":47.34088,"lon":123.96045}},{"facility":"Research Site","status":"RECRUITING","city":"Sanya","zip":"572000","country":"China","geoPoint":{"lat":18.24306,"lon":109.505}},{"facility":"Research Site","status":"RECRUITING","city":"Shanghai","zip":"200025","country":"China","geoPoint":{"lat":31.22222,"lon":121.45806}},{"facility":"Research Site","status":"RECRUITING","city":"Shanghai","zip":"200040","country":"China","geoPoint":{"lat":31.22222,"lon":121.45806}},{"facility":"Research Site","status":"RECRUITING","city":"Shenyang","zip":"110004","country":"China","geoPoint":{"lat":41.79222,"lon":123.43278}},{"facility":"Research Site","status":"RECRUITING","city":"Shenyang","zip":"110016","country":"China","geoPoint":{"lat":41.79222,"lon":123.43278}},{"facility":"Research Site","status":"RECRUITING","city":"Shenyang","zip":"110023","country":"China","geoPoint":{"lat":41.79222,"lon":123.43278}},{"facility":"Research Site","status":"ACTIVE_NOT_RECRUITING","city":"Taiyuan","zip":"030024","country":"China","geoPoint":{"lat":37.86944,"lon":112.56028}},{"facility":"Research Site","status":"RECRUITING","city":"Tianjin","zip":"300457","country":"China","geoPoint":{"lat":39.14222,"lon":117.17667}},{"facility":"Research Site","status":"RECRUITING","city":"Tianjin","country":"China","geoPoint":{"lat":39.14222,"lon":117.17667}},{"facility":"Research Site","status":"RECRUITING","city":"Wuhan","zip":"430010","country":"China","geoPoint":{"lat":30.58333,"lon":114.26667}},{"facility":"Research Site","status":"RECRUITING","city":"Wuhan","zip":"430022","country":"China","geoPoint":{"lat":30.58333,"lon":114.26667}},{"facility":"Research Site","status":"RECRUITING","city":"Wuhan","zip":"430060","country":"China","geoPoint":{"lat":30.58333,"lon":114.26667}},{"facility":"Research Site","status":"ACTIVE_NOT_RECRUITING","city":"Xianyang","zip":"712000","country":"China","geoPoint":{"lat":34.33778,"lon":108.70261}},{"facility":"Research Site","status":"ACTIVE_NOT_RECRUITING","city":"Xianyang","zip":"750004","country":"China","geoPoint":{"lat":34.33778,"lon":108.70261}},{"facility":"Research Site","status":"RECRUITING","city":"Xuzhou","zip":"221000","country":"China","geoPoint":{"lat":34.18045,"lon":117.15707}},{"facility":"Research Site","status":"RECRUITING","city":"Yangzhou","zip":"225001","country":"China","geoPoint":{"lat":32.39722,"lon":119.43583}},{"facility":"Research Site","status":"ACTIVE_NOT_RECRUITING","city":"Yinchuan","zip":"750001","country":"China","geoPoint":{"lat":38.46806,"lon":106.27306}},{"facility":"Research Site","status":"RECRUITING","city":"Zhengzhou","zip":"450052","country":"China","geoPoint":{"lat":34.75778,"lon":113.64861}},{"facility":"Research Site","status":"RECRUITING","city":"Zigong","zip":"643021","country":"China","geoPoint":{"lat":29.34162,"lon":104.77689}},{"facility":"Research Site","status":"RECRUITING","city":"Hong Kong","zip":"00000","country":"Hong Kong","geoPoint":{"lat":22.27832,"lon":114.17469}},{"facility":"Research Site","status":"RECRUITING","city":"Hong Kong","zip":"0000","country":"Hong Kong","geoPoint":{"lat":22.27832,"lon":114.17469}},{"facility":"Research Site","status":"RECRUITING","city":"Hong Kong","country":"Hong Kong","geoPoint":{"lat":22.27832,"lon":114.17469}},{"facility":"Research Site","status":"RECRUITING","city":"Bangalore","zip":"560 092","country":"India","geoPoint":{"lat":12.97194,"lon":77.59369}},{"facility":"Research Site","status":"RECRUITING","city":"Belgaum","zip":"590016","country":"India","geoPoint":{"lat":15.85212,"lon":74.50447}},{"facility":"Research Site","status":"NOT_YET_RECRUITING","city":"Kanpur","zip":"208002","country":"India","geoPoint":{"lat":26.46523,"lon":80.34975}},{"facility":"Research Site","status":"NOT_YET_RECRUITING","city":"New Delhi","zip":"110002","country":"India","geoPoint":{"lat":28.63576,"lon":77.22445}},{"facility":"Research Site","status":"NOT_YET_RECRUITING","city":"New Delhi","zip":"110060","country":"India","geoPoint":{"lat":28.63576,"lon":77.22445}},{"facility":"Research Site","status":"RECRUITING","city":"Surat","zip":"395001","country":"India","geoPoint":{"lat":21.19594,"lon":72.83023}},{"facility":"Research Site","status":"RECRUITING","city":"Chuo-ku","zip":"103-0027","country":"Japan","geoPoint":{"lat":35.57779,"lon":139.71685}},{"facility":"Research Site","status":"RECRUITING","city":"Chuo-ku","zip":"260-0804","country":"Japan","geoPoint":{"lat":35.57779,"lon":139.71685}},{"facility":"Research Site","status":"RECRUITING","city":"Hamamatsu-shi","zip":"430-0929","country":"Japan","geoPoint":{"lat":34.7,"lon":137.73333}},{"facility":"Research Site","status":"RECRUITING","city":"Kagoshima-shi","zip":"890-8520","country":"Japan","geoPoint":{"lat":31.56667,"lon":130.55}},{"facility":"Research Site","status":"RECRUITING","city":"Koga-shi","zip":"306-0232","country":"Japan","geoPoint":{"lat":33.73333,"lon":130.46667}},{"facility":"Research Site","status":"RECRUITING","city":"Meguro-ku","zip":"153-0051","country":"Japan","geoPoint":{"lat":42.12755,"lon":143.31736}},{"facility":"Research Site","status":"RECRUITING","city":"Minato-ku","zip":"108-0073","country":"Japan","geoPoint":{"lat":34.2152,"lon":135.1501}},{"facility":"Research Site","status":"RECRUITING","city":"Minokamo shi","zip":"505-8510","country":"Japan","geoPoint":{"lat":35.48199,"lon":137.02166}},{"facility":"Research Site","status":"RECRUITING","city":"Osaka-shi","zip":"530-8480","country":"Japan","geoPoint":{"lat":34.69374,"lon":135.50218}},{"facility":"Research Site","status":"RECRUITING","city":"Toshima-ku","zip":"171-0014","country":"Japan"},{"facility":"Research Site","status":"RECRUITING","city":"Tsukuba-shi","zip":"305-0861","country":"Japan","geoPoint":{"lat":36.2,"lon":140.1}},{"facility":"Research Site","status":"COMPLETED","city":"Utsunomiya-shi","zip":"320-8580","country":"Japan","geoPoint":{"lat":36.56667,"lon":139.88333}},{"facility":"Research Site","status":"RECRUITING","city":"Yokohama-shi","zip":"234-0054","country":"Japan","geoPoint":{"lat":35.43333,"lon":139.65}},{"facility":"Research Site","status":"RECRUITING","city":"Yokohama-shi","zip":"236-0004","country":"Japan","geoPoint":{"lat":35.43333,"lon":139.65}},{"facility":"Research Site","status":"RECRUITING","city":"Daejeon","zip":"35015","country":"Korea, Republic of","geoPoint":{"lat":36.32139,"lon":127.41972}},{"facility":"Research Site","status":"RECRUITING","city":"Seoul","zip":"02841","country":"Korea, Republic of","geoPoint":{"lat":37.566,"lon":126.9784}},{"facility":"Research Site","status":"RECRUITING","city":"Seoul","zip":"03722","country":"Korea, Republic of","geoPoint":{"lat":37.566,"lon":126.9784}},{"facility":"Research Site","status":"RECRUITING","city":"Seoul","zip":"04763","country":"Korea, Republic of","geoPoint":{"lat":37.566,"lon":126.9784}},{"facility":"Research Site","status":"RECRUITING","city":"Seoul","zip":"05505","country":"Korea, Republic of","geoPoint":{"lat":37.566,"lon":126.9784}},{"facility":"Research Site","status":"RECRUITING","city":"Seoul","zip":"13620","country":"Korea, Republic of","geoPoint":{"lat":37.566,"lon":126.9784}},{"facility":"Research Site","status":"RECRUITING","city":"Iloilo City","zip":"5000","country":"Philippines","geoPoint":{"lat":10.69694,"lon":122.56444}},{"facility":"Research Site","status":"RECRUITING","city":"Quezon City","zip":"1112","country":"Philippines","geoPoint":{"lat":14.6488,"lon":121.0509}},{"facility":"Research Site","status":"RECRUITING","city":"Ivanovo","zip":"153012","country":"Russian Federation","geoPoint":{"lat":56.99719,"lon":40.97139}},{"facility":"Research Site","status":"RECRUITING","city":"Moscow","zip":"111539","country":"Russian Federation","geoPoint":{"lat":55.75222,"lon":37.61556}},{"facility":"Research Site","status":"RECRUITING","city":"Moscow","zip":"119991","country":"Russian Federation","geoPoint":{"lat":55.75222,"lon":37.61556}},{"facility":"Research Site","status":"RECRUITING","city":"Moscow","zip":"121552","country":"Russian Federation","geoPoint":{"lat":55.75222,"lon":37.61556}},{"facility":"Research Site","status":"WITHDRAWN","city":"Moscow","zip":"129327","country":"Russian Federation","geoPoint":{"lat":55.75222,"lon":37.61556}},{"facility":"Research Site","status":"RECRUITING","city":"Moscow","zip":"129327","country":"Russian Federation","geoPoint":{"lat":55.75222,"lon":37.61556}},{"facility":"Research Site","status":"SUSPENDED","city":"Saint-Petersburg","zip":"194354","country":"Russian Federation","geoPoint":{"lat":59.93863,"lon":30.31413}},{"facility":"Research Site","status":"RECRUITING","city":"Saint-Petersburg","zip":"195067","country":"Russian Federation","geoPoint":{"lat":59.93863,"lon":30.31413}},{"facility":"Research Site","status":"RECRUITING","city":"St Petersburg","zip":"197341","country":"Russian Federation","geoPoint":{"lat":59.93863,"lon":30.31413}},{"facility":"Research Site","status":"WITHDRAWN","city":"Tver","zip":"170036","country":"Russian Federation","geoPoint":{"lat":56.85836,"lon":35.90057}},{"facility":"Research Site","status":"RECRUITING","city":"Ankara","zip":"06800","country":"Turkey","geoPoint":{"lat":39.91987,"lon":32.85427}},{"facility":"Research Site","status":"RECRUITING","city":"Ankara","zip":"5000","country":"Turkey","geoPoint":{"lat":39.91987,"lon":32.85427}},{"facility":"Research Site","status":"RECRUITING","city":"Edirne","zip":"22030","country":"Turkey","geoPoint":{"lat":41.67719,"lon":26.55597}},{"facility":"Research Site","status":"RECRUITING","city":"Kahramanmaras","zip":"46100","country":"Turkey","geoPoint":{"lat":37.5847,"lon":36.92641}},{"facility":"Research Site","status":"RECRUITING","city":"Karsiyaka","zip":"35575","country":"Turkey","geoPoint":{"lat":40.6936,"lon":29.94154}},{"facility":"Research Site","status":"RECRUITING","city":"Kayseri","zip":"38039","country":"Turkey","geoPoint":{"lat":38.73222,"lon":35.48528}},{"facility":"Research Site","status":"RECRUITING","city":"Kocaeli","zip":"41380","country":"Turkey","geoPoint":{"lat":39.62497,"lon":27.51145}},{"facility":"Research Site","status":"RECRUITING","city":"Mersin","zip":"33343","country":"Turkey","geoPoint":{"lat":36.79526,"lon":34.61792}},{"facility":"Research Site","status":"RECRUITING","city":"Can Tho","zip":"900000","country":"Vietnam","geoPoint":{"lat":10.03711,"lon":105.78825}},{"facility":"Research Site","status":"WITHDRAWN","city":"Da Nang","zip":"55000","country":"Vietnam","geoPoint":{"lat":16.06778,"lon":108.22083}},{"facility":"Research Site","status":"RECRUITING","city":"Hanoi","zip":"100000","country":"Vietnam","geoPoint":{"lat":21.0245,"lon":105.84117}},{"facility":"Research Site","status":"RECRUITING","city":"Ho Chi Minh","zip":"700000","country":"Vietnam","geoPoint":{"lat":10.82302,"lon":106.62965}},{"facility":"Research Site","status":"WITHDRAWN","city":"Ho Chi Minh","zip":"700000","country":"Vietnam","geoPoint":{"lat":10.82302,"lon":106.62965}},{"facility":"Research Site","status":"RECRUITING","city":"Hochiminh city","zip":"700000","country":"Vietnam","geoPoint":{"lat":10.82302,"lon":106.62965}},{"facility":"Research Site","status":"RECRUITING","city":"Hochiminh","zip":"70000","country":"Vietnam"}]},"ipdSharingStatementModule":{"ipdSharing":"YES","description":"Qualified researchers can request access to anonymized individual patient-level data from AstraZeneca group of companies sponsored clinical trials via the request portal Vivli.org. All requests will be evaluated as per the AZ disclosure commitment: https://astrazenecagrouptrials.pharmacm.com/ST/Submission/Disclosure.\"Yes\", indicates that AZ are accepting requests for IPD, but this does not mean all requests will be approved.","infoTypes":["STUDY_PROTOCOL","SAP"],"timeFrame":"AstraZeneca will meet or exceed data availability as per the commitments made to the EFPIA/PhRMA Data-Sharing Principles. For details of our timelines, please refer to our disclosure commitment at: https://astrazenecagrouptrials.pharmacm.com/ST/Submission/Disclosure.","accessCriteria":"When a request has been approved AstraZeneca will provide access to the anonymized individual patient-level data via secure research environment Vivli.org. A Signed Data Usage Agreement (non-negotiable contract for data accessors) must be in place before accessing requested information.","url":"https://vivli.org/"}},"derivedSection":{"miscInfoModule":{"versionHolder":"2025-07-07"},"conditionBrowseModule":{"meshes":[{"id":"D006973","term":"Hypertension"}],"ancestors":[{"id":"D014652","term":"Vascular Diseases"},{"id":"D002318","term":"Cardiovascular Diseases"}],"browseLeaves":[{"id":"M10024","name":"Hypertension","asFound":"Hypertension","relevance":"HIGH"},{"id":"M17400","name":"Vascular Diseases","relevance":"LOW"}],"browseBranches":[{"abbrev":"BC14","name":"Heart and Blood Diseases"},{"abbrev":"All","name":"All Conditions"}]}},"hasResults":false}