{"protocolSection":{"identificationModule":{"nctId":"NCT06742723","orgStudyIdInfo":{"id":"D6972C00002"},"secondaryIdInfos":[{"id":"2023-506460-14-00","type":"REGISTRY","domain":"EU CT number"}],"organization":{"fullName":"AstraZeneca","class":"INDUSTRY"},"briefTitle":"A Phase III Renal Outcomes and Cardiovascular Mortality Study to Investigate the Efficacy and Safety of Baxdrostat in Combination With Dapagliflozin in Participants With Chronic Kidney Disease and High Blood Pressure","officialTitle":"A Phase III, Randomised, Double-blind, Placebo-controlled, Event-driven Study to Assess the Efficacy, Safety and Tolerability of Baxdrostat in Combination With Dapagliflozin Compared With Dapagliflozin Alone on Renal Outcomes and Cardiovascular Mortality in Participants With Chronic Kidney Disease and High Blood Pressure","acronym":"BaxDuo-Pacific"},"statusModule":{"statusVerifiedDate":"2025-06","overallStatus":"RECRUITING","expandedAccessInfo":{"hasExpandedAccess":false},"startDateStruct":{"date":"2025-03-03","type":"ACTUAL"},"primaryCompletionDateStruct":{"date":"2030-04-18","type":"ESTIMATED"},"completionDateStruct":{"date":"2030-04-18","type":"ESTIMATED"},"studyFirstSubmitDate":"2024-12-16","studyFirstSubmitQcDate":"2024-12-16","studyFirstPostDateStruct":{"date":"2024-12-19","type":"ACTUAL"},"lastUpdateSubmitDate":"2025-07-01","lastUpdatePostDateStruct":{"date":"2025-07-02","type":"ACTUAL"}},"sponsorCollaboratorsModule":{"responsibleParty":{"type":"SPONSOR"},"leadSponsor":{"name":"AstraZeneca","class":"INDUSTRY"}},"oversightModule":{"oversightHasDmc":true,"isFdaRegulatedDrug":true,"isFdaRegulatedDevice":false},"descriptionModule":{"briefSummary":"International, Multicenter, Double-Blind, Placebo-Controlled and Event-driven study to assess efficacy, safety and Tolerability of Baxdrostat in combination with Dapagliflozin on renal outcomes and cardiovascular mortality in participants with chronic kidney disease and high blood pressure","detailedDescription":"The purpose of this study is to investigate the efficacy, safety, and tolerability of baxdrostat in combination with dapagliflozin, compared with placebo and dapagliflozin, in reducing the risk of the composite of \\> 50% decline in eGFR, kidney failure, or CV death, in individuals with CKD and HTN.\n\nThis study consists of a 4-week dapagliflozin Run-in Period for participants untreated with SGLT2i at screening, and a double-blinded period where participants will receive either baxdrostat/dapagliflozin or placebo/dapagliflozin.\n\nSite visits will take place at 2-, 4-, 8-, 16-, 34, and 52-weeks following randomisation. Thereafter visits will occur approximately every 4 months.\n\nThe study closure procedures will be initiated when the predetermined number of primary endpoint events is predicted to have occurred ie, the PACD. All randomised participants including any participants who have prematurely discontinued study intervention will be scheduled for a SCV within a few weeks of the PACD. This period can be extended by the Sponsor.\n\nIn case of premature discontinuation of blinded study intervention, participants will continue in the study and receive dapagliflozin 10 mg, unless the participant meets dapagliflozin specific discontinuation criteria. If study intervention is temporarily or permanently discontinued, the participant should remain in the study, and it is important that the scheduled study visits (including the PTDV for participants with permanent discontinuation of study intervention) and data collection continue according to the study protocol until the SCV."},"conditionsModule":{"conditions":["Chronic Kidney Disease and Hypertension"],"keywords":["Chronic kidney disease","Hypertension","Blood pressure","Baxdrostat","Dapagliflozin","Event-Driven","Outcome"]},"designModule":{"studyType":"INTERVENTIONAL","phases":["PHASE3"],"designInfo":{"allocation":"RANDOMIZED","interventionModel":"PARALLEL","interventionModelDescription":"International, multi-centre, randomised, double-blind, parallel-group, active-controlled, event-driven, outcome","primaryPurpose":"TREATMENT","maskingInfo":{"masking":"QUADRUPLE","maskingDescription":"Placebo controlled","whoMasked":["PARTICIPANT","CARE_PROVIDER","INVESTIGATOR","OUTCOMES_ASSESSOR"]}},"enrollmentInfo":{"count":5000,"type":"ESTIMATED"}},"armsInterventionsModule":{"armGroups":[{"label":"Baxdrostat/dapagliflozin","type":"EXPERIMENTAL","description":"Participants randomised to the baxdrostat/dapagliflozin arm will initially receive a lower dose of baxdrostat and standard dose dapagliflozin. For participants that meet the up-titration criteria, baxdrostat may be up-titrated to higher dose.","interventionNames":["Drug: Baxdrostat/dapagliflozin"]},{"label":"Placebo/dapagliflozin","type":"PLACEBO_COMPARATOR","description":"Patients will receive one dose of dapagliflozin comparator in combination with matching placebo daily.","interventionNames":["Drug: Placebo/dapagliflozin"]}],"interventions":[{"type":"DRUG","name":"Baxdrostat/dapagliflozin","description":"baxdrostat tablet\n\ndapagliflozin tablet","armGroupLabels":["Baxdrostat/dapagliflozin"],"otherNames":["Baxdrostat CIN-107"]},{"type":"DRUG","name":"Placebo/dapagliflozin","description":"dapagliflozin tablet\n\nplacebo tablet","armGroupLabels":["Placebo/dapagliflozin"]}]},"outcomesModule":{"primaryOutcomes":[{"measure":"To determine whether baxdrostat/dapagliflozin is superior to placebo/dapagliflozin in reducing the risk of the composite endpoint of ≥ 50% sustained decline in eGFR (estimated glomerular filtration rate)","description":"Time to the first occurrence of any of the components of the composite of ≥ 50% sustained decline in eGFR (estimated glomerular filtration rate).","timeFrame":"Up to 41 months"},{"measure":"To determine whether baxdrostat/dapagliflozin is superior to placebo/dapagliflozin in reducing the risk of the composite endpoint of kidney failure","description":"Time to the first occurrence of any of the components of the composite of:\n\n• Onset of kidney failure:\n\n* Sustained eGFR \\< 15 mL/min/1.73 m2 or\n* Chronic dialysis treatment or\n* Receiving a kidney transplant or\n* Death with a renal primary cause (death due to kidney failure when dialysis is not given)","timeFrame":"Up to 41 months"},{"measure":"To determine whether baxdrostat/dapagliflozin is superior to placebo/dapagliflozin in reducing the risk of the composite endpoint of CV (cardiovascular) death.","description":"Time to the first occurrence of any of the components of the composite of CV (cardiovascular) death","timeFrame":"Up to 41 months"}],"secondaryOutcomes":[{"measure":"To determine whether baxdrostat/dapagliflozin is superior to placebo/dapagliflozin at reducing UACR (urine albumin-creatinine ratio).","description":"Change from baseline in UACR (urine albumin-creatinine ratio).","timeFrame":"Baseline- 16 weeks"},{"measure":"To determine whether baxdrostat/dapagliflozin is superior to placebo/dapagliflozin at reducing SBP (systolic blood pressure).","description":"Change from baseline in mean systolic BP (blood pressure).","timeFrame":"Baseline- 16 weeks"},{"measure":"To determine whether baxdrostat/dapagliflozin is superior to placebo/dapagliflozin in reducing the risk of MACE (Major Adverse Cardiac Events).","description":"Time to the first occurrence of any of the components of the composite of: CV (cardiovascular) death, HF (heart failure) with and without hospitalization, Myocardial Infraction, Stroke","timeFrame":"Up to 41 months"},{"measure":"To determine whether baxdrostat/dapagliflozin is superior to placebo/dapagliflozin in reducing the risk of CV death.","description":"Time to CV death","timeFrame":"Up to 41 months"},{"measure":"To determine whether baxdrostat/dapagliflozin is superior to placebo/dapagliflozin in reducing the risk of all-cause death.","description":"Time to death","timeFrame":"Up to 41 months"}],"otherOutcomes":[{"measure":"To assess the safety and tolerability of baxdrostat/dapagliflozin compared with placebo/dapagliflozin.","description":"Safety and tolerability will be evaluated in terms of the following endpoints:\n\n* Occurrence and time to first occurrence of AEs, SAEs, SAEs with outcome death, DAEs, possibly related AEs as assessed by Investigator.\n* Observed values, change from baseline and time to first treatment-emergent abnormality in laboratory parameters.\n* Observed values, change from baseline and time to first treatment-emergent abnormality in vital signs, ECG.\n* Occurrence and time to first occurrence of AESIs: hyperkalaemia, hyponatraemia, and hypotension events that require medical intervention.","timeFrame":"Up to 41 months"}]},"eligibilityModule":{"eligibilityCriteria":"Inclusion Criteria:\n\n1. Participants of any sex and gender must be ≥ 18 years of age at the time of signing the informed consent.\n2. Participants with:\n\n   1. eGFR ≥ 30 and \\< 60 mL/min/1.73 m2 (local or central laboratory values) AND UACR ≥ 30 mg/g (3.39 mg/mmol) and \\< 500 mg/g (56.5 mg/mmol) (central laboratory values only), or\n   2. eGFR ≥ 30 and ≤ 75 mL/min/1.73 m2 (local or central laboratory values) AND UACR ≥ 500 mg/g (56.5 mg/mmol) and ≤ 5000 mg/g (565 mg/mmol) or UPCR ≥ 700 mg/g (79 mg/mmol) and ≤ 7000 mg/g (790 mg/mmol) (local or central laboratory values).\n3. \\[obsolete\\]\n4. Participants with history of HTN and a SBP ≥ 130 mmHg (the most recent value within 4 weeks prior to screening or at the Screening Visit) and ≥ 120 mmHg at the Randomisation Visit.\n5. Stable and maximum tolerated dose of an ACEi or an ARB (not both) for at least 4 weeks prior to Screening Visit.\n6. Participants with:\n\n   1. Serum or plasma potassium ≥ 3.0 and ≤ 4.8 mmol/L if eGFR ≥ 45 mL/min/1.73 m2 (local or central laboratory values).\n   2. Serum or plasma potassium ≥ 3.0 and ≤ 4.5 mmol/L if eGFR \\< 45 mL/min/1.73 m2 (local or central laboratory values).\n\nExclusion Criteria:\n\n1. Systolic blood pressure \\> 180 mmHg, or diastolic BP \\> 110 mmHg at screening.\n2. Known hyperkalaemia, defined as potassium of ≥ 5.5 mmol/L within 3 months prior to screening.\n3. Serum sodium \\< 135 mmol/L (central or local laboratory values obtained within 4 weeks prior to screening or at the Screening Visit).\n\n4. T1DM:\n\n1. For US only: patients with T1DM treated with SGLT2i for at least 4 months, without DKA during that period, and who have experience with ketone monitoring are eligible for inclusion.\n2. For Japan only: patients with T1DM treated with dapagliflozin 10 mg for at least 4 months, without DKA during the period of dapagliflozin treatment are eligible for inclusion.\n\n   5 Uncontrolled T2DM with HbA1c \\> 10.5% (\\> 91 mmol/mol) (central or local laboratory values obtained within 3 months prior to screening or at the Screening Visit).\n\n   6 New York Heart Association functional HF class IV at screening.\n\n   7 Stroke, transient ischaemic cerebral attack, valve implantation or valve replacement, carotid surgery, or carotid angioplasty, acute coronary syndrome, or hospitalisation for worsening heart failure within previous 3 months prior to randomisation.\n\n   8 Documented history of adrenal insufficiency.\n\n   9 Any dialysis (including for acute kidney injury) within 3 months prior to Screening Visit.\n\n   10 Any acute kidney injury within 3 months prior to the Screening Visit.\n\n   11 History of organ transplant or bone marrow transplant, or planned organ transplant within 6 months following randomisation (including kidney transplant).\n\n   12 Any clinical condition requiring systemic immunosuppression therapy other than maintenance therapy (stable for at least 3 months prior to Visit 1).","healthyVolunteers":false,"sex":"ALL","minimumAge":"18 Years","maximumAge":"130 Years","stdAges":["ADULT","OLDER_ADULT"]},"contactsLocationsModule":{"centralContacts":[{"name":"AstraZeneca Clinical Study Information Center","role":"CONTACT","phone":"1-877-240-9479","email":"information.center@astrazeneca.com"}],"locations":[{"facility":"Research Site","status":"RECRUITING","city":"Fairhope","state":"Alabama","zip":"36532","country":"United States","geoPoint":{"lat":30.52297,"lon":-87.90333}},{"facility":"Research Site","status":"RECRUITING","city":"Surprise","state":"Arizona","zip":"85374","country":"United States","geoPoint":{"lat":33.63059,"lon":-112.33322}},{"facility":"Research Site","status":"NOT_YET_RECRUITING","city":"Tucson","state":"Arizona","zip":"85710","country":"United States","geoPoint":{"lat":32.22174,"lon":-110.92648}},{"facility":"Research Site","status":"NOT_YET_RECRUITING","city":"Beverly Hills","state":"California","zip":"90211","country":"United States","geoPoint":{"lat":34.07362,"lon":-118.40036}},{"facility":"Research Site","status":"NOT_YET_RECRUITING","city":"Canoga Park","state":"California","zip":"91303","country":"United States","geoPoint":{"lat":34.20112,"lon":-118.59814}},{"facility":"Research Site","status":"RECRUITING","city":"Fremont","state":"California","zip":"94538","country":"United States","geoPoint":{"lat":37.54827,"lon":-121.98857}},{"facility":"Research Site","status":"RECRUITING","city":"Fullerton","state":"California","zip":"92835","country":"United States","geoPoint":{"lat":33.87029,"lon":-117.92534}},{"facility":"Research Site","status":"NOT_YET_RECRUITING","city":"Inglewood","state":"California","zip":"90301","country":"United States","geoPoint":{"lat":33.96168,"lon":-118.35313}},{"facility":"Research Site","status":"RECRUITING","city":"Los Alamitos","state":"California","zip":"90720","country":"United States","geoPoint":{"lat":33.80307,"lon":-118.07256}},{"facility":"Research Site","status":"NOT_YET_RECRUITING","city":"Los Angeles","state":"California","zip":"90073","country":"United States","geoPoint":{"lat":34.05223,"lon":-118.24368}},{"facility":"Research Site","status":"NOT_YET_RECRUITING","city":"San Diego","state":"California","zip":"92120","country":"United States","geoPoint":{"lat":32.71533,"lon":-117.15726}},{"facility":"Research Site","status":"NOT_YET_RECRUITING","city":"San Francisco","state":"California","zip":"94110","country":"United States","geoPoint":{"lat":37.77493,"lon":-122.41942}},{"facility":"Research Site","status":"NOT_YET_RECRUITING","city":"Stanford","state":"California","zip":"94305","country":"United States","geoPoint":{"lat":37.42411,"lon":-122.16608}},{"facility":"Research Site","status":"RECRUITING","city":"Tarzana","state":"California","zip":"91356","country":"United States","geoPoint":{"lat":34.17334,"lon":-118.55397}},{"facility":"Research Site","status":"NOT_YET_RECRUITING","city":"Arvada","state":"Colorado","zip":"80002","country":"United States","geoPoint":{"lat":39.80276,"lon":-105.08748}},{"facility":"Research Site","status":"WITHDRAWN","city":"Denver","state":"Colorado","zip":"80220","country":"United States","geoPoint":{"lat":39.73915,"lon":-104.9847}},{"facility":"Research Site","status":"RECRUITING","city":"New Britain","state":"Connecticut","zip":"06051","country":"United States","geoPoint":{"lat":41.66121,"lon":-72.77954}},{"facility":"Research Site","status":"NOT_YET_RECRUITING","city":"Washington","state":"District of Columbia","zip":"20037","country":"United States","geoPoint":{"lat":38.89511,"lon":-77.03637}},{"facility":"Research Site","status":"RECRUITING","city":"Boca Raton","state":"Florida","zip":"33487","country":"United States","geoPoint":{"lat":26.3669,"lon":-80.13033}},{"facility":"Research Site","status":"RECRUITING","city":"Boynton Beach","state":"Florida","zip":"33435","country":"United States","geoPoint":{"lat":26.52535,"lon":-80.06643}},{"facility":"Research Site","status":"RECRUITING","city":"Edgewater","state":"Florida","zip":"32132","country":"United States","geoPoint":{"lat":28.98888,"lon":-80.90228}},{"facility":"Research Site","status":"RECRUITING","city":"Fort Lauderdale","state":"Florida","zip":"33316","country":"United States","geoPoint":{"lat":26.12231,"lon":-80.14338}},{"facility":"Research Site","status":"RECRUITING","city":"Hollywood","state":"Florida","zip":"33021","country":"United States","geoPoint":{"lat":26.0112,"lon":-80.14949}},{"facility":"Research Site","status":"RECRUITING","city":"Jacksonville Beach","state":"Florida","zip":"32250","country":"United States","geoPoint":{"lat":30.29469,"lon":-81.39314}},{"facility":"Research Site","status":"RECRUITING","city":"Lake City","state":"Florida","zip":"32055","country":"United States","geoPoint":{"lat":30.18968,"lon":-82.63929}},{"facility":"Research Site","status":"RECRUITING","city":"Melbourne","state":"Florida","zip":"32901","country":"United States","geoPoint":{"lat":28.08363,"lon":-80.60811}},{"facility":"Research Site","status":"RECRUITING","city":"Miami Lakes","state":"Florida","zip":"33014","country":"United States","geoPoint":{"lat":25.90871,"lon":-80.30866}},{"facility":"Research Site","status":"RECRUITING","city":"Ocoee","state":"Florida","zip":"34761","country":"United States","geoPoint":{"lat":28.56917,"lon":-81.54396}},{"facility":"Research Site","status":"RECRUITING","city":"Port Charlotte","state":"Florida","zip":"33952","country":"United States","geoPoint":{"lat":26.97617,"lon":-82.09064}},{"facility":"Research Site","status":"RECRUITING","city":"Port Orange","state":"Florida","zip":"32127","country":"United States","geoPoint":{"lat":29.13832,"lon":-80.99561}},{"facility":"Research Site","status":"RECRUITING","city":"Riverview","state":"Florida","zip":"33578","country":"United States","geoPoint":{"lat":27.86614,"lon":-82.32648}},{"facility":"Research Site","status":"NOT_YET_RECRUITING","city":"Winter Haven","state":"Florida","zip":"33880","country":"United States","geoPoint":{"lat":28.02224,"lon":-81.73286}},{"facility":"Research Site","status":"NOT_YET_RECRUITING","city":"Atlanta","state":"Georgia","zip":"30328","country":"United States","geoPoint":{"lat":33.749,"lon":-84.38798}},{"facility":"Research Site","status":"RECRUITING","city":"Atlanta","state":"Georgia","zip":"30344","country":"United States","geoPoint":{"lat":33.749,"lon":-84.38798}},{"facility":"Research Site","status":"WITHDRAWN","city":"Augusta","state":"Georgia","zip":"30904","country":"United States","geoPoint":{"lat":33.47097,"lon":-81.97484}},{"facility":"Research Site","status":"NOT_YET_RECRUITING","city":"Austell","state":"Georgia","zip":"30106","country":"United States","geoPoint":{"lat":33.81261,"lon":-84.63438}},{"facility":"Research Site","status":"RECRUITING","city":"Brunswick","state":"Georgia","zip":"31520","country":"United States","geoPoint":{"lat":31.14995,"lon":-81.49149}},{"facility":"Research Site","status":"RECRUITING","city":"Conyers","state":"Georgia","zip":"30094","country":"United States","geoPoint":{"lat":33.66761,"lon":-84.01769}},{"facility":"Research Site","status":"NOT_YET_RECRUITING","city":"Riverdale","state":"Georgia","zip":"30274","country":"United States","geoPoint":{"lat":33.57261,"lon":-84.41326}},{"facility":"Research Site","status":"RECRUITING","city":"Honolulu","state":"Hawaii","zip":"96814","country":"United States","geoPoint":{"lat":21.30694,"lon":-157.85833}},{"facility":"Research Site","status":"RECRUITING","city":"Champaign","state":"Illinois","zip":"61822","country":"United States","geoPoint":{"lat":40.11642,"lon":-88.24338}},{"facility":"Research Site","status":"NOT_YET_RECRUITING","city":"Maywood","state":"Illinois","zip":"60153","country":"United States","geoPoint":{"lat":41.8792,"lon":-87.84312}},{"facility":"Research Site","status":"RECRUITING","city":"Rockford","state":"Illinois","zip":"61107","country":"United States","geoPoint":{"lat":42.27113,"lon":-89.094}},{"facility":"Research Site","status":"WITHDRAWN","city":"Evansville","state":"Indiana","zip":"47714","country":"United States","geoPoint":{"lat":37.97476,"lon":-87.55585}},{"facility":"Research Site","status":"NOT_YET_RECRUITING","city":"Indianapolis","state":"Indiana","zip":"46202","country":"United States","geoPoint":{"lat":39.76838,"lon":-86.15804}},{"facility":"Research Site","status":"NOT_YET_RECRUITING","city":"Iowa City","state":"Iowa","zip":"52242","country":"United States","geoPoint":{"lat":41.66113,"lon":-91.53017}},{"facility":"Research Site","status":"RECRUITING","city":"West Des Moines","state":"Iowa","zip":"50266","country":"United States","geoPoint":{"lat":41.57721,"lon":-93.71133}},{"facility":"Research Site","status":"RECRUITING","city":"Hutchinson","state":"Kansas","zip":"67502","country":"United States","geoPoint":{"lat":38.06084,"lon":-97.92977}},{"facility":"Research Site","status":"SUSPENDED","city":"Kansas City","state":"Kansas","zip":"66112","country":"United States","geoPoint":{"lat":39.11417,"lon":-94.62746}},{"facility":"Research Site","status":"RECRUITING","city":"Wichita","state":"Kansas","zip":"67214","country":"United States","geoPoint":{"lat":37.69224,"lon":-97.33754}},{"facility":"Research Site","status":"NOT_YET_RECRUITING","city":"Kenner","state":"Louisiana","zip":"70065","country":"United States","geoPoint":{"lat":29.99409,"lon":-90.24174}},{"facility":"Research Site","status":"RECRUITING","city":"Metairie","state":"Louisiana","zip":"70006","country":"United States","geoPoint":{"lat":29.98409,"lon":-90.15285}},{"facility":"Research Site","status":"RECRUITING","city":"West Monroe","state":"Louisiana","zip":"71291","country":"United States","geoPoint":{"lat":32.51848,"lon":-92.14764}},{"facility":"Research Site","status":"NOT_YET_RECRUITING","city":"Bethesda","state":"Maryland","zip":"20889","country":"United States","geoPoint":{"lat":38.98067,"lon":-77.10026}},{"facility":"Research Site","status":"WITHDRAWN","city":"Boston","state":"Massachusetts","zip":"02114","country":"United States","geoPoint":{"lat":42.35843,"lon":-71.05977}},{"facility":"Research Site","status":"NOT_YET_RECRUITING","city":"Boston","state":"Massachusetts","zip":"02115","country":"United States","geoPoint":{"lat":42.35843,"lon":-71.05977}},{"facility":"Research Site","status":"RECRUITING","city":"New Bedford","state":"Massachusetts","zip":"02740","country":"United States","geoPoint":{"lat":41.63622,"lon":-70.93421}},{"facility":"Research Site","status":"NOT_YET_RECRUITING","city":"Ann Arbor","state":"Michigan","zip":"48109","country":"United States","geoPoint":{"lat":42.27756,"lon":-83.74088}},{"facility":"Research Site","status":"NOT_YET_RECRUITING","city":"Detroit","state":"Michigan","zip":"48202","country":"United States","geoPoint":{"lat":42.33143,"lon":-83.04575}},{"facility":"Research Site","status":"RECRUITING","city":"Garden City","state":"Michigan","zip":"48135","country":"United States","geoPoint":{"lat":42.32559,"lon":-83.33104}},{"facility":"Research Site","status":"RECRUITING","city":"Saint Joseph","state":"Michigan","zip":"49085","country":"United States","geoPoint":{"lat":42.10976,"lon":-86.48002}},{"facility":"Research Site","status":"NOT_YET_RECRUITING","city":"Kansas City","state":"Missouri","zip":"64111","country":"United States","geoPoint":{"lat":39.09973,"lon":-94.57857}},{"facility":"Research Site","status":"RECRUITING","city":"Kansas City","state":"Missouri","zip":"64151","country":"United States","geoPoint":{"lat":39.09973,"lon":-94.57857}},{"facility":"Research Site","status":"NOT_YET_RECRUITING","city":"Saint Louis","state":"Missouri","zip":"63136","country":"United States","geoPoint":{"lat":38.62727,"lon":-90.19789}},{"facility":"Research Site","status":"NOT_YET_RECRUITING","city":"Norfolk","state":"Nebraska","zip":"68701","country":"United States","geoPoint":{"lat":42.02834,"lon":-97.417}},{"facility":"Research Site","status":"WITHDRAWN","city":"Las Vegas","state":"Nevada","zip":"89109","country":"United States","geoPoint":{"lat":36.17497,"lon":-115.13722}},{"facility":"Research Site","status":"RECRUITING","city":"Eatontown","state":"New Jersey","zip":"07724","country":"United States","geoPoint":{"lat":40.29622,"lon":-74.05097}},{"facility":"Research Site","status":"NOT_YET_RECRUITING","city":"Albany","state":"New York","zip":"12205","country":"United States","geoPoint":{"lat":42.65258,"lon":-73.75623}},{"facility":"Research Site","status":"NOT_YET_RECRUITING","city":"New York","state":"New York","zip":"10016","country":"United States","geoPoint":{"lat":40.71427,"lon":-74.00597}},{"facility":"Research Site","status":"RECRUITING","city":"Greenville","state":"North Carolina","zip":"27834","country":"United States","geoPoint":{"lat":35.61266,"lon":-77.36635}},{"facility":"Research Site","status":"NOT_YET_RECRUITING","city":"Greenville","state":"North Carolina","zip":"27834","country":"United States","geoPoint":{"lat":35.61266,"lon":-77.36635}},{"facility":"Research Site","status":"RECRUITING","city":"Hickory","state":"North Carolina","zip":"28601","country":"United States","geoPoint":{"lat":35.73319,"lon":-81.3412}},{"facility":"Research Site","status":"RECRUITING","city":"Jacksonville","state":"North Carolina","zip":"28546","country":"United States","geoPoint":{"lat":34.75405,"lon":-77.43024}},{"facility":"Research Site","status":"RECRUITING","city":"Kinston","state":"North Carolina","zip":"28504","country":"United States","geoPoint":{"lat":35.26266,"lon":-77.58164}},{"facility":"Research Site","status":"RECRUITING","city":"Morehead City","state":"North Carolina","zip":"28557","country":"United States","geoPoint":{"lat":34.72294,"lon":-76.72604}},{"facility":"Research Site","status":"RECRUITING","city":"New Bern","state":"North Carolina","zip":"28562","country":"United States","geoPoint":{"lat":35.10849,"lon":-77.04411}},{"facility":"Research Site","status":"NOT_YET_RECRUITING","city":"Raleigh","state":"North Carolina","zip":"27609","country":"United States","geoPoint":{"lat":35.7721,"lon":-78.63861}},{"facility":"Research Site","status":"RECRUITING","city":"Rocky Mount","state":"North Carolina","zip":"27804","country":"United States","geoPoint":{"lat":35.93821,"lon":-77.79053}},{"facility":"Research Site","status":"RECRUITING","city":"Sanford","state":"North Carolina","zip":"27330","country":"United States","geoPoint":{"lat":35.47988,"lon":-79.1803}},{"facility":"Research Site","status":"RECRUITING","city":"Statesville","state":"North Carolina","zip":"28625","country":"United States","geoPoint":{"lat":35.78264,"lon":-80.8873}},{"facility":"Research Site","status":"RECRUITING","city":"Wilmington","state":"North Carolina","zip":"28401","country":"United States","geoPoint":{"lat":34.22573,"lon":-77.94471}},{"facility":"Research Site","status":"RECRUITING","city":"Wilmington","state":"North Carolina","zip":"28412","country":"United States","geoPoint":{"lat":34.22573,"lon":-77.94471}},{"facility":"Research Site","status":"NOT_YET_RECRUITING","city":"Winston-Salem","state":"North Carolina","zip":"27103","country":"United States","geoPoint":{"lat":36.09986,"lon":-80.24422}},{"facility":"Research Site","status":"RECRUITING","city":"Canton","state":"Ohio","zip":"44718","country":"United States","geoPoint":{"lat":40.79895,"lon":-81.37845}},{"facility":"Research Site","status":"NOT_YET_RECRUITING","city":"Cincinnati","state":"Ohio","zip":"45212","country":"United States","geoPoint":{"lat":39.12713,"lon":-84.51435}},{"facility":"Research Site","status":"NOT_YET_RECRUITING","city":"Cincinnati","state":"Ohio","zip":"45219","country":"United States","geoPoint":{"lat":39.12713,"lon":-84.51435}},{"facility":"Research Site","status":"NOT_YET_RECRUITING","city":"Columbus","state":"Ohio","zip":"43210","country":"United States","geoPoint":{"lat":39.96118,"lon":-82.99879}},{"facility":"Research Site","status":"RECRUITING","city":"Columbus","state":"Ohio","zip":"43213","country":"United States","geoPoint":{"lat":39.96118,"lon":-82.99879}},{"facility":"Research Site","status":"RECRUITING","city":"Columbus","state":"Ohio","zip":"43215","country":"United States","geoPoint":{"lat":39.96118,"lon":-82.99879}},{"facility":"Research Site","status":"RECRUITING","city":"Chester","state":"Pennsylvania","zip":"19013","country":"United States","geoPoint":{"lat":39.84967,"lon":-75.35707}},{"facility":"Research Site","status":"NOT_YET_RECRUITING","city":"Exton","state":"Pennsylvania","zip":"19341","country":"United States","geoPoint":{"lat":40.029,"lon":-75.62077}},{"facility":"Research Site","status":"RECRUITING","city":"East Providence","state":"Rhode Island","zip":"02914","country":"United States","geoPoint":{"lat":41.81371,"lon":-71.37005}},{"facility":"Research Site","status":"NOT_YET_RECRUITING","city":"East Providence","state":"Rhode Island","zip":"02915","country":"United States","geoPoint":{"lat":41.81371,"lon":-71.37005}},{"facility":"Research Site","status":"RECRUITING","city":"Providence","state":"Rhode Island","zip":"02904","country":"United States","geoPoint":{"lat":41.82399,"lon":-71.41283}},{"facility":"Research Site","status":"NOT_YET_RECRUITING","city":"Charleston","state":"South Carolina","zip":"29414","country":"United States","geoPoint":{"lat":32.77657,"lon":-79.93092}},{"facility":"Research Site","status":"RECRUITING","city":"Columbia","state":"South Carolina","zip":"29203","country":"United States","geoPoint":{"lat":34.00071,"lon":-81.03481}},{"facility":"Research Site","status":"NOT_YET_RECRUITING","city":"Chattanooga","state":"Tennessee","zip":"37421","country":"United States","geoPoint":{"lat":35.04563,"lon":-85.30968}},{"facility":"Research Site","status":"RECRUITING","city":"Knoxville","state":"Tennessee","zip":"37912","country":"United States","geoPoint":{"lat":35.96064,"lon":-83.92074}},{"facility":"Research Site","status":"RECRUITING","city":"Knoxville","state":"Tennessee","zip":"37938","country":"United States","geoPoint":{"lat":35.96064,"lon":-83.92074}},{"facility":"Research Site","status":"NOT_YET_RECRUITING","city":"Nashville","state":"Tennessee","zip":"37232","country":"United States","geoPoint":{"lat":36.16589,"lon":-86.78444}},{"facility":"Research Site","status":"RECRUITING","city":"Arlington","state":"Texas","zip":"76015","country":"United States","geoPoint":{"lat":32.73569,"lon":-97.10807}},{"facility":"Research Site","status":"RECRUITING","city":"Austin","state":"Texas","zip":"78726","country":"United States","geoPoint":{"lat":30.26715,"lon":-97.74306}},{"facility":"Research Site","status":"RECRUITING","city":"Austin","state":"Texas","zip":"78735","country":"United States","geoPoint":{"lat":30.26715,"lon":-97.74306}},{"facility":"Research Site","status":"NOT_YET_RECRUITING","city":"Dallas","state":"Texas","zip":"75230","country":"United States","geoPoint":{"lat":32.78306,"lon":-96.80667}},{"facility":"Research Site","status":"NOT_YET_RECRUITING","city":"Dallas","state":"Texas","zip":"75234","country":"United States","geoPoint":{"lat":32.78306,"lon":-96.80667}},{"facility":"Research Site","status":"NOT_YET_RECRUITING","city":"Dallas","state":"Texas","zip":"75246","country":"United States","geoPoint":{"lat":32.78306,"lon":-96.80667}},{"facility":"Research Site","status":"RECRUITING","city":"Houston","state":"Texas","zip":"77004","country":"United States","geoPoint":{"lat":29.76328,"lon":-95.36327}},{"facility":"Research Site","status":"NOT_YET_RECRUITING","city":"Houston","state":"Texas","zip":"77099","country":"United States","geoPoint":{"lat":29.76328,"lon":-95.36327}},{"facility":"Research Site","status":"RECRUITING","city":"Humble","state":"Texas","zip":"77346","country":"United States","geoPoint":{"lat":29.99883,"lon":-95.26216}},{"facility":"Research Site","status":"RECRUITING","city":"Lewisville","state":"Texas","zip":"75057","country":"United States","geoPoint":{"lat":33.04623,"lon":-96.99417}},{"facility":"Research Site","status":"RECRUITING","city":"Pasadena","state":"Texas","zip":"77504","country":"United States","geoPoint":{"lat":29.69106,"lon":-95.2091}},{"facility":"Research Site","status":"RECRUITING","city":"Pearland","state":"Texas","zip":"77584","country":"United States","geoPoint":{"lat":29.56357,"lon":-95.28605}},{"facility":"Research Site","status":"RECRUITING","city":"San Antonio","state":"Texas","zip":"78212","country":"United States","geoPoint":{"lat":29.42412,"lon":-98.49363}},{"facility":"Research Site","status":"RECRUITING","city":"Salt Lake City","state":"Utah","zip":"84115","country":"United States","geoPoint":{"lat":40.76078,"lon":-111.89105}},{"facility":"Research Site","status":"NOT_YET_RECRUITING","city":"Burlington","state":"Vermont","zip":"05401","country":"United States","geoPoint":{"lat":44.47588,"lon":-73.21207}},{"facility":"Research Site","status":"RECRUITING","city":"Arlington","state":"Virginia","zip":"22205","country":"United States","geoPoint":{"lat":38.88101,"lon":-77.10428}},{"facility":"Research Site","status":"RECRUITING","city":"Manassas","state":"Virginia","zip":"20110","country":"United States","geoPoint":{"lat":38.75095,"lon":-77.47527}},{"facility":"Research Site","status":"RECRUITING","city":"Newport News","state":"Virginia","zip":"23606","country":"United States","geoPoint":{"lat":37.08339,"lon":-76.46965}},{"facility":"Research Site","status":"NOT_YET_RECRUITING","city":"Richmond","state":"Virginia","zip":"23249","country":"United States","geoPoint":{"lat":37.55376,"lon":-77.46026}},{"facility":"Research Site","status":"RECRUITING","city":"Woodbridge","state":"Virginia","zip":"22192","country":"United States","geoPoint":{"lat":38.65817,"lon":-77.2497}},{"facility":"Research Site","status":"NOT_YET_RECRUITING","city":"Seattle","state":"Washington","zip":"98195","country":"United States","geoPoint":{"lat":47.60621,"lon":-122.33207}},{"facility":"Research Site","status":"RECRUITING","city":"Buenos Aires","zip":"C1425AGC","country":"Argentina","geoPoint":{"lat":-34.61315,"lon":-58.37723}},{"facility":"Research Site","status":"WITHDRAWN","city":"Caba","zip":"C1426","country":"Argentina","geoPoint":{"lat":-34.61315,"lon":-58.37723}},{"facility":"Research Site","status":"RECRUITING","city":"Caba","zip":"C1426","country":"Argentina","geoPoint":{"lat":-34.61315,"lon":-58.37723}},{"facility":"Research Site","status":"RECRUITING","city":"Ciudad Autonoma de Bs As","zip":"C1023AAB","country":"Argentina","geoPoint":{"lat":-34.61315,"lon":-58.37723}},{"facility":"Research Site","status":"RECRUITING","city":"Ciudad de Buenos Aires","zip":"C1019ABS","country":"Argentina","geoPoint":{"lat":-34.61315,"lon":-58.37723}},{"facility":"Research Site","status":"RECRUITING","city":"Cordoba","zip":"X5006CBI","country":"Argentina","geoPoint":{"lat":-31.4135,"lon":-64.18105}},{"facility":"Research Site","status":"WITHDRAWN","city":"Córdoba","zip":"5000","country":"Argentina","geoPoint":{"lat":-31.4135,"lon":-64.18105}},{"facility":"Research Site","status":"NOT_YET_RECRUITING","city":"Córdoba","zip":"5000","country":"Argentina","geoPoint":{"lat":-31.4135,"lon":-64.18105}},{"facility":"Research Site","status":"NOT_YET_RECRUITING","city":"Córdoba","zip":"X5002HWE","country":"Argentina","geoPoint":{"lat":-31.4135,"lon":-64.18105}},{"facility":"Research Site","status":"RECRUITING","city":"Córdoba","zip":"X5003DCE","country":"Argentina","geoPoint":{"lat":-31.4135,"lon":-64.18105}},{"facility":"Research Site","status":"NOT_YET_RECRUITING","city":"Córdoba","zip":"X5016LIG","country":"Argentina","geoPoint":{"lat":-31.4135,"lon":-64.18105}},{"facility":"Research Site","status":"NOT_YET_RECRUITING","city":"La Plata","zip":"B1900AVG","country":"Argentina","geoPoint":{"lat":-34.92145,"lon":-57.95453}},{"facility":"Research Site","status":"RECRUITING","city":"Lanus Este","zip":"B1824KAJ","country":"Argentina"},{"facility":"Research Site","status":"NOT_YET_RECRUITING","city":"Lanus","zip":"1824","country":"Argentina","geoPoint":{"lat":-34.70252,"lon":-58.3955}},{"facility":"Research Site","status":"RECRUITING","city":"Mar del Plata","zip":"7600","country":"Argentina","geoPoint":{"lat":-38.00228,"lon":-57.55754}},{"facility":"Research Site","status":"RECRUITING","city":"Mar del Plata","zip":"B7600","country":"Argentina","geoPoint":{"lat":-38.00228,"lon":-57.55754}},{"facility":"Research Site","status":"RECRUITING","city":"Rosario","zip":"2000","country":"Argentina","geoPoint":{"lat":-32.94682,"lon":-60.63932}},{"facility":"Research Site","status":"RECRUITING","city":"San Nicolás","zip":"B2900DMH","country":"Argentina"},{"facility":"Research Site","status":"RECRUITING","city":"Santa Fe","zip":"S3000FWO","country":"Argentina","geoPoint":{"lat":-31.63333,"lon":-60.7}},{"facility":"Research Site","status":"RECRUITING","city":"Santiago Del Estero","zip":"4200","country":"Argentina","geoPoint":{"lat":-27.79511,"lon":-64.26149}},{"facility":"Research Site","status":"WITHDRAWN","city":"Temperley","zip":"1834","country":"Argentina","geoPoint":{"lat":-34.77988,"lon":-58.40312}},{"facility":"Research Site","status":"NOT_YET_RECRUITING","city":"Temperley","zip":"CP1834","country":"Argentina","geoPoint":{"lat":-34.77988,"lon":-58.40312}},{"facility":"Research Site","status":"RECRUITING","city":"Adelaide","zip":"5000","country":"Australia","geoPoint":{"lat":-34.92866,"lon":138.59863}},{"facility":"Research Site","status":"NOT_YET_RECRUITING","city":"Darlinghurst","zip":"2010","country":"Australia","geoPoint":{"lat":-33.87939,"lon":151.21925}},{"facility":"Research Site","status":"NOT_YET_RECRUITING","city":"Elizabeth Vale","zip":"5112","country":"Australia","geoPoint":{"lat":-34.74857,"lon":138.66819}},{"facility":"Research Site","status":"RECRUITING","city":"Gosford","zip":"2250","country":"Australia","geoPoint":{"lat":-33.4244,"lon":151.34399}},{"facility":"Research Site","status":"RECRUITING","city":"Perth","zip":"6000","country":"Australia","geoPoint":{"lat":-31.95224,"lon":115.8614}},{"facility":"Research Site","status":"RECRUITING","city":"Southport","zip":"4215","country":"Australia","geoPoint":{"lat":-27.96724,"lon":153.39796}},{"facility":"Research Site","status":"RECRUITING","city":"st Leonards","zip":"2065","country":"Australia","geoPoint":{"lat":-33.82344,"lon":151.19836}},{"facility":"Research Site","status":"RECRUITING","city":"Wollongong","zip":"2500","country":"Australia","geoPoint":{"lat":-34.424,"lon":150.89345}},{"facility":"Research Site","status":"RECRUITING","city":"Aalst","zip":"9300","country":"Belgium","geoPoint":{"lat":50.93604,"lon":4.0355}},{"facility":"Research Site","status":"NOT_YET_RECRUITING","city":"Brussel","zip":"1200","country":"Belgium","geoPoint":{"lat":50.85045,"lon":4.34878}},{"facility":"Research Site","status":"RECRUITING","city":"Genk","zip":"3600","country":"Belgium","geoPoint":{"lat":50.965,"lon":5.50082}},{"facility":"Research Site","status":"RECRUITING","city":"Hasselt","zip":"3500","country":"Belgium","geoPoint":{"lat":50.93106,"lon":5.33781}},{"facility":"Research Site","status":"RECRUITING","city":"Ieper","zip":"8900","country":"Belgium","geoPoint":{"lat":50.85114,"lon":2.88569}},{"facility":"Research Site","status":"NOT_YET_RECRUITING","city":"Jette","zip":"1090","country":"Belgium","geoPoint":{"lat":50.87309,"lon":4.33419}},{"facility":"Research Site","status":"RECRUITING","city":"Kortrijk","zip":"8500","country":"Belgium","geoPoint":{"lat":50.82803,"lon":3.26487}},{"facility":"Research Site","status":"RECRUITING","city":"Leuven","zip":"3000","country":"Belgium","geoPoint":{"lat":50.87959,"lon":4.70093}},{"facility":"Research Site","status":"RECRUITING","city":"Liège","zip":"4000","country":"Belgium","geoPoint":{"lat":50.63373,"lon":5.56749}},{"facility":"Research Site","status":"RECRUITING","city":"Mechelen","zip":"2800","country":"Belgium","geoPoint":{"lat":51.02574,"lon":4.47762}},{"facility":"Research Site","status":"RECRUITING","city":"Namur","zip":"5000","country":"Belgium","geoPoint":{"lat":50.4669,"lon":4.86746}},{"facility":"Research Site","status":"NOT_YET_RECRUITING","city":"Roeselare","zip":"8800","country":"Belgium","geoPoint":{"lat":50.94653,"lon":3.12269}},{"facility":"Research Site","status":"RECRUITING","city":"Ronse","zip":"9600","country":"Belgium","geoPoint":{"lat":50.74574,"lon":3.6005}},{"facility":"Research Site","status":"WITHDRAWN","city":"Sint-Truiden","zip":"3800","country":"Belgium","geoPoint":{"lat":50.81679,"lon":5.18647}},{"facility":"Research Site","status":"NOT_YET_RECRUITING","city":"Barretos","zip":"14784-400","country":"Brazil","geoPoint":{"lat":-20.55722,"lon":-48.56778}},{"facility":"Research Site","status":"NOT_YET_RECRUITING","city":"Belem","zip":"66073-005","country":"Brazil","geoPoint":{"lat":-1.45583,"lon":-48.50444}},{"facility":"Research Site","status":"NOT_YET_RECRUITING","city":"Brasilia","zip":"70200-730","country":"Brazil","geoPoint":{"lat":-15.77972,"lon":-47.92972}},{"facility":"Research Site","status":"RECRUITING","city":"Campina Grande do Sul","zip":"83.430-000","country":"Brazil","geoPoint":{"lat":-25.30556,"lon":-49.05528}},{"facility":"Research Site","status":"RECRUITING","city":"Campinas","zip":"13060-080","country":"Brazil","geoPoint":{"lat":-22.90556,"lon":-47.06083}},{"facility":"Research Site","status":"NOT_YET_RECRUITING","city":"Campinas","zip":"13060-904","country":"Brazil","geoPoint":{"lat":-22.90556,"lon":-47.06083}},{"facility":"Research Site","status":"NOT_YET_RECRUITING","city":"Curitiba","zip":"80230-130","country":"Brazil","geoPoint":{"lat":-25.42778,"lon":-49.27306}},{"facility":"Research Site","status":"NOT_YET_RECRUITING","city":"Fortaleza","zip":"60175-047","country":"Brazil","geoPoint":{"lat":-3.71722,"lon":-38.54306}},{"facility":"Research Site","status":"NOT_YET_RECRUITING","city":"Joinville","zip":"89227-680","country":"Brazil","geoPoint":{"lat":-26.30444,"lon":-48.84556}},{"facility":"Research Site","status":"NOT_YET_RECRUITING","city":"Natal","zip":"59020-035","country":"Brazil","geoPoint":{"lat":-5.795,"lon":-35.20944}},{"facility":"Research Site","status":"RECRUITING","city":"Porto Alegre","zip":"90020-090","country":"Brazil","geoPoint":{"lat":-30.03306,"lon":-51.23}},{"facility":"Research Site","status":"NOT_YET_RECRUITING","city":"Porto Alegre","zip":"90160-093","country":"Brazil","geoPoint":{"lat":-30.03306,"lon":-51.23}},{"facility":"Research Site","status":"NOT_YET_RECRUITING","city":"Rio de Janeiro","zip":"20241-180","country":"Brazil","geoPoint":{"lat":-22.90278,"lon":-43.2075}},{"facility":"Research Site","status":"NOT_YET_RECRUITING","city":"Sao Jose Do Rio Preto","zip":"15090-000","country":"Brazil","geoPoint":{"lat":-20.81972,"lon":-49.37944}},{"facility":"Research Site","status":"NOT_YET_RECRUITING","city":"Sao Paulo","zip":"05403-9000","country":"Brazil","geoPoint":{"lat":-23.5475,"lon":-46.63611}},{"facility":"Research Site","status":"RECRUITING","city":"São Paulo","zip":"04012-180","country":"Brazil","geoPoint":{"lat":-23.5475,"lon":-46.63611}},{"facility":"Research Site","status":"NOT_YET_RECRUITING","city":"São Paulo","zip":"04038-031","country":"Brazil","geoPoint":{"lat":-23.5475,"lon":-46.63611}},{"facility":"Research Site","status":"RECRUITING","city":"Byala","zip":"7100","country":"Bulgaria","geoPoint":{"lat":42.87463,"lon":27.88843}},{"facility":"Research Site","status":"RECRUITING","city":"Dupnitsa","zip":"2600","country":"Bulgaria","geoPoint":{"lat":42.26667,"lon":23.11667}},{"facility":"Research Site","status":"NOT_YET_RECRUITING","city":"Gabrovo","zip":"5300","country":"Bulgaria","geoPoint":{"lat":42.87472,"lon":25.33417}},{"facility":"Research Site","status":"NOT_YET_RECRUITING","city":"Gotse Delchev","zip":"2900","country":"Bulgaria","geoPoint":{"lat":41.56667,"lon":23.73333}},{"facility":"Research Site","status":"RECRUITING","city":"Kozloduy","zip":"3320","country":"Bulgaria","geoPoint":{"lat":43.77867,"lon":23.72067}},{"facility":"Research Site","status":"RECRUITING","city":"Lom","zip":"3600","country":"Bulgaria","geoPoint":{"lat":43.81389,"lon":23.23611}},{"facility":"Research Site","status":"RECRUITING","city":"Pernik","zip":"2300","country":"Bulgaria","geoPoint":{"lat":42.6,"lon":23.03333}},{"facility":"Research Site","status":"RECRUITING","city":"Plovdiv","zip":"4004","country":"Bulgaria","geoPoint":{"lat":42.15,"lon":24.75}},{"facility":"Research Site","status":"NOT_YET_RECRUITING","city":"Ruse","zip":"7013","country":"Bulgaria","geoPoint":{"lat":43.85639,"lon":25.97083}},{"facility":"Research Site","status":"NOT_YET_RECRUITING","city":"Sandanski","zip":"2800","country":"Bulgaria","geoPoint":{"lat":41.56667,"lon":23.28333}},{"facility":"Research Site","status":"RECRUITING","city":"Sliven","zip":"8800","country":"Bulgaria","geoPoint":{"lat":42.68583,"lon":26.32917}},{"facility":"Research Site","status":"NOT_YET_RECRUITING","city":"Sofia","country":"Bulgaria","geoPoint":{"lat":42.69751,"lon":23.32415}},{"facility":"Research Site","status":"RECRUITING","city":"Varna","zip":"9000","country":"Bulgaria","geoPoint":{"lat":43.21667,"lon":27.91667}},{"facility":"Research Site","status":"NOT_YET_RECRUITING","city":"Varna","zip":"9010","country":"Bulgaria","geoPoint":{"lat":43.21667,"lon":27.91667}},{"facility":"Research Site","status":"RECRUITING","city":"Veliko Tarnovo","zip":"5000","country":"Bulgaria","geoPoint":{"lat":43.08124,"lon":25.62904}},{"facility":"Research Site","status":"WITHDRAWN","city":"Yambol","zip":"8600","country":"Bulgaria","geoPoint":{"lat":42.48333,"lon":26.5}},{"facility":"Research Site","status":"NOT_YET_RECRUITING","city":"Edmonton","state":"Alberta","zip":"T6G 2P4","country":"Canada","geoPoint":{"lat":53.55014,"lon":-113.46871}},{"facility":"Research Site","status":"NOT_YET_RECRUITING","city":"Surrey","state":"British Columbia","zip":"V3T 0H1","country":"Canada","geoPoint":{"lat":49.10635,"lon":-122.82509}},{"facility":"Research Site","status":"NOT_YET_RECRUITING","city":"Vancouver","state":"British Columbia","zip":"V6Z 1Y6","country":"Canada","geoPoint":{"lat":49.24966,"lon":-123.11934}},{"facility":"Research Site","status":"NOT_YET_RECRUITING","city":"Winnipeg","state":"Manitoba","zip":"R2V 3M3","country":"Canada","geoPoint":{"lat":49.8844,"lon":-97.14704}},{"facility":"Research Site","status":"RECRUITING","city":"St. John","state":"New Brunswick","zip":"E2L 4L2","country":"Canada","geoPoint":{"lat":45.2727,"lon":-66.06769}},{"facility":"Research Site","status":"NOT_YET_RECRUITING","city":"Halifax","state":"Nova Scotia","zip":"B3H 1V7","country":"Canada","geoPoint":{"lat":44.64533,"lon":-63.57239}},{"facility":"Research Site","status":"RECRUITING","city":"London","state":"Ontario","zip":"N6A 5A5","country":"Canada","geoPoint":{"lat":42.98339,"lon":-81.23304}},{"facility":"Research Site","status":"NOT_YET_RECRUITING","city":"Oshawa","state":"Ontario","zip":"L1G 2B9","country":"Canada","geoPoint":{"lat":43.90012,"lon":-78.84957}},{"facility":"Research Site","status":"RECRUITING","city":"Sarnia","state":"Ontario","zip":"N7T 4X3","country":"Canada","geoPoint":{"lat":42.97866,"lon":-82.40407}},{"facility":"Research Site","status":"NOT_YET_RECRUITING","city":"Toronto","state":"Ontario","zip":"M3M 0B2","country":"Canada","geoPoint":{"lat":43.70011,"lon":-79.4163}},{"facility":"Research Site","status":"NOT_YET_RECRUITING","city":"Toronto","state":"Ontario","zip":"M4G 3E8","country":"Canada","geoPoint":{"lat":43.70011,"lon":-79.4163}},{"facility":"Research Site","status":"NOT_YET_RECRUITING","city":"Toronto","state":"Ontario","zip":"M5G 2N2","country":"Canada","geoPoint":{"lat":43.70011,"lon":-79.4163}},{"facility":"Research Site","status":"RECRUITING","city":"Toronto","state":"Ontario","zip":"M9V 4B4","country":"Canada","geoPoint":{"lat":43.70011,"lon":-79.4163}},{"facility":"Research Site","status":"RECRUITING","city":"Waterloo","state":"Ontario","zip":"N2T 0C1","country":"Canada","geoPoint":{"lat":43.4668,"lon":-80.51639}},{"facility":"Research Site","status":"RECRUITING","city":"Laval","state":"Quebec","zip":"H7T 2P5","country":"Canada","geoPoint":{"lat":45.56995,"lon":-73.692}},{"facility":"Research Site","status":"RECRUITING","city":"Montreal","state":"Quebec","zip":"H1T 2M4","country":"Canada","geoPoint":{"lat":45.50884,"lon":-73.58781}},{"facility":"Research Site","status":"RECRUITING","city":"Montreal","state":"Quebec","zip":"H4J 1C5","country":"Canada","geoPoint":{"lat":45.50884,"lon":-73.58781}},{"facility":"Research Site","status":"RECRUITING","city":"Montreal","state":"Quebec","zip":"H4J 1E3","country":"Canada","geoPoint":{"lat":45.50884,"lon":-73.58781}},{"facility":"Research Site","status":"RECRUITING","city":"Montréal","state":"Quebec","zip":"H2X 0A9","country":"Canada","geoPoint":{"lat":45.50884,"lon":-73.58781}},{"facility":"Research Site","status":"RECRUITING","city":"Quebec","zip":"G1R 2J6","country":"Canada","geoPoint":{"lat":46.81228,"lon":-71.21454}},{"facility":"Research Site","status":"NOT_YET_RECRUITING","city":"Araucania","zip":"4781151","country":"Chile"},{"facility":"Research Site","status":"NOT_YET_RECRUITING","city":"Santiago","zip":"7500922","country":"Chile","geoPoint":{"lat":-33.45694,"lon":-70.64827}},{"facility":"Research Site","status":"NOT_YET_RECRUITING","city":"Santiago","zip":"8331143","country":"Chile","geoPoint":{"lat":-33.45694,"lon":-70.64827}},{"facility":"Research Site","status":"NOT_YET_RECRUITING","city":"Valdivia","zip":"5090000","country":"Chile","geoPoint":{"lat":-39.81422,"lon":-73.24589}},{"facility":"Research Site","status":"NOT_YET_RECRUITING","city":"Victoria","zip":"4720000","country":"Chile","geoPoint":{"lat":-38.23291,"lon":-72.33292}},{"facility":"Research Site","status":"WITHDRAWN","city":"Viña del Mar","zip":"2540488","country":"Chile","geoPoint":{"lat":-33.02457,"lon":-71.55183}},{"facility":"Research Site","status":"RECRUITING","city":"Baotou","zip":"014010","country":"China","geoPoint":{"lat":40.65222,"lon":109.82222}},{"facility":"Research Site","status":"RECRUITING","city":"Beijing","zip":"100034","country":"China","geoPoint":{"lat":39.9075,"lon":116.39723}},{"facility":"Research Site","status":"RECRUITING","city":"Beijing","zip":"100068","country":"China","geoPoint":{"lat":39.9075,"lon":116.39723}},{"facility":"Research Site","status":"RECRUITING","city":"Beijing","zip":"CN-100083","country":"China","geoPoint":{"lat":39.9075,"lon":116.39723}},{"facility":"Research Site","status":"RECRUITING","city":"Changsha","zip":"410008","country":"China","geoPoint":{"lat":28.19874,"lon":112.97087}},{"facility":"Research Site","status":"RECRUITING","city":"Changsha","zip":"410015","country":"China","geoPoint":{"lat":28.19874,"lon":112.97087}},{"facility":"Research Site","status":"RECRUITING","city":"Changzhou","zip":"272100","country":"China","geoPoint":{"lat":31.77359,"lon":119.95401}},{"facility":"Research Site","status":"RECRUITING","city":"Chengdu","zip":"610000","country":"China","geoPoint":{"lat":30.66667,"lon":104.06667}},{"facility":"Research Site","status":"RECRUITING","city":"Chengdu","zip":"610072","country":"China","geoPoint":{"lat":30.66667,"lon":104.06667}},{"facility":"Research Site","status":"RECRUITING","city":"Chongqing","zip":"400010","country":"China","geoPoint":{"lat":29.56278,"lon":106.55278}},{"facility":"Research Site","status":"NOT_YET_RECRUITING","city":"Dongwan","zip":"523058","country":"China"},{"facility":"Research Site","status":"RECRUITING","city":"Guangzhou","zip":"510280","country":"China","geoPoint":{"lat":23.11667,"lon":113.25}},{"facility":"Research Site","status":"RECRUITING","city":"Guangzhou","zip":"510800","country":"China","geoPoint":{"lat":23.11667,"lon":113.25}},{"facility":"Research Site","status":"RECRUITING","city":"Hefei","zip":"230601","country":"China","geoPoint":{"lat":31.86389,"lon":117.28083}},{"facility":"Research Site","status":"RECRUITING","city":"Hengyang","zip":"421001","country":"China","geoPoint":{"lat":26.88946,"lon":112.61888}},{"facility":"Research Site","status":"RECRUITING","city":"Huaian","zip":"223399","country":"China","geoPoint":{"lat":33.50389,"lon":119.14417}},{"facility":"Research Site","status":"RECRUITING","city":"Jiaxing","zip":"314001","country":"China","geoPoint":{"lat":30.7522,"lon":120.75}},{"facility":"Research Site","status":"RECRUITING","city":"Jinan","zip":"250021","country":"China","geoPoint":{"lat":36.66833,"lon":116.99722}},{"facility":"Research Site","status":"RECRUITING","city":"Jining","zip":"272006","country":"China","geoPoint":{"lat":35.405,"lon":116.58139}},{"facility":"Research Site","status":"RECRUITING","city":"Lanzhou","zip":"730000","country":"China","geoPoint":{"lat":36.05701,"lon":103.83987}},{"facility":"Research Site","status":"RECRUITING","city":"Linhai","zip":"317000","country":"China","geoPoint":{"lat":28.85535,"lon":121.14469}},{"facility":"Research Site","status":"RECRUITING","city":"Nanchang","zip":"330006","country":"China","geoPoint":{"lat":28.68396,"lon":115.85306}},{"facility":"Research Site","status":"RECRUITING","city":"Nanning","country":"China","geoPoint":{"lat":22.81667,"lon":108.31667}},{"facility":"Research Site","status":"RECRUITING","city":"Ningbo","zip":"315010","country":"China","geoPoint":{"lat":29.87819,"lon":121.54945}},{"facility":"Research Site","status":"RECRUITING","city":"Ningbo","zip":"315099","country":"China","geoPoint":{"lat":29.87819,"lon":121.54945}},{"facility":"Research Site","status":"RECRUITING","city":"Ningbo","zip":"315800","country":"China","geoPoint":{"lat":29.87819,"lon":121.54945}},{"facility":"Research Site","status":"RECRUITING","city":"Panjin","zip":"124009","country":"China","geoPoint":{"lat":41.121,"lon":122.0739}},{"facility":"Research Site","status":"RECRUITING","city":"Pingxiang","zip":"337055","country":"China","geoPoint":{"lat":27.61672,"lon":113.85353}},{"facility":"Research Site","status":"RECRUITING","city":"Shanghai","zip":"201199","country":"China","geoPoint":{"lat":31.22222,"lon":121.45806}},{"facility":"Research Site","status":"RECRUITING","city":"Shantou","zip":"515041","country":"China","geoPoint":{"lat":23.36814,"lon":116.71479}},{"facility":"Research Site","status":"RECRUITING","city":"Shenyang","zip":"110004","country":"China","geoPoint":{"lat":41.79222,"lon":123.43278}},{"facility":"Research Site","status":"RECRUITING","city":"Shenzhen","zip":"518036","country":"China","geoPoint":{"lat":22.54554,"lon":114.0683}},{"facility":"Research Site","status":"RECRUITING","city":"Shenzhen","zip":"518053","country":"China","geoPoint":{"lat":22.54554,"lon":114.0683}},{"facility":"Research Site","status":"RECRUITING","city":"Suzhou","zip":"215004","country":"China","geoPoint":{"lat":31.30408,"lon":120.59538}},{"facility":"Research Site","status":"RECRUITING","city":"Tianjin","zip":"CN-300052","country":"China","geoPoint":{"lat":39.14222,"lon":117.17667}},{"facility":"Research Site","status":"RECRUITING","city":"Wuhan","zip":"430000","country":"China","geoPoint":{"lat":30.58333,"lon":114.26667}},{"facility":"Research Site","status":"RECRUITING","city":"Wuhan","zip":"430010","country":"China","geoPoint":{"lat":30.58333,"lon":114.26667}},{"facility":"Research Site","status":"RECRUITING","city":"Wuxi","zip":"214023","country":"China","geoPoint":{"lat":31.56887,"lon":120.28857}},{"facility":"Research Site","status":"RECRUITING","city":"Xi'an","zip":"710061","country":"China","geoPoint":{"lat":34.25833,"lon":108.92861}},{"facility":"Research Site","status":"RECRUITING","city":"Xianyang","zip":"750004","country":"China","geoPoint":{"lat":34.33778,"lon":108.70261}},{"facility":"Research Site","status":"RECRUITING","city":"Yantai","zip":"264000","country":"China","geoPoint":{"lat":37.47649,"lon":121.44081}},{"facility":"Research Site","status":"RECRUITING","city":"Yinchuan","zip":"750004","country":"China","geoPoint":{"lat":38.46806,"lon":106.27306}},{"facility":"Research Site","status":"RECRUITING","city":"Zhengzhou City","zip":"450000","country":"China"},{"facility":"Research Site","status":"RECRUITING","city":"Zhongshan","zip":"528401","country":"China","geoPoint":{"lat":21.31992,"lon":110.5723}},{"facility":"Research Site","status":"RECRUITING","city":"Zhuzhou","zip":"412007","country":"China","geoPoint":{"lat":27.83333,"lon":113.15}},{"facility":"Research Site","status":"RECRUITING","city":"Zigong","zip":"643000","country":"China","geoPoint":{"lat":29.34162,"lon":104.77689}},{"facility":"Research Site","status":"NOT_YET_RECRUITING","city":"Barranquilla","zip":"080020","country":"Colombia","geoPoint":{"lat":10.96854,"lon":-74.78132}},{"facility":"Research Site","status":"NOT_YET_RECRUITING","city":"Barranquilla","country":"Colombia","geoPoint":{"lat":10.96854,"lon":-74.78132}},{"facility":"Research Site","status":"NOT_YET_RECRUITING","city":"Bogota","zip":"111411","country":"Colombia","geoPoint":{"lat":4.60971,"lon":-74.08175}},{"facility":"Research Site","status":"NOT_YET_RECRUITING","city":"Cali","zip":"760042","country":"Colombia","geoPoint":{"lat":3.43722,"lon":-76.5225}},{"facility":"Research Site","status":"NOT_YET_RECRUITING","city":"Medellin","zip":"050030","country":"Colombia","geoPoint":{"lat":6.25184,"lon":-75.56359}},{"facility":"Research Site","status":"NOT_YET_RECRUITING","city":"Medellin","zip":"050034","country":"Colombia","geoPoint":{"lat":6.25184,"lon":-75.56359}},{"facility":"Research Site","status":"NOT_YET_RECRUITING","city":"Monteria","zip":"110221","country":"Colombia","geoPoint":{"lat":8.74798,"lon":-75.88143}},{"facility":"Research Site","status":"NOT_YET_RECRUITING","city":"Pasto","zip":"520002","country":"Colombia","geoPoint":{"lat":1.21361,"lon":-77.28111}},{"facility":"Research Site","status":"SUSPENDED","city":"Brandys nad Labem","zip":"250 01","country":"Czechia","geoPoint":{"lat":50.18356,"lon":14.67244}},{"facility":"Research Site","status":"NOT_YET_RECRUITING","city":"Brandýs nad Labem","zip":"250 01","country":"Czechia","geoPoint":{"lat":50.18356,"lon":14.67244}},{"facility":"Research Site","status":"NOT_YET_RECRUITING","city":"Frýdek-Místek","zip":"738 01","country":"Czechia","geoPoint":{"lat":49.68333,"lon":18.35}},{"facility":"Research Site","status":"RECRUITING","city":"Jilemnice","zip":"514 01","country":"Czechia","geoPoint":{"lat":50.6089,"lon":15.50653}},{"facility":"Research Site","status":"NOT_YET_RECRUITING","city":"Krnov","zip":"794 01","country":"Czechia","geoPoint":{"lat":50.08967,"lon":17.70385}},{"facility":"Research Site","status":"NOT_YET_RECRUITING","city":"Mladá Boleslav","zip":"293 01","country":"Czechia","geoPoint":{"lat":50.41135,"lon":14.90318}},{"facility":"Research Site","status":"RECRUITING","city":"Nachod","zip":"547 01","country":"Czechia","geoPoint":{"lat":50.4167,"lon":16.16289}},{"facility":"Research Site","status":"SUSPENDED","city":"Olomouc","zip":"772 00","country":"Czechia","geoPoint":{"lat":49.59552,"lon":17.25175}},{"facility":"Research Site","status":"RECRUITING","city":"Plzeň","zip":"323 00","country":"Czechia","geoPoint":{"lat":49.74747,"lon":13.37759}},{"facility":"Research Site","status":"RECRUITING","city":"Praha 10","zip":"104 00","country":"Czechia","geoPoint":{"lat":50.08804,"lon":14.42076}},{"facility":"Research Site","status":"RECRUITING","city":"Praha 4","zip":"140 21","country":"Czechia","geoPoint":{"lat":50.08804,"lon":14.42076}},{"facility":"Research Site","status":"SUSPENDED","city":"Praha 6","zip":"160 00","country":"Czechia","geoPoint":{"lat":50.08804,"lon":14.42076}},{"facility":"Research Site","status":"NOT_YET_RECRUITING","city":"Praha","zip":"140 00","country":"Czechia","geoPoint":{"lat":50.08804,"lon":14.42076}},{"facility":"Research Site","status":"RECRUITING","city":"Slany","zip":"274 01","country":"Czechia","geoPoint":{"lat":50.23046,"lon":14.08693}},{"facility":"Research Site","status":"NOT_YET_RECRUITING","city":"Aalborg","zip":"9000","country":"Denmark","geoPoint":{"lat":57.048,"lon":9.9187}},{"facility":"Research Site","status":"RECRUITING","city":"Aarhus","zip":"8200","country":"Denmark","geoPoint":{"lat":56.15674,"lon":10.21076}},{"facility":"Research Site","status":"NOT_YET_RECRUITING","city":"Copenhagen E","zip":"2100","country":"Denmark"},{"facility":"Research Site","status":"RECRUITING","city":"Herlev","zip":"2730","country":"Denmark","geoPoint":{"lat":55.72366,"lon":12.43998}},{"facility":"Research Site","status":"NOT_YET_RECRUITING","city":"Herlev","zip":"2730","country":"Denmark","geoPoint":{"lat":55.72366,"lon":12.43998}},{"facility":"Research Site","status":"RECRUITING","city":"Herning","zip":"7400","country":"Denmark","geoPoint":{"lat":56.13932,"lon":8.97378}},{"facility":"Research Site","status":"RECRUITING","city":"Holbæk","zip":"4300","country":"Denmark","geoPoint":{"lat":55.71354,"lon":11.7169}},{"facility":"Research Site","status":"NOT_YET_RECRUITING","city":"Kolding","zip":"6000","country":"Denmark","geoPoint":{"lat":55.4904,"lon":9.47216}},{"facility":"Research Site","status":"NOT_YET_RECRUITING","city":"Alexandria","zip":"21131","country":"Egypt","geoPoint":{"lat":31.21564,"lon":29.95527}},{"facility":"Research Site","status":"NOT_YET_RECRUITING","city":"Cairo","zip":"11566","country":"Egypt","geoPoint":{"lat":30.06263,"lon":31.24967}},{"facility":"Research Site","status":"NOT_YET_RECRUITING","city":"Cairo","zip":"4540046","country":"Egypt","geoPoint":{"lat":30.06263,"lon":31.24967}},{"facility":"Research Site","status":"NOT_YET_RECRUITING","city":"Dakahlia","zip":"35516","country":"Egypt"},{"facility":"Research Site","status":"NOT_YET_RECRUITING","city":"Amiens Cedex 1","zip":"80054","country":"France","geoPoint":{"lat":49.9,"lon":2.3}},{"facility":"Research Site","status":"NOT_YET_RECRUITING","city":"Bordeaux cedex","zip":"33076","country":"France","geoPoint":{"lat":44.84044,"lon":-0.5805}},{"facility":"Research Site","status":"NOT_YET_RECRUITING","city":"BREST cedex","zip":"29200","country":"France","geoPoint":{"lat":48.3903,"lon":-4.48628}},{"facility":"Research Site","status":"NOT_YET_RECRUITING","city":"Clermont-Ferrand","zip":"63003","country":"France","geoPoint":{"lat":45.77966,"lon":3.08628}},{"facility":"Research Site","status":"NOT_YET_RECRUITING","city":"Creteil","zip":"94000","country":"France","geoPoint":{"lat":48.78333,"lon":2.46667}},{"facility":"Research Site","status":"RECRUITING","city":"La Roche Sur Yon","zip":"85925","country":"France","geoPoint":{"lat":46.66667,"lon":-1.43333}},{"facility":"Research Site","status":"NOT_YET_RECRUITING","city":"Limoges","zip":"87042","country":"France","geoPoint":{"lat":45.83153,"lon":1.25781}},{"facility":"Research Site","status":"NOT_YET_RECRUITING","city":"Lyon Cedex 03","zip":"69437","country":"France","geoPoint":{"lat":45.74848,"lon":4.84669}},{"facility":"Research Site","status":"NOT_YET_RECRUITING","city":"Marseille cedex 6","zip":"13291","country":"France","geoPoint":{"lat":43.29551,"lon":5.38958}},{"facility":"Research Site","status":"NOT_YET_RECRUITING","city":"Marseille","zip":"13005","country":"France","geoPoint":{"lat":43.29551,"lon":5.38958}},{"facility":"Research Site","status":"NOT_YET_RECRUITING","city":"Nantes cedex 1","zip":"44093","country":"France","geoPoint":{"lat":47.21725,"lon":-1.55336}},{"facility":"Research Site","status":"NOT_YET_RECRUITING","city":"Nice","zip":"06000","country":"France","geoPoint":{"lat":43.70313,"lon":7.26608}},{"facility":"Research Site","status":"NOT_YET_RECRUITING","city":"Nimes","zip":"30000","country":"France","geoPoint":{"lat":43.83333,"lon":4.35}},{"facility":"Research Site","status":"NOT_YET_RECRUITING","city":"Paris","zip":"75015","country":"France","geoPoint":{"lat":48.85341,"lon":2.3488}},{"facility":"Research Site","status":"NOT_YET_RECRUITING","city":"Paris","zip":"75018","country":"France","geoPoint":{"lat":48.85341,"lon":2.3488}},{"facility":"Research Site","status":"NOT_YET_RECRUITING","city":"Pierre Bénite","zip":"69495","country":"France","geoPoint":{"lat":45.7009,"lon":4.82511}},{"facility":"Research Site","status":"NOT_YET_RECRUITING","city":"Quimper","zip":"29000","country":"France","geoPoint":{"lat":48.0,"lon":-4.1}},{"facility":"Research Site","status":"NOT_YET_RECRUITING","city":"Reims","zip":"51100","country":"France","geoPoint":{"lat":49.25,"lon":4.03333}},{"facility":"Research Site","status":"NOT_YET_RECRUITING","city":"Rouen","zip":"76031","country":"France","geoPoint":{"lat":49.44313,"lon":1.09932}},{"facility":"Research Site","status":"NOT_YET_RECRUITING","city":"Saint-Priest-en-Jarez","zip":"42270","country":"France","geoPoint":{"lat":45.47501,"lon":4.37614}},{"facility":"Research Site","status":"NOT_YET_RECRUITING","city":"Strasbourg","zip":"67098","country":"France","geoPoint":{"lat":48.58392,"lon":7.74553}},{"facility":"Research Site","status":"NOT_YET_RECRUITING","city":"Tours","zip":"37044","country":"France","geoPoint":{"lat":47.38333,"lon":0.68333}},{"facility":"Research Site","status":"NOT_YET_RECRUITING","city":"Vandoeuvre-Les-Nancy","zip":"54511","country":"France","geoPoint":{"lat":48.65,"lon":6.18333}},{"facility":"Research Site","status":"NOT_YET_RECRUITING","city":"Bad Homburg","zip":"61348","country":"Germany","geoPoint":{"lat":50.22683,"lon":8.61816}},{"facility":"Research Site","status":"NOT_YET_RECRUITING","city":"Bamberg","zip":"96049","country":"Germany","geoPoint":{"lat":49.89873,"lon":10.90067}},{"facility":"Research Site","status":"RECRUITING","city":"Berlin","zip":"10117","country":"Germany","geoPoint":{"lat":52.52437,"lon":13.41053}},{"facility":"Research Site","status":"RECRUITING","city":"Berlin","zip":"10629","country":"Germany","geoPoint":{"lat":52.52437,"lon":13.41053}},{"facility":"Research Site","status":"NOT_YET_RECRUITING","city":"Berlin","zip":"13509","country":"Germany","geoPoint":{"lat":52.52437,"lon":13.41053}},{"facility":"Research Site","status":"RECRUITING","city":"Bochum","zip":"44787","country":"Germany","geoPoint":{"lat":51.48165,"lon":7.21648}},{"facility":"Research Site","status":"RECRUITING","city":"Brandenburg an der Havel","zip":"14770","country":"Germany","geoPoint":{"lat":52.41667,"lon":12.55}},{"facility":"Research Site","status":"RECRUITING","city":"Brandenburg an der Havel","zip":"14776","country":"Germany","geoPoint":{"lat":52.41667,"lon":12.55}},{"facility":"Research Site","status":"NOT_YET_RECRUITING","city":"Dresden","zip":"01279","country":"Germany","geoPoint":{"lat":51.05089,"lon":13.73832}},{"facility":"Research Site","status":"NOT_YET_RECRUITING","city":"Essen","zip":"45122","country":"Germany","geoPoint":{"lat":51.45657,"lon":7.01228}},{"facility":"Research Site","status":"NOT_YET_RECRUITING","city":"Friedrichsthal","zip":"66299","country":"Germany","geoPoint":{"lat":49.32786,"lon":7.09622}},{"facility":"Research Site","status":"NOT_YET_RECRUITING","city":"Goettingen","zip":"37075","country":"Germany"},{"facility":"Research Site","status":"NOT_YET_RECRUITING","city":"Görlitz","zip":"02828","country":"Germany","geoPoint":{"lat":51.15518,"lon":14.98853}},{"facility":"Research Site","status":"NOT_YET_RECRUITING","city":"Hamburg","zip":"21109","country":"Germany","geoPoint":{"lat":53.57532,"lon":10.01534}},{"facility":"Research Site","status":"RECRUITING","city":"Hannover","zip":"30449","country":"Germany","geoPoint":{"lat":52.37052,"lon":9.73322}},{"facility":"Research Site","status":"NOT_YET_RECRUITING","city":"Hannover","zip":"30459","country":"Germany","geoPoint":{"lat":52.37052,"lon":9.73322}},{"facility":"Research Site","status":"NOT_YET_RECRUITING","city":"Hannover","zip":"30625","country":"Germany","geoPoint":{"lat":52.37052,"lon":9.73322}},{"facility":"Research Site","status":"RECRUITING","city":"Hannover","zip":"30625","country":"Germany","geoPoint":{"lat":52.37052,"lon":9.73322}},{"facility":"Research Site","status":"RECRUITING","city":"Heidelberg","zip":"69115","country":"Germany","geoPoint":{"lat":49.40768,"lon":8.69079}},{"facility":"Research Site","status":"NOT_YET_RECRUITING","city":"Heidelberg","zip":"69120","country":"Germany","geoPoint":{"lat":49.40768,"lon":8.69079}},{"facility":"Research Site","status":"RECRUITING","city":"Herne","zip":"44625","country":"Germany","geoPoint":{"lat":51.5388,"lon":7.22572}},{"facility":"Research Site","status":"NOT_YET_RECRUITING","city":"Karlsburg","zip":"17495","country":"Germany","geoPoint":{"lat":53.97172,"lon":13.61007}},{"facility":"Research Site","status":"NOT_YET_RECRUITING","city":"Karlsruhe","zip":"76133","country":"Germany","geoPoint":{"lat":49.00937,"lon":8.40444}},{"facility":"Research Site","status":"RECRUITING","city":"Karlsruhe","zip":"76137","country":"Germany","geoPoint":{"lat":49.00937,"lon":8.40444}},{"facility":"Research Site","status":"NOT_YET_RECRUITING","city":"Landshut","zip":"84034","country":"Germany","geoPoint":{"lat":48.52961,"lon":12.16179}},{"facility":"Research Site","status":"RECRUITING","city":"Mainz","zip":"55131","country":"Germany","geoPoint":{"lat":49.98419,"lon":8.2791}},{"facility":"Research Site","status":"RECRUITING","city":"Obertshausen","zip":"63179","country":"Germany","geoPoint":{"lat":50.07139,"lon":8.85123}},{"facility":"Research Site","status":"RECRUITING","city":"Offenbach am Main","zip":"63065","country":"Germany","geoPoint":{"lat":50.10061,"lon":8.76647}},{"facility":"Research Site","status":"NOT_YET_RECRUITING","city":"Potsdam","zip":"14473","country":"Germany","geoPoint":{"lat":52.39886,"lon":13.06566}},{"facility":"Research Site","status":"RECRUITING","city":"Reinfeld (Holstein)","zip":"23858","country":"Germany"},{"facility":"Research Site","status":"NOT_YET_RECRUITING","city":"Rostock","zip":"18057","country":"Germany","geoPoint":{"lat":54.0887,"lon":12.14049}},{"facility":"Research Site","status":"NOT_YET_RECRUITING","city":"Rotenburg (Wümme)","zip":"27356","country":"Germany"},{"facility":"Research Site","status":"WITHDRAWN","city":"Stuttgart","zip":"70376","country":"Germany","geoPoint":{"lat":48.78232,"lon":9.17702}},{"facility":"Research Site","status":"NOT_YET_RECRUITING","city":"Ulm","zip":"89081","country":"Germany","geoPoint":{"lat":48.39841,"lon":9.99155}},{"facility":"Research Site","status":"NOT_YET_RECRUITING","city":"Wermsdorf","zip":"04779","country":"Germany","geoPoint":{"lat":51.28333,"lon":12.95}},{"facility":"Research Site","status":"NOT_YET_RECRUITING","city":"Zwenkau","zip":"04442","country":"Germany","geoPoint":{"lat":51.21872,"lon":12.33008}},{"facility":"Research Site","status":"NOT_YET_RECRUITING","city":"Alexandroupolis","zip":"68100","country":"Greece","geoPoint":{"lat":40.84995,"lon":25.87644}},{"facility":"Research Site","status":"NOT_YET_RECRUITING","city":"Athens","zip":"11527","country":"Greece","geoPoint":{"lat":37.97945,"lon":23.71622}},{"facility":"Research Site","status":"NOT_YET_RECRUITING","city":"Heraclion","zip":"71500","country":"Greece","geoPoint":{"lat":35.32787,"lon":25.14341}},{"facility":"Research Site","status":"NOT_YET_RECRUITING","city":"Ioannina","zip":"45500","country":"Greece","geoPoint":{"lat":39.66486,"lon":20.85189}},{"facility":"Research Site","status":"NOT_YET_RECRUITING","city":"Patras","zip":"26504","country":"Greece","geoPoint":{"lat":38.24444,"lon":21.73444}},{"facility":"Research Site","status":"NOT_YET_RECRUITING","city":"Thessaloniki","zip":"54636","country":"Greece","geoPoint":{"lat":40.64361,"lon":22.93086}},{"facility":"Research Site","status":"NOT_YET_RECRUITING","city":"Thessaloniki","zip":"54642","country":"Greece","geoPoint":{"lat":40.64361,"lon":22.93086}},{"facility":"Research Site","status":"NOT_YET_RECRUITING","city":"Thessaloniki","zip":"57010","country":"Greece","geoPoint":{"lat":40.64361,"lon":22.93086}},{"facility":"Research Site","status":"RECRUITING","city":"Budapest","zip":"1036","country":"Hungary","geoPoint":{"lat":47.49801,"lon":19.03991}},{"facility":"Research Site","status":"NOT_YET_RECRUITING","city":"Budapest","zip":"1085","country":"Hungary","geoPoint":{"lat":47.49801,"lon":19.03991}},{"facility":"Research Site","status":"RECRUITING","city":"Dunaujvaros","zip":"2400","country":"Hungary","geoPoint":{"lat":46.96498,"lon":18.93923}},{"facility":"Research Site","status":"WITHDRAWN","city":"Encs","zip":"3860","country":"Hungary","geoPoint":{"lat":48.33333,"lon":21.13333}},{"facility":"Research Site","status":"NOT_YET_RECRUITING","city":"Győr","zip":"9024","country":"Hungary","geoPoint":{"lat":47.68333,"lon":17.63512}},{"facility":"Research Site","status":"RECRUITING","city":"Kaposvár","zip":"7400","country":"Hungary","geoPoint":{"lat":46.36667,"lon":17.8}},{"facility":"Research Site","status":"WITHDRAWN","city":"Nyiregyhaza","zip":"4405","country":"Hungary","geoPoint":{"lat":47.95539,"lon":21.71671}},{"facility":"Research Site","status":"RECRUITING","city":"Nyíregyháza","zip":"4400","country":"Hungary","geoPoint":{"lat":47.95539,"lon":21.71671}},{"facility":"Research Site","status":"NOT_YET_RECRUITING","city":"Szeged","zip":"6724","country":"Hungary","geoPoint":{"lat":46.253,"lon":20.14824}},{"facility":"Research Site","status":"NOT_YET_RECRUITING","city":"Szeged","zip":"6725","country":"Hungary","geoPoint":{"lat":46.253,"lon":20.14824}},{"facility":"Research Site","status":"NOT_YET_RECRUITING","city":"Szolnok","zip":"5004","country":"Hungary","geoPoint":{"lat":47.18333,"lon":20.2}},{"facility":"Research Site","status":"RECRUITING","city":"Székesfehérvár","zip":"8000","country":"Hungary","geoPoint":{"lat":47.18995,"lon":18.41034}},{"facility":"Research Site","status":"RECRUITING","city":"Zalaegerszeg","zip":"8900","country":"Hungary","geoPoint":{"lat":46.84,"lon":16.84389}},{"facility":"Research Site","status":"NOT_YET_RECRUITING","city":"Bangalore","zip":"560060","country":"India","geoPoint":{"lat":12.97194,"lon":77.59369}},{"facility":"Research Site","status":"NOT_YET_RECRUITING","city":"Belagavi","zip":"590010","country":"India"},{"facility":"Research Site","status":"RECRUITING","city":"Hyderabad","zip":"500 034","country":"India","geoPoint":{"lat":17.38405,"lon":78.45636}},{"facility":"Research Site","status":"NOT_YET_RECRUITING","city":"Hyderabad","zip":"500082","country":"India","geoPoint":{"lat":17.38405,"lon":78.45636}},{"facility":"Research Site","status":"RECRUITING","city":"Kolkata","zip":"700014","country":"India","geoPoint":{"lat":22.56263,"lon":88.36304}},{"facility":"Research Site","status":"RECRUITING","city":"Kolkata","zip":"700020","country":"India","geoPoint":{"lat":22.56263,"lon":88.36304}},{"facility":"Research Site","status":"RECRUITING","city":"Madurai","zip":"625107","country":"India","geoPoint":{"lat":9.91769,"lon":78.11898}},{"facility":"Research Site","status":"RECRUITING","city":"Mumbai","zip":"400026","country":"India","geoPoint":{"lat":19.07283,"lon":72.88261}},{"facility":"Research Site","status":"NOT_YET_RECRUITING","city":"New Delhi","zip":"110001","country":"India","geoPoint":{"lat":28.63576,"lon":77.22445}},{"facility":"Research Site","status":"RECRUITING","city":"New Delhi","zip":"110017","country":"India","geoPoint":{"lat":28.63576,"lon":77.22445}},{"facility":"Research Site","status":"NOT_YET_RECRUITING","city":"New Delhi","zip":"110029","country":"India","geoPoint":{"lat":28.63576,"lon":77.22445}},{"facility":"Research Site","status":"RECRUITING","city":"Pune","zip":"411013","country":"India","geoPoint":{"lat":18.51957,"lon":73.85535}},{"facility":"Research Site","status":"RECRUITING","city":"Vijayawada","zip":"520 008","country":"India","geoPoint":{"lat":16.50745,"lon":80.6466}},{"facility":"Research Site","status":"RECRUITING","city":"Vijayawada","zip":"522002","country":"India","geoPoint":{"lat":16.50745,"lon":80.6466}},{"facility":"Research Site","status":"NOT_YET_RECRUITING","city":"Afula","zip":"18101","country":"Israel","geoPoint":{"lat":32.60907,"lon":35.2892}},{"facility":"Research Site","status":"RECRUITING","city":"Ashdod","zip":"7747629","country":"Israel","geoPoint":{"lat":31.79211,"lon":34.64967}},{"facility":"Research Site","status":"RECRUITING","city":"Be'er Ya'akov","zip":"70300","country":"Israel"},{"facility":"Research Site","status":"RECRUITING","city":"Haifa","zip":"3109601","country":"Israel","geoPoint":{"lat":32.81841,"lon":34.9885}},{"facility":"Research Site","status":"RECRUITING","city":"Haifa","zip":"34362","country":"Israel","geoPoint":{"lat":32.81841,"lon":34.9885}},{"facility":"Research Site","status":"RECRUITING","city":"Jerusalem","zip":"91120","country":"Israel","geoPoint":{"lat":31.76904,"lon":35.21633}},{"facility":"Research Site","status":"RECRUITING","city":"Kfar-Saba","zip":"44281","country":"Israel","geoPoint":{"lat":32.175,"lon":34.90694}},{"facility":"Research Site","status":"RECRUITING","city":"Nahariya","zip":"22100","country":"Israel","geoPoint":{"lat":33.00892,"lon":35.09814}},{"facility":"Research Site","status":"SUSPENDED","city":"Petah Tikva","zip":"49372","country":"Israel","geoPoint":{"lat":32.08707,"lon":34.88747}},{"facility":"Research Site","status":"NOT_YET_RECRUITING","city":"Rehovot","zip":"76100","country":"Israel","geoPoint":{"lat":31.89421,"lon":34.81199}},{"facility":"Research Site","status":"RECRUITING","city":"Tel Aviv","zip":"6423906","country":"Israel","geoPoint":{"lat":32.08088,"lon":34.78057}},{"facility":"Research Site","status":"WITHDRAWN","city":"Tiberias","zip":"15208","country":"Israel","geoPoint":{"lat":32.79221,"lon":35.53124}},{"facility":"Research Site","status":"NOT_YET_RECRUITING","city":"Bassano del Grappa","zip":"36031","country":"Italy","geoPoint":{"lat":45.76656,"lon":11.72739}},{"facility":"Research Site","status":"RECRUITING","city":"Bologna","zip":"40138","country":"Italy","geoPoint":{"lat":44.49381,"lon":11.33875}},{"facility":"Research Site","status":"NOT_YET_RECRUITING","city":"Desio","zip":"20832","country":"Italy","geoPoint":{"lat":45.61831,"lon":9.20249}},{"facility":"Research Site","status":"RECRUITING","city":"Foggia","zip":"71100","country":"Italy","geoPoint":{"lat":41.45845,"lon":15.55188}},{"facility":"Research Site","status":"RECRUITING","city":"Genoa","zip":"16132","country":"Italy","geoPoint":{"lat":44.40478,"lon":8.94438}},{"facility":"Research Site","status":"NOT_YET_RECRUITING","city":"Modena","zip":"41124","country":"Italy","geoPoint":{"lat":44.64783,"lon":10.92539}},{"facility":"Research Site","status":"NOT_YET_RECRUITING","city":"Napoli","zip":"80138","country":"Italy","geoPoint":{"lat":40.85216,"lon":14.26811}},{"facility":"Research Site","status":"RECRUITING","city":"Novara","zip":"28100","country":"Italy","geoPoint":{"lat":45.44694,"lon":8.62118}},{"facility":"Research Site","status":"RECRUITING","city":"Padova","zip":"35128","country":"Italy","geoPoint":{"lat":45.40797,"lon":11.88586}},{"facility":"Research Site","status":"RECRUITING","city":"Pavia","zip":"27100","country":"Italy","geoPoint":{"lat":45.19205,"lon":9.15917}},{"facility":"Research Site","status":"RECRUITING","city":"Pisa","zip":"56124","country":"Italy","geoPoint":{"lat":43.70853,"lon":10.4036}},{"facility":"Research Site","status":"RECRUITING","city":"Pordenone","zip":"33170","country":"Italy","geoPoint":{"lat":45.95689,"lon":12.66051}},{"facility":"Research Site","status":"RECRUITING","city":"Roma","zip":"00168","country":"Italy","geoPoint":{"lat":41.89193,"lon":12.51133}},{"facility":"Research Site","status":"RECRUITING","city":"Rozzano","zip":"20089","country":"Italy","geoPoint":{"lat":45.38193,"lon":9.1559}},{"facility":"Research Site","status":"NOT_YET_RECRUITING","city":"Torino","zip":"10126","country":"Italy","geoPoint":{"lat":45.07049,"lon":7.68682}},{"facility":"Research Site","status":"RECRUITING","city":"Tradate","zip":"21049","country":"Italy","geoPoint":{"lat":45.70843,"lon":8.90763}},{"facility":"Research Site","status":"NOT_YET_RECRUITING","city":"Aira-City","zip":"899-5421","country":"Japan","geoPoint":{"lat":31.77429,"lon":130.59208}},{"facility":"Research Site","status":"NOT_YET_RECRUITING","city":"Amagasaki-shi","zip":"660-8550","country":"Japan","geoPoint":{"lat":34.71667,"lon":135.41667}},{"facility":"Research Site","status":"NOT_YET_RECRUITING","city":"Beppu-shi","zip":"874-0011","country":"Japan","geoPoint":{"lat":33.27945,"lon":131.49751}},{"facility":"Research Site","status":"RECRUITING","city":"Chigasaki-shi","zip":"253-0044","country":"Japan","geoPoint":{"lat":35.33638,"lon":139.40434}},{"facility":"Research Site","status":"WITHDRAWN","city":"Fujinomiya-shi","zip":"418-0076","country":"Japan","geoPoint":{"lat":35.21667,"lon":138.61667}},{"facility":"Research Site","status":"NOT_YET_RECRUITING","city":"Hakodate-shi","zip":"041-8680","country":"Japan","geoPoint":{"lat":41.77583,"lon":140.73667}},{"facility":"Research Site","status":"NOT_YET_RECRUITING","city":"Hamamatsu-shi","zip":"432-8580","country":"Japan","geoPoint":{"lat":34.7,"lon":137.73333}},{"facility":"Research Site","status":"NOT_YET_RECRUITING","city":"Higashihiroshima-shi","zip":"739-0041","country":"Japan","geoPoint":{"lat":34.40861,"lon":132.73682}},{"facility":"Research Site","status":"NOT_YET_RECRUITING","city":"Iizuka-shi","zip":"820-8505","country":"Japan","geoPoint":{"lat":33.63654,"lon":130.68678}},{"facility":"Research Site","status":"NOT_YET_RECRUITING","city":"Inashiki-gun","zip":"300-0395","country":"Japan","geoPoint":{"lat":35.95633,"lon":140.32356}},{"facility":"Research Site","status":"NOT_YET_RECRUITING","city":"Itabashi-ku","zip":"173-0015","country":"Japan","geoPoint":{"lat":35.74893,"lon":139.71497}},{"facility":"Research Site","status":"NOT_YET_RECRUITING","city":"Iwata-shi","zip":"438-8550","country":"Japan","geoPoint":{"lat":34.7,"lon":137.85}},{"facility":"Research Site","status":"NOT_YET_RECRUITING","city":"Kagoshima","zip":"890-0073","country":"Japan","geoPoint":{"lat":31.56667,"lon":130.55}},{"facility":"Research Site","status":"RECRUITING","city":"Kamakura-shi","zip":"247-0056","country":"Japan","geoPoint":{"lat":35.30889,"lon":139.55028}},{"facility":"Research Site","status":"RECRUITING","city":"Kanazawa-shi","zip":"920-8530","country":"Japan","geoPoint":{"lat":36.6,"lon":136.61667}},{"facility":"Research Site","status":"RECRUITING","city":"Kashiwara-shi","zip":"582-0005","country":"Japan","geoPoint":{"lat":34.45,"lon":135.76667}},{"facility":"Research Site","status":"RECRUITING","city":"Kasugai-shi","zip":"486-8510","country":"Japan","geoPoint":{"lat":35.24762,"lon":136.97229}},{"facility":"Research Site","status":"NOT_YET_RECRUITING","city":"Kita-ku","zip":"144-0001","country":"Japan"},{"facility":"Research Site","status":"NOT_YET_RECRUITING","city":"Kitakyushu-shi","zip":"807-0857","country":"Japan","geoPoint":{"lat":33.85181,"lon":130.85034}},{"facility":"Research Site","status":"RECRUITING","city":"Kitakyushu","zip":"802-8555","country":"Japan","geoPoint":{"lat":33.85181,"lon":130.85034}},{"facility":"Research Site","status":"NOT_YET_RECRUITING","city":"Kobe-shi","zip":"650-0017","country":"Japan","geoPoint":{"lat":34.6913,"lon":135.183}},{"facility":"Research Site","status":"RECRUITING","city":"Kumagaya-shi","zip":"360-0197","country":"Japan","geoPoint":{"lat":36.13497,"lon":139.39004}},{"facility":"Research Site","status":"NOT_YET_RECRUITING","city":"Kurashiki shi","zip":"701 0192","country":"Japan","geoPoint":{"lat":34.58333,"lon":133.76667}},{"facility":"Research Site","status":"NOT_YET_RECRUITING","city":"Kuse-gun","zip":"613-0034","country":"Japan"},{"facility":"Research Site","status":"RECRUITING","city":"Kuwana-shi","zip":"511-0061","country":"Japan","geoPoint":{"lat":35.05192,"lon":136.66958}},{"facility":"Research Site","status":"NOT_YET_RECRUITING","city":"Kyoto-shi","zip":"604-8845","country":"Japan","geoPoint":{"lat":35.02107,"lon":135.75385}},{"facility":"Research Site","status":"NOT_YET_RECRUITING","city":"Kyoto-shi","zip":"612-8555","country":"Japan","geoPoint":{"lat":35.02107,"lon":135.75385}},{"facility":"Research Site","status":"NOT_YET_RECRUITING","city":"Matsusaka-shi","zip":"515-8557","country":"Japan"},{"facility":"Research Site","status":"NOT_YET_RECRUITING","city":"Matsuyama-city","zip":"790-0024","country":"Japan","geoPoint":{"lat":33.83916,"lon":132.76574}},{"facility":"Research Site","status":"NOT_YET_RECRUITING","city":"Meguro-ku","zip":"153-0051","country":"Japan","geoPoint":{"lat":42.12755,"lon":143.31736}},{"facility":"Research Site","status":"NOT_YET_RECRUITING","city":"Minato-ku","zip":"105-8471","country":"Japan","geoPoint":{"lat":34.2152,"lon":135.1501}},{"facility":"Research Site","status":"NOT_YET_RECRUITING","city":"Minato-ku","zip":"108-0073","country":"Japan","geoPoint":{"lat":34.2152,"lon":135.1501}},{"facility":"Research Site","status":"RECRUITING","city":"Minokamo shi","zip":"505-8510","country":"Japan","geoPoint":{"lat":35.48199,"lon":137.02166}},{"facility":"Research Site","status":"NOT_YET_RECRUITING","city":"Miyakonojo-shi","zip":"885-0035","country":"Japan","geoPoint":{"lat":31.73333,"lon":131.06667}},{"facility":"Research Site","status":"NOT_YET_RECRUITING","city":"Morioka-shi","zip":"020-0066","country":"Japan","geoPoint":{"lat":39.7,"lon":141.15}},{"facility":"Research Site","status":"NOT_YET_RECRUITING","city":"Nagaoka-shi","zip":"940-8621","country":"Japan","geoPoint":{"lat":37.45,"lon":138.85}},{"facility":"Research Site","status":"NOT_YET_RECRUITING","city":"Naka","zip":"311-0113","country":"Japan","geoPoint":{"lat":36.05,"lon":140.16667}},{"facility":"Research Site","status":"NOT_YET_RECRUITING","city":"Narita-shi","zip":"286-8520","country":"Japan","geoPoint":{"lat":35.78333,"lon":140.31667}},{"facility":"Research Site","status":"NOT_YET_RECRUITING","city":"Obihiro-shi","zip":"080-0848","country":"Japan","geoPoint":{"lat":42.91722,"lon":143.20444}},{"facility":"Research Site","status":"RECRUITING","city":"Oita-shi","zip":"870-0039","country":"Japan","geoPoint":{"lat":33.23333,"lon":131.6}},{"facility":"Research Site","status":"NOT_YET_RECRUITING","city":"Ome","zip":"198-0042","country":"Japan","geoPoint":{"lat":35.78389,"lon":139.24306}},{"facility":"Research Site","status":"NOT_YET_RECRUITING","city":"Omihachiman-shi","zip":"523-0082","country":"Japan","geoPoint":{"lat":35.12861,"lon":136.0976}},{"facility":"Research Site","status":"WITHDRAWN","city":"Osaka-shi","zip":"534-0021","country":"Japan","geoPoint":{"lat":34.69374,"lon":135.50218}},{"facility":"Research Site","status":"NOT_YET_RECRUITING","city":"Osaka-shi","zip":"543-0035","country":"Japan","geoPoint":{"lat":34.69374,"lon":135.50218}},{"facility":"Research Site","status":"RECRUITING","city":"Osaka-shi","zip":"558-8558","country":"Japan","geoPoint":{"lat":34.69374,"lon":135.50218}},{"facility":"Research Site","status":"RECRUITING","city":"Osaka-shi","zip":"559-0012","country":"Japan","geoPoint":{"lat":34.69374,"lon":135.50218}},{"facility":"Research Site","status":"RECRUITING","city":"Osaka","zip":"553-0003","country":"Japan","geoPoint":{"lat":34.69374,"lon":135.50218}},{"facility":"Research Site","status":"NOT_YET_RECRUITING","city":"Saga-shi","zip":"849-8501","country":"Japan","geoPoint":{"lat":33.23333,"lon":130.3}},{"facility":"Research Site","status":"RECRUITING","city":"Sapporo-shi","zip":"003-0026","country":"Japan","geoPoint":{"lat":43.06667,"lon":141.35}},{"facility":"Research Site","status":"NOT_YET_RECRUITING","city":"Sapporo-shi","zip":"060-0061","country":"Japan","geoPoint":{"lat":43.06667,"lon":141.35}},{"facility":"Research Site","status":"NOT_YET_RECRUITING","city":"Sapporo-shi","zip":"062-0921","country":"Japan","geoPoint":{"lat":43.06667,"lon":141.35}},{"facility":"Research Site","status":"NOT_YET_RECRUITING","city":"Sendai-shi","zip":"980-8574","country":"Japan","geoPoint":{"lat":38.26667,"lon":140.86667}},{"facility":"Research Site","status":"NOT_YET_RECRUITING","city":"Sendai-shi","zip":"981-3281","country":"Japan","geoPoint":{"lat":38.26667,"lon":140.86667}},{"facility":"Research Site","status":"RECRUITING","city":"Shibuya-ku","zip":"151-8528","country":"Japan","geoPoint":{"lat":35.469,"lon":140.29807}},{"facility":"Research Site","status":"NOT_YET_RECRUITING","city":"Tanabe-shi","zip":"646-8558","country":"Japan","geoPoint":{"lat":33.73333,"lon":135.36667}},{"facility":"Research Site","status":"NOT_YET_RECRUITING","city":"Toyoake-shi","zip":"470-1192","country":"Japan","geoPoint":{"lat":35.038,"lon":136.99931}},{"facility":"Research Site","status":"NOT_YET_RECRUITING","city":"Toyohashi-shi","zip":"441-8570","country":"Japan","geoPoint":{"lat":34.76667,"lon":137.38333}},{"facility":"Research Site","status":"NOT_YET_RECRUITING","city":"Tsu-shi","zip":"514-8507","country":"Japan","geoPoint":{"lat":34.73333,"lon":136.51667}},{"facility":"Research Site","status":"NOT_YET_RECRUITING","city":"Yaizu-shi","zip":"425-8505","country":"Japan","geoPoint":{"lat":34.86876,"lon":138.31951}},{"facility":"Research Site","status":"NOT_YET_RECRUITING","city":"Yokohama-shi","zip":"236-0004","country":"Japan","geoPoint":{"lat":35.43333,"lon":139.65}},{"facility":"Research Site","status":"NOT_YET_RECRUITING","city":"Yoshida-gun","zip":"910-1193","country":"Japan"},{"facility":"Research Site","status":"NOT_YET_RECRUITING","city":"Ansan-si","zip":"15355","country":"Korea, Republic of","geoPoint":{"lat":37.32361,"lon":126.82194}},{"facility":"Research Site","status":"NOT_YET_RECRUITING","city":"Anyang-si","zip":"14068","country":"Korea, Republic of","geoPoint":{"lat":37.3925,"lon":126.92694}},{"facility":"Research Site","status":"NOT_YET_RECRUITING","city":"Busan","zip":"49241","country":"Korea, Republic of","geoPoint":{"lat":35.10278,"lon":129.04028}},{"facility":"Research Site","status":"RECRUITING","city":"Cheonan-si","zip":"31151","country":"Korea, Republic of"},{"facility":"Research Site","status":"NOT_YET_RECRUITING","city":"Goyang-si","zip":"10380","country":"Korea, Republic of","geoPoint":{"lat":37.65639,"lon":126.835}},{"facility":"Research Site","status":"NOT_YET_RECRUITING","city":"Gwangju","zip":"61469","country":"Korea, Republic of","geoPoint":{"lat":35.15472,"lon":126.91556}},{"facility":"Research Site","status":"NOT_YET_RECRUITING","city":"Seongnam-si","zip":"13620","country":"Korea, Republic of","geoPoint":{"lat":37.43861,"lon":127.13778}},{"facility":"Research Site","status":"NOT_YET_RECRUITING","city":"Seoul","zip":"03722","country":"Korea, Republic of","geoPoint":{"lat":37.566,"lon":126.9784}},{"facility":"Research Site","status":"NOT_YET_RECRUITING","city":"Seoul","zip":"04401","country":"Korea, Republic of","geoPoint":{"lat":37.566,"lon":126.9784}},{"facility":"Research Site","status":"RECRUITING","city":"Seoul","zip":"07061","country":"Korea, Republic of","geoPoint":{"lat":37.566,"lon":126.9784}},{"facility":"Research Site","status":"RECRUITING","city":"Wonju-si","zip":"26426","country":"Korea, Republic of"},{"facility":"Research Site","status":"NOT_YET_RECRUITING","city":"Yangsan-si","zip":"50612","country":"Korea, Republic of"},{"facility":"Research Site","status":"RECRUITING","city":"Ampang","zip":"68000","country":"Malaysia"},{"facility":"Research Site","status":"NOT_YET_RECRUITING","city":"Cheras","zip":"56000","country":"Malaysia","geoPoint":{"lat":3.05,"lon":101.76667}},{"facility":"Research Site","status":"RECRUITING","city":"Ipoh","zip":"30990","country":"Malaysia","geoPoint":{"lat":4.5841,"lon":101.0829}},{"facility":"Research Site","status":"RECRUITING","city":"Kajang","zip":"43000","country":"Malaysia","geoPoint":{"lat":2.99424,"lon":101.78875}},{"facility":"Research Site","status":"NOT_YET_RECRUITING","city":"Kota Bharu","zip":"15586","country":"Malaysia","geoPoint":{"lat":6.13328,"lon":102.2386}},{"facility":"Research Site","status":"RECRUITING","city":"Kuala Lumpur","zip":"59100","country":"Malaysia","geoPoint":{"lat":3.1412,"lon":101.68653}},{"facility":"Research Site","status":"RECRUITING","city":"Seremban","zip":"70300","country":"Malaysia","geoPoint":{"lat":2.7297,"lon":101.9381}},{"facility":"Research Site","status":"RECRUITING","city":"Seri Manjung","zip":"32040","country":"Malaysia","geoPoint":{"lat":4.1987,"lon":100.67}},{"facility":"Research Site","status":"NOT_YET_RECRUITING","city":"Chihuahua","zip":"31000","country":"Mexico","geoPoint":{"lat":28.63528,"lon":-106.08889}},{"facility":"Research Site","status":"NOT_YET_RECRUITING","city":"Cuauhtemoc","zip":"06700","country":"Mexico","geoPoint":{"lat":19.44506,"lon":-99.14612}},{"facility":"Research Site","status":"NOT_YET_RECRUITING","city":"Cuauhtémoc","zip":"06700","country":"Mexico","geoPoint":{"lat":19.44506,"lon":-99.14612}},{"facility":"Research Site","status":"NOT_YET_RECRUITING","city":"D.F","zip":"14000","country":"Mexico","geoPoint":{"lat":19.42847,"lon":-99.12766}},{"facility":"Research Site","status":"NOT_YET_RECRUITING","city":"Durango","zip":"34000","country":"Mexico","geoPoint":{"lat":24.02032,"lon":-104.65756}},{"facility":"Research Site","status":"NOT_YET_RECRUITING","city":"Guadalajara","zip":"44670","country":"Mexico","geoPoint":{"lat":20.66682,"lon":-103.39182}},{"facility":"Research Site","status":"NOT_YET_RECRUITING","city":"Guadalajara","zip":"44690","country":"Mexico","geoPoint":{"lat":20.66682,"lon":-103.39182}},{"facility":"Research Site","status":"NOT_YET_RECRUITING","city":"Mazatlán","zip":"82000","country":"Mexico","geoPoint":{"lat":23.2329,"lon":-106.4062}},{"facility":"Research Site","status":"NOT_YET_RECRUITING","city":"Mazatlán","zip":"82110","country":"Mexico","geoPoint":{"lat":23.2329,"lon":-106.4062}},{"facility":"Research Site","status":"NOT_YET_RECRUITING","city":"Merida","zip":"97130","country":"Mexico","geoPoint":{"lat":20.97537,"lon":-89.61696}},{"facility":"Research Site","status":"NOT_YET_RECRUITING","city":"San Luis Potosí","zip":"78250","country":"Mexico","geoPoint":{"lat":22.14982,"lon":-100.97916}},{"facility":"Research Site","status":"NOT_YET_RECRUITING","city":"Veracruz","zip":"91855","country":"Mexico","geoPoint":{"lat":19.18095,"lon":-96.1429}},{"facility":"Research Site","status":"NOT_YET_RECRUITING","city":"Zapopan","zip":"45138","country":"Mexico","geoPoint":{"lat":20.72356,"lon":-103.38479}},{"facility":"Research Site","status":"RECRUITING","city":"Amersfoort","zip":"3813 TZ","country":"Netherlands","geoPoint":{"lat":52.155,"lon":5.3875}},{"facility":"Research Site","status":"NOT_YET_RECRUITING","city":"Amsterdam","zip":"1105 AZ","country":"Netherlands","geoPoint":{"lat":52.37403,"lon":4.88969}},{"facility":"Research Site","status":"NOT_YET_RECRUITING","city":"Dordrecht","zip":"3318 AT","country":"Netherlands","geoPoint":{"lat":51.81,"lon":4.67361}},{"facility":"Research Site","status":"RECRUITING","city":"Groningen","zip":"9713 GZ","country":"Netherlands","geoPoint":{"lat":53.21917,"lon":6.56667}},{"facility":"Research Site","status":"RECRUITING","city":"Hilversum","zip":"1212 VG","country":"Netherlands","geoPoint":{"lat":52.22333,"lon":5.17639}},{"facility":"Research Site","status":"NOT_YET_RECRUITING","city":"Leiden","zip":"2333 ZA","country":"Netherlands","geoPoint":{"lat":52.15833,"lon":4.49306}},{"facility":"Research Site","status":"NOT_YET_RECRUITING","city":"Maastricht","zip":"6229 HX","country":"Netherlands","geoPoint":{"lat":50.84833,"lon":5.68889}},{"facility":"Research Site","status":"RECRUITING","city":"Nieuwegein","zip":"3435 CM","country":"Netherlands","geoPoint":{"lat":52.02917,"lon":5.08056}},{"facility":"Research Site","status":"NOT_YET_RECRUITING","city":"Zwolle","zip":"8025 AB","country":"Netherlands","geoPoint":{"lat":52.5125,"lon":6.09444}},{"facility":"Research Site","status":"NOT_YET_RECRUITING","city":"Arequipa","zip":"AREQUIPA01","country":"Peru","geoPoint":{"lat":-16.39889,"lon":-71.535}},{"facility":"Research Site","status":"NOT_YET_RECRUITING","city":"Bellavista","zip":"CALLAO 2","country":"Peru","geoPoint":{"lat":-7.05614,"lon":-76.5911}},{"facility":"Research Site","status":"NOT_YET_RECRUITING","city":"Chorrillos","zip":"Lima 9","country":"Peru"},{"facility":"Research Site","status":"NOT_YET_RECRUITING","city":"Lima","zip":"14","country":"Peru","geoPoint":{"lat":-12.04318,"lon":-77.02824}},{"facility":"Research Site","status":"NOT_YET_RECRUITING","city":"Lima","zip":"15036","country":"Peru","geoPoint":{"lat":-12.04318,"lon":-77.02824}},{"facility":"Research Site","status":"NOT_YET_RECRUITING","city":"Lima","zip":"15046","country":"Peru","geoPoint":{"lat":-12.04318,"lon":-77.02824}},{"facility":"Research Site","status":"NOT_YET_RECRUITING","city":"LIma","zip":"15074","country":"Peru","geoPoint":{"lat":-12.04318,"lon":-77.02824}},{"facility":"Research Site","status":"NOT_YET_RECRUITING","city":"Lima","zip":"15088","country":"Peru","geoPoint":{"lat":-12.04318,"lon":-77.02824}},{"facility":"Research Site","status":"NOT_YET_RECRUITING","city":"Lima","zip":"LIMA 01","country":"Peru","geoPoint":{"lat":-12.04318,"lon":-77.02824}},{"facility":"Research Site","status":"NOT_YET_RECRUITING","city":"Piura","zip":"20001","country":"Peru","geoPoint":{"lat":-5.19449,"lon":-80.63282}},{"facility":"Research Site","status":"NOT_YET_RECRUITING","city":"Cebu City","zip":"6000","country":"Philippines","geoPoint":{"lat":10.31672,"lon":123.89071}},{"facility":"Research Site","status":"NOT_YET_RECRUITING","city":"Davao City","zip":"PH-8000","country":"Philippines","geoPoint":{"lat":7.07306,"lon":125.61278}},{"facility":"Research Site","status":"NOT_YET_RECRUITING","city":"Iloilo City","zip":"5000","country":"Philippines","geoPoint":{"lat":10.69694,"lon":122.56444}},{"facility":"Research Site","status":"NOT_YET_RECRUITING","city":"Laguna","zip":"4024","country":"Philippines"},{"facility":"Research Site","status":"NOT_YET_RECRUITING","city":"Manila","zip":"1000","country":"Philippines","geoPoint":{"lat":14.6042,"lon":120.9822}},{"facility":"Research Site","status":"NOT_YET_RECRUITING","city":"Quezon City","zip":"1101","country":"Philippines","geoPoint":{"lat":14.6488,"lon":121.0509}},{"facility":"Research Site","status":"WITHDRAWN","city":"Quezon City","country":"Philippines","geoPoint":{"lat":14.6488,"lon":121.0509}},{"facility":"Research Site","status":"SUSPENDED","city":"San Fernando","zip":"2000","country":"Philippines","geoPoint":{"lat":15.03425,"lon":120.68445}},{"facility":"Research Site","status":"RECRUITING","city":"Białystok","zip":"15-540","country":"Poland","geoPoint":{"lat":53.13333,"lon":23.16433}},{"facility":"Research Site","status":"RECRUITING","city":"Gdynia","zip":"81-157","country":"Poland","geoPoint":{"lat":54.51889,"lon":18.53188}},{"facility":"Research Site","status":"NOT_YET_RECRUITING","city":"Gdynia","zip":"81-519","country":"Poland","geoPoint":{"lat":54.51889,"lon":18.53188}},{"facility":"Research Site","status":"RECRUITING","city":"Grodzisk Mazowiecki","zip":"05-825","country":"Poland","geoPoint":{"lat":52.10387,"lon":20.6337}},{"facility":"Research Site","status":"RECRUITING","city":"Jasło","zip":"38-200","country":"Poland","geoPoint":{"lat":49.74506,"lon":21.47252}},{"facility":"Research Site","status":"RECRUITING","city":"Katowice","zip":"40-600","country":"Poland","geoPoint":{"lat":50.25841,"lon":19.02754}},{"facility":"Research Site","status":"RECRUITING","city":"Katowice","zip":"40-648","country":"Poland","geoPoint":{"lat":50.25841,"lon":19.02754}},{"facility":"Research Site","status":"NOT_YET_RECRUITING","city":"Katowice","zip":"40-772","country":"Poland","geoPoint":{"lat":50.25841,"lon":19.02754}},{"facility":"Research Site","status":"NOT_YET_RECRUITING","city":"Krakow","zip":"31-261","country":"Poland","geoPoint":{"lat":50.06143,"lon":19.93658}},{"facility":"Research Site","status":"NOT_YET_RECRUITING","city":"Kraków","zip":"30-688","country":"Poland","geoPoint":{"lat":50.06143,"lon":19.93658}},{"facility":"Research Site","status":"RECRUITING","city":"Kraków","zip":"31-501","country":"Poland","geoPoint":{"lat":50.06143,"lon":19.93658}},{"facility":"Research Site","status":"NOT_YET_RECRUITING","city":"Kraków","zip":"31-513","country":"Poland","geoPoint":{"lat":50.06143,"lon":19.93658}},{"facility":"Research Site","status":"RECRUITING","city":"Lublin","zip":"20-718","country":"Poland","geoPoint":{"lat":51.25,"lon":22.56667}},{"facility":"Research Site","status":"WITHDRAWN","city":"Piaseczno","zip":"05-500","country":"Poland","geoPoint":{"lat":52.0814,"lon":21.02397}},{"facility":"Research Site","status":"NOT_YET_RECRUITING","city":"Poznań","zip":"60-309","country":"Poland","geoPoint":{"lat":52.40692,"lon":16.92993}},{"facility":"Research Site","status":"NOT_YET_RECRUITING","city":"Poznań","zip":"61-848","country":"Poland","geoPoint":{"lat":52.40692,"lon":16.92993}},{"facility":"Research Site","status":"RECRUITING","city":"Radom","zip":"26-600","country":"Poland","geoPoint":{"lat":51.40253,"lon":21.14714}},{"facility":"Research Site","status":"RECRUITING","city":"Rzeszów","zip":"35-055","country":"Poland","geoPoint":{"lat":50.04132,"lon":21.99901}},{"facility":"Research Site","status":"NOT_YET_RECRUITING","city":"Szczecin","zip":"70-111","country":"Poland","geoPoint":{"lat":53.42894,"lon":14.55302}},{"facility":"Research Site","status":"NOT_YET_RECRUITING","city":"Szczecin","zip":"71-434","country":"Poland","geoPoint":{"lat":53.42894,"lon":14.55302}},{"facility":"Research Site","status":"NOT_YET_RECRUITING","city":"Szczecin","zip":"71-526","country":"Poland","geoPoint":{"lat":53.42894,"lon":14.55302}},{"facility":"Research Site","status":"RECRUITING","city":"Tczew","zip":"83-110","country":"Poland","geoPoint":{"lat":54.09242,"lon":18.77787}},{"facility":"Research Site","status":"RECRUITING","city":"Warszawa","zip":"00-124","country":"Poland","geoPoint":{"lat":52.22977,"lon":21.01178}},{"facility":"Research Site","status":"NOT_YET_RECRUITING","city":"Warszawa","zip":"02-097","country":"Poland","geoPoint":{"lat":52.22977,"lon":21.01178}},{"facility":"Research Site","status":"RECRUITING","city":"Warszawa","zip":"02-507","country":"Poland","geoPoint":{"lat":52.22977,"lon":21.01178}},{"facility":"Research Site","status":"RECRUITING","city":"Warszawa","zip":"02-595","country":"Poland","geoPoint":{"lat":52.22977,"lon":21.01178}},{"facility":"Research Site","status":"NOT_YET_RECRUITING","city":"Warszawa","zip":"02-798","country":"Poland","geoPoint":{"lat":52.22977,"lon":21.01178}},{"facility":"Research Site","status":"RECRUITING","city":"Warszawa","zip":"03-291","country":"Poland","geoPoint":{"lat":52.22977,"lon":21.01178}},{"facility":"Research Site","status":"NOT_YET_RECRUITING","city":"Wrocław","zip":"50-304","country":"Poland","geoPoint":{"lat":51.1,"lon":17.03333}},{"facility":"Research Site","status":"RECRUITING","city":"Wrocław","zip":"53-673","country":"Poland","geoPoint":{"lat":51.1,"lon":17.03333}},{"facility":"Research Site","status":"RECRUITING","city":"Łódź","zip":"91-363","country":"Poland","geoPoint":{"lat":51.75,"lon":19.46667}},{"facility":"Research Site","status":"RECRUITING","city":"Łódź","zip":"92-213","country":"Poland","geoPoint":{"lat":51.75,"lon":19.46667}},{"facility":"Research Site","status":"NOT_YET_RECRUITING","city":"Świecie","zip":"86-100","country":"Poland","geoPoint":{"lat":53.40953,"lon":18.44742}},{"facility":"Research Site","status":"RECRUITING","city":"Żywiec","zip":"34-300","country":"Poland","geoPoint":{"lat":49.68529,"lon":19.19243}},{"facility":"Research Site","status":"WITHDRAWN","city":"Brasov","zip":"500073","country":"Romania","geoPoint":{"lat":45.64861,"lon":25.60613}},{"facility":"Research Site","status":"RECRUITING","city":"Bucharest","zip":"042122","country":"Romania","geoPoint":{"lat":44.43225,"lon":26.10626}},{"facility":"Research Site","status":"NOT_YET_RECRUITING","city":"Bucharest","zip":"22325","country":"Romania","geoPoint":{"lat":44.43225,"lon":26.10626}},{"facility":"Research Site","status":"NOT_YET_RECRUITING","city":"Bucharest","zip":"60044","country":"Romania","geoPoint":{"lat":44.43225,"lon":26.10626}},{"facility":"Research Site","status":"RECRUITING","city":"Bucuresti","zip":"22328","country":"Romania","geoPoint":{"lat":44.42802,"lon":26.09665}},{"facility":"Research Site","status":"NOT_YET_RECRUITING","city":"Cluj Napoca","zip":"400349","country":"Romania","geoPoint":{"lat":46.76667,"lon":23.6}},{"facility":"Research Site","status":"NOT_YET_RECRUITING","city":"Craiova","zip":"200349","country":"Romania","geoPoint":{"lat":44.31667,"lon":23.8}},{"facility":"Research Site","status":"NOT_YET_RECRUITING","city":"Craiova","zip":"200642","country":"Romania","geoPoint":{"lat":44.31667,"lon":23.8}},{"facility":"Research Site","status":"RECRUITING","city":"Oradea","zip":"410469","country":"Romania","geoPoint":{"lat":47.0458,"lon":21.91833}},{"facility":"Research Site","status":"NOT_YET_RECRUITING","city":"Suceava","zip":"720237","country":"Romania","geoPoint":{"lat":47.63333,"lon":26.25}},{"facility":"Research Site","status":"RECRUITING","city":"Timisoara","zip":"300723","country":"Romania","geoPoint":{"lat":45.75372,"lon":21.22571}},{"facility":"Research Site","status":"NOT_YET_RECRUITING","city":"Al-Ahsa","zip":"36428","country":"Saudi Arabia"},{"facility":"Research Site","status":"RECRUITING","city":"Dammam","zip":"31444","country":"Saudi Arabia","geoPoint":{"lat":26.43442,"lon":50.10326}},{"facility":"Research Site","status":"NOT_YET_RECRUITING","city":"Riyadh/MENA","zip":"11426","country":"Saudi Arabia"},{"facility":"Research Site","status":"WITHDRAWN","city":"Riyadh","zip":"11211","country":"Saudi Arabia","geoPoint":{"lat":24.68773,"lon":46.72185}},{"facility":"Research Site","status":"NOT_YET_RECRUITING","city":"Riyadh","zip":"11426","country":"Saudi Arabia","geoPoint":{"lat":24.68773,"lon":46.72185}},{"facility":"Research Site","status":"NOT_YET_RECRUITING","city":"Riyadh","zip":"11462","country":"Saudi Arabia","geoPoint":{"lat":24.68773,"lon":46.72185}},{"facility":"Research Site","status":"NOT_YET_RECRUITING","city":"Riyadh","zip":"12231","country":"Saudi Arabia","geoPoint":{"lat":24.68773,"lon":46.72185}},{"facility":"Research Site","status":"RECRUITING","city":"Belgrade","zip":"11000","country":"Serbia","geoPoint":{"lat":44.80401,"lon":20.46513}},{"facility":"Research Site","status":"NOT_YET_RECRUITING","city":"Belgrade","zip":"11000","country":"Serbia","geoPoint":{"lat":44.80401,"lon":20.46513}},{"facility":"Research Site","status":"RECRUITING","city":"Belgrade","zip":"11120","country":"Serbia","geoPoint":{"lat":44.80401,"lon":20.46513}},{"facility":"Research Site","status":"NOT_YET_RECRUITING","city":"Kragujevac","zip":"34000","country":"Serbia","geoPoint":{"lat":44.01667,"lon":20.91667}},{"facility":"Research Site","status":"RECRUITING","city":"Nis","zip":"18000","country":"Serbia","geoPoint":{"lat":43.32472,"lon":21.90333}},{"facility":"Research Site","status":"WITHDRAWN","city":"Novi Sad","zip":"21000","country":"Serbia","geoPoint":{"lat":45.25167,"lon":19.83694}},{"facility":"Research Site","status":"NOT_YET_RECRUITING","city":"Novi Sad","zip":"21000","country":"Serbia","geoPoint":{"lat":45.25167,"lon":19.83694}},{"facility":"Research Site","status":"RECRUITING","city":"Singapore","zip":"119074","country":"Singapore","geoPoint":{"lat":1.28967,"lon":103.85007}},{"facility":"Research Site","status":"RECRUITING","city":"Singapore","zip":"169608","country":"Singapore","geoPoint":{"lat":1.28967,"lon":103.85007}},{"facility":"Research Site","status":"RECRUITING","city":"Singapore","zip":"308433","country":"Singapore","geoPoint":{"lat":1.28967,"lon":103.85007}},{"facility":"Research Site","status":"RECRUITING","city":"Singapore","zip":"529889","country":"Singapore","geoPoint":{"lat":1.28967,"lon":103.85007}},{"facility":"Research Site","status":"NOT_YET_RECRUITING","city":"Košice","zip":"040 01","country":"Slovakia","geoPoint":{"lat":48.71395,"lon":21.25808}},{"facility":"Research Site","status":"WITHDRAWN","city":"Kráľovský Chlmec","zip":"077 01","country":"Slovakia","geoPoint":{"lat":48.42336,"lon":21.97944}},{"facility":"Research Site","status":"RECRUITING","city":"Myjava","zip":"90701","country":"Slovakia","geoPoint":{"lat":48.75876,"lon":17.56866}},{"facility":"Research Site","status":"RECRUITING","city":"Nitra","zip":"949 11","country":"Slovakia","geoPoint":{"lat":48.30763,"lon":18.08453}},{"facility":"Research Site","status":"WITHDRAWN","city":"Presov","zip":"080 01","country":"Slovakia","geoPoint":{"lat":48.99839,"lon":21.23393}},{"facility":"Research Site","status":"NOT_YET_RECRUITING","city":"Prešov","zip":"080 01","country":"Slovakia","geoPoint":{"lat":48.99839,"lon":21.23393}},{"facility":"Research Site","status":"RECRUITING","city":"Puchov","zip":"020 01","country":"Slovakia","geoPoint":{"lat":49.12494,"lon":18.32597}},{"facility":"Research Site","status":"RECRUITING","city":"Zilina","zip":"010 01","country":"Slovakia","geoPoint":{"lat":49.22315,"lon":18.73941}},{"facility":"Research Site","status":"RECRUITING","city":"Benoni","zip":"1501","country":"South Africa","geoPoint":{"lat":-26.18848,"lon":28.32078}},{"facility":"Research Site","status":"WITHDRAWN","city":"Bloemfontein","zip":"9301","country":"South Africa","geoPoint":{"lat":-29.12107,"lon":26.214}},{"facility":"Research Site","status":"RECRUITING","city":"Cape Town","zip":"7570","country":"South Africa","geoPoint":{"lat":-33.92584,"lon":18.42322}},{"facility":"Research Site","status":"RECRUITING","city":"Cape Town","zip":"7925","country":"South Africa","geoPoint":{"lat":-33.92584,"lon":18.42322}},{"facility":"Research Site","status":"RECRUITING","city":"Durban","zip":"4001","country":"South Africa","geoPoint":{"lat":-29.8579,"lon":31.0292}},{"facility":"Research Site","status":"WITHDRAWN","city":"Durban","zip":"4450","country":"South Africa","geoPoint":{"lat":-29.8579,"lon":31.0292}},{"facility":"Research Site","status":"RECRUITING","city":"Lenasia","zip":"1827","country":"South Africa","geoPoint":{"lat":-26.32052,"lon":27.83564}},{"facility":"Research Site","status":"RECRUITING","city":"Midrand","zip":"1685","country":"South Africa","geoPoint":{"lat":-25.98953,"lon":28.12843}},{"facility":"Research Site","status":"NOT_YET_RECRUITING","city":"Newton","zip":"2113","country":"South Africa"},{"facility":"Research Site","status":"WITHDRAWN","city":"Parow","zip":"7505","country":"South Africa","geoPoint":{"lat":-33.89723,"lon":18.59992}},{"facility":"Research Site","status":"RECRUITING","city":"A Coruña","zip":"15006","country":"Spain","geoPoint":{"lat":43.37135,"lon":-8.396}},{"facility":"Research Site","status":"RECRUITING","city":"Almeria","zip":"4009","country":"Spain","geoPoint":{"lat":36.83814,"lon":-2.45974}},{"facility":"Research Site","status":"RECRUITING","city":"Badalona","zip":"08916","country":"Spain","geoPoint":{"lat":41.45004,"lon":2.24741}},{"facility":"Research Site","status":"RECRUITING","city":"L'Hospitalet de Llobregat","zip":"08907","country":"Spain","geoPoint":{"lat":41.35967,"lon":2.10028}},{"facility":"Research Site","status":"RECRUITING","city":"Majadahonda","zip":"28222","country":"Spain","geoPoint":{"lat":40.47353,"lon":-3.87182}},{"facility":"Research Site","status":"RECRUITING","city":"Málaga","zip":"29010","country":"Spain","geoPoint":{"lat":36.72016,"lon":-4.42034}},{"facility":"Research Site","status":"RECRUITING","city":"Palma deMallorca","zip":"07010","country":"Spain","geoPoint":{"lat":39.56939,"lon":2.65024}},{"facility":"Research Site","status":"RECRUITING","city":"Pamplona","zip":"31008","country":"Spain","geoPoint":{"lat":42.81687,"lon":-1.64323}},{"facility":"Research Site","status":"RECRUITING","city":"Sevilla","zip":"41013","country":"Spain","geoPoint":{"lat":37.38283,"lon":-5.97317}},{"facility":"Research Site","status":"RECRUITING","city":"Sevilla","zip":"41071","country":"Spain","geoPoint":{"lat":37.38283,"lon":-5.97317}},{"facility":"Research Site","status":"RECRUITING","city":"Valencia","zip":"46010","country":"Spain","geoPoint":{"lat":39.46975,"lon":-0.37739}},{"facility":"Research Site","status":"RECRUITING","city":"Valencia","zip":"46017","country":"Spain","geoPoint":{"lat":39.46975,"lon":-0.37739}},{"facility":"Research Site","status":"NOT_YET_RECRUITING","city":"Danderyd","zip":"182 57","country":"Sweden","geoPoint":{"lat":59.3987,"lon":18.02942}},{"facility":"Research Site","status":"NOT_YET_RECRUITING","city":"Huddinge","zip":"141 57","country":"Sweden","geoPoint":{"lat":59.23705,"lon":17.98192}},{"facility":"Research Site","status":"NOT_YET_RECRUITING","city":"Karlstad","zip":"651 85","country":"Sweden","geoPoint":{"lat":59.3793,"lon":13.50357}},{"facility":"Research Site","status":"NOT_YET_RECRUITING","city":"Linköping","zip":"581 85","country":"Sweden","geoPoint":{"lat":58.41086,"lon":15.62157}},{"facility":"Research Site","status":"RECRUITING","city":"Uppsala","zip":"751 85","country":"Sweden","geoPoint":{"lat":59.85882,"lon":17.63889}},{"facility":"Research Site","status":"NOT_YET_RECRUITING","city":"Växjö","zip":"352 34","country":"Sweden","geoPoint":{"lat":56.87767,"lon":14.80906}},{"facility":"Research Site","status":"RECRUITING","city":"New Taipei","zip":"220","country":"Taiwan","geoPoint":{"lat":25.01111,"lon":121.44583}},{"facility":"Research Site","status":"RECRUITING","city":"Taichung City","zip":"433004","country":"Taiwan","geoPoint":{"lat":24.1469,"lon":120.6839}},{"facility":"Research Site","status":"RECRUITING","city":"Taichung","zip":"402","country":"Taiwan","geoPoint":{"lat":24.1469,"lon":120.6839}},{"facility":"Research Site","status":"RECRUITING","city":"Taipei City","zip":"110","country":"Taiwan","geoPoint":{"lat":25.04776,"lon":121.53185}},{"facility":"Research Site","status":"RECRUITING","city":"Taipei","zip":"10002","country":"Taiwan","geoPoint":{"lat":25.04776,"lon":121.53185}},{"facility":"Research Site","status":"RECRUITING","city":"Taipei","zip":"TAIWAN","country":"Taiwan","geoPoint":{"lat":25.04776,"lon":121.53185}},{"facility":"Research Site","status":"RECRUITING","city":"Taoyuan","zip":"333","country":"Taiwan","geoPoint":{"lat":24.95233,"lon":121.20193}},{"facility":"Research Site","status":"RECRUITING","city":"Yung Kang City","zip":"71044","country":"Taiwan"},{"facility":"Research Site","status":"RECRUITING","city":"Bangkok","zip":"10330","country":"Thailand","geoPoint":{"lat":13.75398,"lon":100.50144}},{"facility":"Research Site","status":"NOT_YET_RECRUITING","city":"Bangkok","zip":"10400","country":"Thailand","geoPoint":{"lat":13.75398,"lon":100.50144}},{"facility":"Research Site","status":"RECRUITING","city":"Bangkok","zip":"10700","country":"Thailand","geoPoint":{"lat":13.75398,"lon":100.50144}},{"facility":"Research Site","status":"NOT_YET_RECRUITING","city":"Banphaeo","zip":"74120","country":"Thailand"},{"facility":"Research Site","status":"RECRUITING","city":"Hat Yai","zip":"90110","country":"Thailand","geoPoint":{"lat":7.00836,"lon":100.47668}},{"facility":"Research Site","status":"RECRUITING","city":"Khon Kaen","zip":"40002","country":"Thailand","geoPoint":{"lat":16.44671,"lon":102.833}},{"facility":"Research Site","status":"RECRUITING","city":"Mueang","zip":"50200","country":"Thailand"},{"facility":"Research Site","status":"RECRUITING","city":"Phutthamonthon","zip":"73170","country":"Thailand"},{"facility":"Research Site","status":"RECRUITING","city":"Ubonratchathani","zip":"34000","country":"Thailand"},{"facility":"Research Site","status":"NOT_YET_RECRUITING","city":"Adana","zip":"01060","country":"Turkey","geoPoint":{"lat":37.00167,"lon":35.32889}},{"facility":"Research Site","status":"RECRUITING","city":"Adapazarı","zip":"54100","country":"Turkey","geoPoint":{"lat":40.78056,"lon":30.40333}},{"facility":"Research Site","status":"RECRUITING","city":"Altındağ","zip":"06230","country":"Turkey"},{"facility":"Research Site","status":"NOT_YET_RECRUITING","city":"Ankara","zip":"06530","country":"Turkey","geoPoint":{"lat":39.91987,"lon":32.85427}},{"facility":"Research Site","status":"RECRUITING","city":"Antalya","zip":"07100","country":"Turkey","geoPoint":{"lat":36.90812,"lon":30.69556}},{"facility":"Research Site","status":"RECRUITING","city":"Haliliye","zip":"63040","country":"Turkey"},{"facility":"Research Site","status":"RECRUITING","city":"Kahramanmaras","zip":"46040","country":"Turkey","geoPoint":{"lat":37.5847,"lon":36.92641}},{"facility":"Research Site","status":"RECRUITING","city":"Kayseri","zip":"38039","country":"Turkey","geoPoint":{"lat":38.73222,"lon":35.48528}},{"facility":"Research Site","status":"RECRUITING","city":"Kocaeli","zip":"41380","country":"Turkey","geoPoint":{"lat":39.62497,"lon":27.51145}},{"facility":"Research Site","status":"RECRUITING","city":"Sahinbey","zip":"27310","country":"Turkey"},{"facility":"Research Site","status":"RECRUITING","city":"Chernivtsі","zip":"58002","country":"Ukraine"},{"facility":"Research Site","status":"RECRUITING","city":"Ivano-Frankivsk","zip":"76008","country":"Ukraine","geoPoint":{"lat":48.9215,"lon":24.70972}},{"facility":"Research Site","status":"RECRUITING","city":"Kyiv","zip":"01601","country":"Ukraine","geoPoint":{"lat":50.45466,"lon":30.5238}},{"facility":"Research Site","status":"RECRUITING","city":"Kyiv","zip":"03037","country":"Ukraine","geoPoint":{"lat":50.45466,"lon":30.5238}},{"facility":"Research Site","status":"RECRUITING","city":"Kyiv","zip":"03049","country":"Ukraine","geoPoint":{"lat":50.45466,"lon":30.5238}},{"facility":"Research Site","status":"RECRUITING","city":"Kyiv","zip":"03057","country":"Ukraine","geoPoint":{"lat":50.45466,"lon":30.5238}},{"facility":"Research Site","status":"RECRUITING","city":"Kyiv","zip":"04050","country":"Ukraine","geoPoint":{"lat":50.45466,"lon":30.5238}},{"facility":"Research Site","status":"RECRUITING","city":"Ternopil","zip":"46000","country":"Ukraine","geoPoint":{"lat":49.55589,"lon":25.60556}},{"facility":"Research Site","status":"RECRUITING","city":"Ternopil","zip":"46001","country":"Ukraine","geoPoint":{"lat":49.55589,"lon":25.60556}},{"facility":"Research Site","status":"RECRUITING","city":"Uzhhorod","zip":"88018","country":"Ukraine","geoPoint":{"lat":48.61667,"lon":22.3}},{"facility":"Research Site","status":"RECRUITING","city":"Vinnytsia","zip":"21009","country":"Ukraine","geoPoint":{"lat":49.23278,"lon":28.48097}},{"facility":"Research Site","status":"RECRUITING","city":"Vinnytsia","zip":"21029","country":"Ukraine","geoPoint":{"lat":49.23278,"lon":28.48097}},{"facility":"Research Site","status":"RECRUITING","city":"Vinnytsya","zip":"21001","country":"Ukraine","geoPoint":{"lat":49.23278,"lon":28.48097}},{"facility":"Research Site","status":"RECRUITING","city":"Zhytomyr","zip":"10002","country":"Ukraine","geoPoint":{"lat":50.26487,"lon":28.67669}},{"facility":"Research Site","status":"RECRUITING","city":"Bradford","zip":"BND9 6RJ","country":"United Kingdom","geoPoint":{"lat":53.79391,"lon":-1.75206}},{"facility":"Research Site","status":"NOT_YET_RECRUITING","city":"Bristol","zip":"BS105NB","country":"United Kingdom","geoPoint":{"lat":51.45523,"lon":-2.59665}},{"facility":"Research Site","status":"RECRUITING","city":"Canterbury","zip":"CT1 3NG","country":"United Kingdom","geoPoint":{"lat":51.27904,"lon":1.07992}},{"facility":"Research Site","status":"RECRUITING","city":"Cardiff","zip":"CF14 4XW","country":"United Kingdom","geoPoint":{"lat":51.48,"lon":-3.18}},{"facility":"Research Site","status":"RECRUITING","city":"Dundee","zip":"DD1 9SY","country":"United Kingdom","geoPoint":{"lat":56.46913,"lon":-2.97489}},{"facility":"Research Site","status":"RECRUITING","city":"Glasgow","zip":"G51 4TF","country":"United Kingdom","geoPoint":{"lat":55.86515,"lon":-4.25763}},{"facility":"Research Site","status":"RECRUITING","city":"Hownslow","zip":"TW3 3LN","country":"United Kingdom"},{"facility":"Research Site","status":"RECRUITING","city":"London","zip":"E1 1BB","country":"United Kingdom","geoPoint":{"lat":51.50853,"lon":-0.12574}},{"facility":"Research Site","status":"RECRUITING","city":"London","zip":"SE5 9RS","country":"United Kingdom","geoPoint":{"lat":51.50853,"lon":-0.12574}},{"facility":"Research Site","status":"RECRUITING","city":"Salford","zip":"M6 8HD","country":"United Kingdom","geoPoint":{"lat":53.48771,"lon":-2.29042}},{"facility":"Research Site","status":"WITHDRAWN","city":"Southampton","zip":"SO16 6YD","country":"United Kingdom","geoPoint":{"lat":50.90395,"lon":-1.40428}},{"facility":"Research Site","status":"RECRUITING","city":"Swansea","zip":"SN6 6NL","country":"United Kingdom","geoPoint":{"lat":51.62079,"lon":-3.94323}},{"facility":"Research Site","status":"NOT_YET_RECRUITING","city":"Da Nang","zip":"550000","country":"Vietnam","geoPoint":{"lat":16.06778,"lon":108.22083}},{"facility":"Research Site","status":"NOT_YET_RECRUITING","city":"Hai Phong","zip":"180000","country":"Vietnam","geoPoint":{"lat":20.86481,"lon":106.68345}},{"facility":"Research Site","status":"NOT_YET_RECRUITING","city":"Hanoi","zip":"10000","country":"Vietnam","geoPoint":{"lat":21.0245,"lon":105.84117}},{"facility":"Research Site","status":"NOT_YET_RECRUITING","city":"Hcmc","zip":"700000","country":"Vietnam"},{"facility":"Research Site","status":"NOT_YET_RECRUITING","city":"Ho Chi Minh City","zip":"700000","country":"Vietnam","geoPoint":{"lat":10.82302,"lon":106.62965}},{"facility":"Research Site","status":"NOT_YET_RECRUITING","city":"Ho Chi Minh City","zip":"70000","country":"Vietnam","geoPoint":{"lat":10.82302,"lon":106.62965}},{"facility":"Research Site","status":"NOT_YET_RECRUITING","city":"Ho Chi Minh","zip":"700000","country":"Vietnam","geoPoint":{"lat":10.82302,"lon":106.62965}}]},"ipdSharingStatementModule":{"ipdSharing":"YES","description":"Qualified researchers can request access to anonymized individual patient-level data from AstraZeneca group of companies sponsored clinical trials via the request portal Vivli.org. All requests will be evaluated as per the AZ disclosure commitment:\n\nhttps://astrazenecagrouptrials.pharmacm.com/ST/Submission/Disclosure.\n\n\"Yes\", indicates that AZ are accepting requests for IPD, but this does not mean all requests will be approved.","infoTypes":["STUDY_PROTOCOL","SAP"],"timeFrame":"AstraZeneca will meet or exceed data availability as per the commitments made to the EFPIA/PhRMA Data-Sharing Principles. For details of our timelines, please refer to our disclosure commitment at:\n\nhttps://astrazenecagrouptrials.pharmacm.com/ST/Submission/Disclosure","accessCriteria":"When a request has been approved AstraZeneca will provide access to the anonymized individual patient-level data via secure research environment Vivli.org. A Signed Data Usage Agreement (non-negotiable contract for data accessors) must be in place before accessing requested information.","url":"https://vivli.org/"}},"derivedSection":{"miscInfoModule":{"versionHolder":"2025-07-07"},"conditionBrowseModule":{"meshes":[{"id":"D007674","term":"Kidney Diseases"},{"id":"D051436","term":"Renal Insufficiency, Chronic"},{"id":"D006973","term":"Hypertension"}],"ancestors":[{"id":"D014652","term":"Vascular Diseases"},{"id":"D002318","term":"Cardiovascular Diseases"},{"id":"D014570","term":"Urologic Diseases"},{"id":"D052776","term":"Female Urogenital Diseases"},{"id":"D005261","term":"Female Urogenital Diseases and Pregnancy Complications"},{"id":"D000091642","term":"Urogenital Diseases"},{"id":"D052801","term":"Male Urogenital Diseases"},{"id":"D051437","term":"Renal Insufficiency"},{"id":"D002908","term":"Chronic Disease"},{"id":"D020969","term":"Disease Attributes"},{"id":"D010335","term":"Pathologic Processes"}],"browseLeaves":[{"id":"M10698","name":"Kidney Diseases","asFound":"Kidney Disease","relevance":"HIGH"},{"id":"M10024","name":"Hypertension","asFound":"High Blood Pressure","relevance":"HIGH"},{"id":"M26717","name":"Renal Insufficiency, Chronic","asFound":"Chronic Kidney Disease","relevance":"HIGH"},{"id":"M26718","name":"Renal Insufficiency","relevance":"LOW"},{"id":"M17400","name":"Vascular Diseases","relevance":"LOW"},{"id":"M17319","name":"Urologic Diseases","relevance":"LOW"},{"id":"M2875","name":"Urogenital Diseases","relevance":"LOW"},{"id":"M27093","name":"Female Urogenital Diseases","relevance":"LOW"},{"id":"M14127","name":"Pregnancy Complications","relevance":"LOW"},{"id":"M8399","name":"Female Urogenital Diseases and Pregnancy Complications","relevance":"LOW"},{"id":"M27095","name":"Male Urogenital Diseases","relevance":"LOW"},{"id":"M6147","name":"Chronic Disease","relevance":"LOW"},{"id":"M22700","name":"Disease Attributes","relevance":"LOW"},{"id":"T1303","name":"Chronic Graft Versus Host Disease","asFound":"Chronic","relevance":"HIGH"}],"browseBranches":[{"abbrev":"BXS","name":"Urinary Tract, Sexual Organs, and Pregnancy Conditions"},{"abbrev":"All","name":"All Conditions"},{"abbrev":"BC14","name":"Heart and Blood Diseases"},{"abbrev":"BC23","name":"Symptoms and General Pathology"},{"abbrev":"Rare","name":"Rare Diseases"}]},"interventionBrowseModule":{"meshes":[{"id":"C529054","term":"Dapagliflozin"}],"ancestors":[{"id":"D000077203","term":"Sodium-Glucose Transporter 2 Inhibitors"},{"id":"D045504","term":"Molecular Mechanisms of Pharmacological Action"},{"id":"D007004","term":"Hypoglycemic Agents"},{"id":"D045505","term":"Physiological Effects of Drugs"}],"browseLeaves":[{"id":"M348449","name":"Dapagliflozin","asFound":"1 hour","relevance":"HIGH"},{"id":"M1691","name":"Sodium-Glucose Transporter 2 Inhibitors","relevance":"LOW"},{"id":"M10054","name":"Hypoglycemic Agents","relevance":"LOW"}],"browseBranches":[{"abbrev":"Hypo","name":"Hypoglycemic Agents"},{"abbrev":"All","name":"All Drugs and Chemicals"}]}},"hasResults":false}