{"protocolSection":{"identificationModule":{"nctId":"NCT04529122","orgStudyIdInfo":{"id":"MX39897"},"organization":{"fullName":"Hoffmann-La Roche","class":"INDUSTRY"},"briefTitle":"A Worldwide Cancer Registry Enrolling Participants Profiled With a Next-Generation Sequencing Test","officialTitle":"A Registry to Collect Characteristics and Outcomes From Patients With Solid Tumors Profiled With a Next-Generation Sequencing Test (WAYFIND-R)"},"statusModule":{"statusVerifiedDate":"2025-07","overallStatus":"RECRUITING","expandedAccessInfo":{"hasExpandedAccess":false},"startDateStruct":{"date":"2020-08-27","type":"ACTUAL"},"primaryCompletionDateStruct":{"date":"2026-12-31","type":"ESTIMATED"},"completionDateStruct":{"date":"2026-12-31","type":"ESTIMATED"},"studyFirstSubmitDate":"2020-08-25","studyFirstSubmitQcDate":"2020-08-25","studyFirstPostDateStruct":{"date":"2020-08-27","type":"ACTUAL"},"lastUpdateSubmitDate":"2025-07-03","lastUpdatePostDateStruct":{"date":"2025-07-04","type":"ACTUAL"}},"sponsorCollaboratorsModule":{"responsibleParty":{"type":"SPONSOR"},"leadSponsor":{"name":"Hoffmann-La Roche","class":"INDUSTRY"}},"oversightModule":{"oversightHasDmc":false,"isFdaRegulatedDrug":false,"isFdaRegulatedDevice":false},"descriptionModule":{"briefSummary":"WAYFIND-R is a registry that aims to capture high-quality real-world data linking next-generation sequencing, treatments and outcomes from cancer patients diagnosed with a solid tumour. The WAYFIND-R has three main overarching objectives: 1. To provide a platform to support the design and conduct of clinical and epidemiological research; 2. To develop an evidence-generation platform to better understand health outcomes and cancer care processes; and 3. To characterize the treatments and clinical course of solid tumor cancers in patients who have undergone NGS testing."},"conditionsModule":{"conditions":["Solid Tumours"]},"designModule":{"studyType":"OBSERVATIONAL","patientRegistry":true,"targetDuration":"5 Years","designInfo":{"observationalModel":"OTHER","timePerspective":"PROSPECTIVE"},"enrollmentInfo":{"count":15000,"type":"ESTIMATED"}},"outcomesModule":{"primaryOutcomes":[{"measure":"Overall Survival","timeFrame":"From date of registry entry until death, for up to 5 years"}]},"eligibilityModule":{"eligibilityCriteria":"Inclusion Criteria:\n\n* Participant is an adult (according to the age of majority as defined by local regulations)\n* Participant is currently diagnosed with any type of solid tumour cancer, at any stage of the disease, at the enrollment date (informed consent date)\n* Participant has undergone NGS testing, no longer than 3 months prior to the enrollment date, irrespective of the availability of test results\n* Informed consent has been obtained from the participant or legally authorized representative, as per local regulations\n\nExclusion Criteria:\n\n-Participant has a prior or current diagnosis of haematological malignancy","healthyVolunteers":false,"sex":"ALL","minimumAge":"18 Years","stdAges":["ADULT","OLDER_ADULT"],"studyPopulation":"Male and Female adult participants who are diagnosed with solid tumour cancers (at any anatomical location) and at any stage of the disease who have undergone an NGS test.","samplingMethod":"NON_PROBABILITY_SAMPLE"},"contactsLocationsModule":{"centralContacts":[{"name":"Reference Study ID # MX39897 https://forpatients.roche.com/","role":"CONTACT","phone":"888-662-6728","email":"global-roche-genentech-trials@gene.com"}],"overallOfficials":[{"name":"Clinical Trials","affiliation":"Hoffmann-La Roche","role":"STUDY_DIRECTOR"}],"locations":[{"facility":"Instituto Alexander Fleming","status":"RECRUITING","city":"Buenos Aires","zip":"1426","country":"Argentina","geoPoint":{"lat":-34.61315,"lon":-58.37723}},{"facility":"CEMIC","status":"RECRUITING","city":"Buenos Aires","zip":"C1431FWN","country":"Argentina","geoPoint":{"lat":-34.61315,"lon":-58.37723}},{"facility":"Lkh-Univ. Klinikum Graz","status":"RECRUITING","city":"Graz","zip":"8036","country":"Austria","geoPoint":{"lat":47.06667,"lon":15.45}},{"facility":"Hospital Moinhos de Vento","status":"RECRUITING","city":"Porto Alegre","state":"Rio Grande Do Sul","zip":"90035-001","country":"Brazil","geoPoint":{"lat":-30.03306,"lon":-51.23}},{"facility":"Instituto do Cancer do Estado de Sao Paulo - ICESP","status":"RECRUITING","city":"Sao Paulo","state":"São Paulo","zip":"01246-000","country":"Brazil","geoPoint":{"lat":-23.5475,"lon":-46.63611}},{"facility":"Hospital Alemao Oswaldo Cruz","status":"RECRUITING","city":"Sao Paulo","state":"São Paulo","zip":"01323-903","country":"Brazil","geoPoint":{"lat":-23.5475,"lon":-46.63611}},{"facility":"D'or Instituto de Pesquisa e Educação","status":"RECRUITING","city":"Rio de Janeiro","country":"Brazil","geoPoint":{"lat":-22.90278,"lon":-43.2075}},{"facility":"Beneficencia Portuguesa de Sao Paulo","status":"RECRUITING","city":"São Paulo","zip":"01321-00","country":"Brazil","geoPoint":{"lat":-23.5475,"lon":-46.63611}},{"facility":"Alberta Health Services","status":"RECRUITING","city":"Calgary","state":"Alberta","zip":"T2N 4N2","country":"Canada","geoPoint":{"lat":51.05011,"lon":-114.08529}},{"facility":"The Ottawa Hospital - General Campus","status":"RECRUITING","city":"Ottawa","state":"Ontario","zip":"K1H 8L6","country":"Canada","geoPoint":{"lat":45.41117,"lon":-75.69812}},{"facility":"Centro de Oncología de Precisión","status":"RECRUITING","city":"Las Condes","zip":"7560908","country":"Chile","geoPoint":{"lat":-33.41636,"lon":-70.56413}},{"facility":"Centro de Cancer Pontificie Universidad Catolica de Chile","status":"RECRUITING","city":"Santiago","zip":"8330074","country":"Chile","geoPoint":{"lat":-33.45694,"lon":-70.64827}},{"facility":"Fundación CTIC - Centro de Tratamiento e Investigación sobre Cáncer Luis Carlos Sarmiento Angulo","status":"RECRUITING","city":"Bogota, D.C.","zip":"110131","country":"Colombia"},{"facility":"Fundacion Cardioinfantil","status":"RECRUITING","city":"Bogota","country":"Colombia","geoPoint":{"lat":4.60971,"lon":-74.08175}},{"facility":"Organizacion Sanitas Internacional","status":"RECRUITING","city":"Bogota","country":"Colombia","geoPoint":{"lat":4.60971,"lon":-74.08175}},{"facility":"Fundacion Clinica Valle del Lili","status":"RECRUITING","city":"Cali","country":"Colombia","geoPoint":{"lat":3.43722,"lon":-76.5225}},{"facility":"Instituto Cancerología Medellin","status":"RECRUITING","city":"Medellin","zip":"050024","country":"Colombia","geoPoint":{"lat":6.25184,"lon":-75.56359}},{"facility":"Clinica ASTORGA","status":"RECRUITING","city":"Medellin","zip":"50010","country":"Colombia","geoPoint":{"lat":6.25184,"lon":-75.56359}},{"facility":"International Medical Center","status":"RECRUITING","city":"Cairo","country":"Egypt","geoPoint":{"lat":30.06263,"lon":31.24967}},{"facility":"East Tallinn Central Hospital","status":"RECRUITING","city":"Tallinn","zip":"11312","country":"Estonia","geoPoint":{"lat":59.43696,"lon":24.75353}},{"facility":"North Estonia Medical Centre Foundation","status":"RECRUITING","city":"Tallinn","zip":"13419","country":"Estonia","geoPoint":{"lat":59.43696,"lon":24.75353}},{"facility":"Tartu Uni Hospital","status":"RECRUITING","city":"Tartu","zip":"51014","country":"Estonia","geoPoint":{"lat":58.38062,"lon":26.72509}},{"facility":"Chu Amiens - Picardie","status":"RECRUITING","city":"Amiens Cedex 1","zip":"80054","country":"France","geoPoint":{"lat":49.9,"lon":2.3}},{"facility":"Hopital Jean Minjoz","status":"RECRUITING","city":"Besancon","zip":"25030","country":"France","geoPoint":{"lat":47.24878,"lon":6.01815}},{"facility":"Centre Hospitalier de Béthune-Beuvry","status":"RECRUITING","city":"Bethune cedex","zip":"62408","country":"France","geoPoint":{"lat":50.53333,"lon":2.63333}},{"facility":"Chu Brest - Hôpital Morvan","status":"RECRUITING","city":"Brest","zip":"29200","country":"France","geoPoint":{"lat":48.3903,"lon":-4.48628}},{"facility":"Centre Francois Baclesse","status":"RECRUITING","city":"Caen","zip":"14076","country":"France","geoPoint":{"lat":49.18585,"lon":-0.35912}},{"facility":"Centre Jean Perrin","status":"RECRUITING","city":"Clermont Ferrand","zip":"63011","country":"France","geoPoint":{"lat":45.77966,"lon":3.08628}},{"facility":"Centre hospitalier universitaire Dijon-Bourgogne","status":"RECRUITING","city":"Dijon","zip":"21079","country":"France","geoPoint":{"lat":47.31667,"lon":5.01667}},{"facility":"Hôpital Franco-Britannique- Fondation Cognacq-Jay","status":"RECRUITING","city":"Levallois-Perret","zip":"92300","country":"France","geoPoint":{"lat":48.89389,"lon":2.28864}},{"facility":"Centre Oscar Lambret","status":"RECRUITING","city":"Lille","zip":"59020","country":"France","geoPoint":{"lat":50.63297,"lon":3.05858}},{"facility":"Centre Leon Berard","status":"RECRUITING","city":"Lyon","zip":"69373","country":"France","geoPoint":{"lat":45.74848,"lon":4.84669}},{"facility":"APHM","status":"RECRUITING","city":"Marseille","zip":"13385","country":"France","geoPoint":{"lat":43.29551,"lon":5.38958}},{"facility":"Hopital de La Timone - CHU de Marseille","status":"RECRUITING","city":"Marseille","zip":"13385","country":"France","geoPoint":{"lat":43.29551,"lon":5.38958}},{"facility":"Institut Curie","status":"RECRUITING","city":"Paris","zip":"75005","country":"France","geoPoint":{"lat":48.85341,"lon":2.3488}},{"facility":"CH de Cornouailles","status":"RECRUITING","city":"Quimper","zip":"29107","country":"France","geoPoint":{"lat":48.0,"lon":-4.1}},{"facility":"Centre Eugene Marquis","status":"RECRUITING","city":"Rennes","zip":"35000","country":"France","geoPoint":{"lat":48.11198,"lon":-1.67429}},{"facility":"CHU Saint Etienne - Hôpital Nord","status":"RECRUITING","city":"Saint Etienne","zip":"42055","country":"France","geoPoint":{"lat":45.43389,"lon":4.39}},{"facility":"Hôpital Privé de la Loire, Ramsay Saint Etienne","status":"RECRUITING","city":"St Etienne","zip":"42100","country":"France","geoPoint":{"lat":45.43389,"lon":4.39}},{"facility":"CHI de Toulon - Hôpital Sainte Musse","status":"RECRUITING","city":"Toulon","zip":"83056","country":"France","geoPoint":{"lat":43.12442,"lon":5.92836}},{"facility":"Gustave Roussy","status":"RECRUITING","city":"Villejuif CEDEX","zip":"94800","country":"France","geoPoint":{"lat":48.7939,"lon":2.35992}},{"facility":"HELIOS Klinikum Bad Saarow","status":"RECRUITING","city":"Bad Saarow","zip":"15526","country":"Germany","geoPoint":{"lat":52.28333,"lon":14.06667}},{"facility":"DRK Kliniken Berlin","status":"RECRUITING","city":"Berlin","zip":"12559","country":"Germany","geoPoint":{"lat":52.52437,"lon":13.41053}},{"facility":"Universitätsklinikum Halle (Saale)","status":"RECRUITING","city":"Halle (Saale)","zip":"06120","country":"Germany","geoPoint":{"lat":51.48159,"lon":11.97948}},{"facility":"Asklepios Klinik Altona","status":"RECRUITING","city":"Hamburg","zip":"22763","country":"Germany","geoPoint":{"lat":53.57532,"lon":10.01534}},{"facility":"Medizinische Hochschule Hannover","status":"RECRUITING","city":"Hannover","zip":"30625","country":"Germany","geoPoint":{"lat":52.37052,"lon":9.73322}},{"facility":"SLK-Kliniken Heilbronn GmbH;Klinik für Innere Medizin III","status":"RECRUITING","city":"Heilbronn","zip":"74078","country":"Germany","geoPoint":{"lat":49.13995,"lon":9.22054}},{"facility":"Praxis für Hämatologie, Onkologie und Palliativmedizin","status":"RECRUITING","city":"Mönchengladbach","zip":"41066","country":"Germany","geoPoint":{"lat":51.18539,"lon":6.44172}},{"facility":"Klinikum am Steinenberg / Ermstalklinik","status":"RECRUITING","city":"Reutlingen","zip":"72764","country":"Germany","geoPoint":{"lat":48.49144,"lon":9.20427}},{"facility":"Katharinenhospital Stuttgart","status":"RECRUITING","city":"Stuttgart","zip":"70174","country":"Germany","geoPoint":{"lat":48.78232,"lon":9.17702}},{"facility":"Marien-Hospital Wesel","status":"RECRUITING","city":"Wesel","zip":"46483","country":"Germany","geoPoint":{"lat":51.6669,"lon":6.62037}},{"facility":"General Hospital \"G.Papanikolaou\"","status":"RECRUITING","city":"Asvestochori","zip":"570 10","country":"Greece","geoPoint":{"lat":40.64125,"lon":23.02528}},{"facility":"Henri Dunant Hospital","status":"RECRUITING","city":"Athens","zip":"115 26","country":"Greece","geoPoint":{"lat":37.97945,"lon":23.71622}},{"facility":"Alexandras General Hospital of Athens","status":"RECRUITING","city":"Athens","zip":"115 28","country":"Greece","geoPoint":{"lat":37.97945,"lon":23.71622}},{"facility":"Metropolitan Hospital Fourth Oncology Clinic","status":"RECRUITING","city":"Faliro","zip":"185 47","country":"Greece"},{"facility":"Bioclinic Thessaloniki","status":"RECRUITING","city":"Thessaloniki","zip":"546 22","country":"Greece","geoPoint":{"lat":40.64361,"lon":22.93086}},{"facility":"Bács-Kiskun Vármegyei Oktatókórház","status":"RECRUITING","city":"Kecskemét","zip":"6000","country":"Hungary","geoPoint":{"lat":46.90618,"lon":19.69128}},{"facility":"Pécsi Tudományegyetem","status":"RECRUITING","city":"Pécs","zip":"7623","country":"Hungary","geoPoint":{"lat":46.08333,"lon":18.23333}},{"facility":"Max Super Speciality Hospital","status":"RECRUITING","city":"New Delhi","state":"Delhi","zip":"110017","country":"India","geoPoint":{"lat":28.63576,"lon":77.22445}},{"facility":"Manipal Hospital","status":"RECRUITING","city":"Bangalore","state":"Karnataka","zip":"560017","country":"India","geoPoint":{"lat":12.97194,"lon":77.59369}},{"facility":"HealthCare Global Enterprises Limited","status":"RECRUITING","city":"Banglore","state":"Karnataka","zip":"560027","country":"India"},{"facility":"Tata Memorial Hospital","status":"RECRUITING","city":"Mumbai","state":"Maharashtra","zip":"400012","country":"India","geoPoint":{"lat":19.07283,"lon":72.88261}},{"facility":"MOC Cancer Care & Research Centre (Unit of Cellcure Cancer Centre Pvt Ltd)","status":"RECRUITING","city":"Mumbai","state":"Maharashtra","zip":"400036","country":"India","geoPoint":{"lat":19.07283,"lon":72.88261}},{"facility":"Bhaktivedanta Hospital and research institute","status":"RECRUITING","city":"Thane","state":"Maharashtra","zip":"401107","country":"India","geoPoint":{"lat":19.19704,"lon":72.96355}},{"facility":"Apollo Hospitals","status":"RECRUITING","city":"Chennai","state":"Tamil NADU","zip":"600035","country":"India","geoPoint":{"lat":13.08784,"lon":80.27847}},{"facility":"Indo-American Cancer Hospital & Research Center","status":"RECRUITING","city":"Hyderabad","state":"Telangana","zip":"500034","country":"India","geoPoint":{"lat":17.38405,"lon":78.45636}},{"facility":"Mid-Land Regional Hospital Tullamore","status":"RECRUITING","city":"CO Offaly","country":"Ireland"},{"facility":"Adelaide & Meath Hospital, Dublin, Incorporating the National Children's Hospital","status":"RECRUITING","city":"Dublin","zip":"24","country":"Ireland","geoPoint":{"lat":53.33306,"lon":-6.24889}},{"facility":"St Vincent'S Uni Hospital","status":"RECRUITING","city":"Dublin","zip":"4","country":"Ireland","geoPoint":{"lat":53.33306,"lon":-6.24889}},{"facility":"St James's Hospital","status":"RECRUITING","city":"Dublin","zip":"8","country":"Ireland","geoPoint":{"lat":53.33306,"lon":-6.24889}},{"facility":"Beacon Hospital","status":"RECRUITING","city":"Dublin","zip":"D18 AK68","country":"Ireland","geoPoint":{"lat":53.33306,"lon":-6.24889}},{"facility":"Hadassah University Hospital - Ein Kerem","status":"RECRUITING","city":"Jerusalem","zip":"9112001","country":"Israel","geoPoint":{"lat":31.76904,"lon":35.21633}},{"facility":"Sourasky / Ichilov Hospital","status":"RECRUITING","city":"Tel Aviv","zip":"6423906","country":"Israel","geoPoint":{"lat":32.08088,"lon":34.78057}},{"facility":"American University of Beirut - Medical Center","status":"RECRUITING","city":"Beirut","zip":"1107 2020","country":"Lebanon","geoPoint":{"lat":33.88894,"lon":35.49442}},{"facility":"Hotel Dieu de France","status":"RECRUITING","city":"Beirut","zip":"2063 1111","country":"Lebanon","geoPoint":{"lat":33.88894,"lon":35.49442}},{"facility":"Hammoud Hospital","status":"RECRUITING","city":"Saida","zip":"6520","country":"Lebanon"},{"facility":"ONCARE Viaducto Napoles","status":"RECRUITING","city":"Ciudad de México","state":"Mexico CITY (federal District)","zip":"03810","country":"Mexico","geoPoint":{"lat":19.42847,"lon":-99.12766}},{"facility":"Clínica Integral Internacional de Oncología S de RL de CV","status":"RECRUITING","city":"Puebla","state":"Mexico CITY (federal District)","country":"Mexico","geoPoint":{"lat":19.03793,"lon":-98.20346}},{"facility":"The American British Cowdray Hospital/ Hospital Abc","status":"RECRUITING","city":"Mexico City","zip":"01120","country":"Mexico","geoPoint":{"lat":19.42847,"lon":-99.12766}},{"facility":"Cebu Doctors' University Hospital","status":"RECRUITING","city":"Cebu City","zip":"6000","country":"Philippines","geoPoint":{"lat":10.31672,"lon":123.89071}},{"facility":"Metro Davao Medical and Research Center","status":"RECRUITING","city":"Davao City","zip":"8000","country":"Philippines","geoPoint":{"lat":7.07306,"lon":125.61278}},{"facility":"St Lukes Medical Center","status":"RECRUITING","city":"Quezon City","zip":"1102","country":"Philippines","geoPoint":{"lat":14.6488,"lon":121.0509}},{"facility":"Narodowy Instytut Onkologii im. M. Sklodowskiej-Curie","status":"ACTIVE_NOT_RECRUITING","city":"Warszawa","zip":"02-781","country":"Poland","geoPoint":{"lat":52.22977,"lon":21.01178}},{"facility":"Hospital da Luz","status":"WITHDRAWN","city":"Lisboa","zip":"1500-650","country":"Portugal","geoPoint":{"lat":38.71667,"lon":-9.13333}},{"facility":"Hospital CUF Porto","status":"RECRUITING","city":"Porto","zip":"4100-180","country":"Portugal","geoPoint":{"lat":41.14961,"lon":-8.61099}},{"facility":"IPO do Porto","status":"RECRUITING","city":"Porto","zip":"4200-072","country":"Portugal","geoPoint":{"lat":41.14961,"lon":-8.61099}},{"facility":"National Guard King Abdulaziz Medical City","status":"RECRUITING","city":"Riyadh","zip":"11426","country":"Saudi Arabia","geoPoint":{"lat":24.68773,"lon":46.72185}},{"facility":"University Hospital Medical Center Bezanijska kosa","status":"RECRUITING","city":"Belgrade","zip":"11080","country":"Serbia","geoPoint":{"lat":44.80401,"lon":20.46513}},{"facility":"Oncomed-System","status":"RECRUITING","city":"Belgrade","country":"Serbia","geoPoint":{"lat":44.80401,"lon":20.46513}},{"facility":"SIRIUS Medical","status":"RECRUITING","city":"Belgrade","country":"Serbia","geoPoint":{"lat":44.80401,"lon":20.46513}},{"facility":"Special hospital for internal diseases Vesalius","status":"RECRUITING","city":"Belgrade","country":"Serbia","geoPoint":{"lat":44.80401,"lon":20.46513}},{"facility":"Oncology Institute of Vojvodina","status":"RECRUITING","city":"Sremska Kamenica","zip":"21204","country":"Serbia","geoPoint":{"lat":45.22158,"lon":19.84367}},{"facility":"Narodny Onkologicky Ustav","status":"RECRUITING","city":"Bratislava","zip":"833 10","country":"Slovakia","geoPoint":{"lat":48.14816,"lon":17.10674}},{"facility":"University Clinic Golnik","status":"RECRUITING","city":"Golnik","zip":"4204","country":"Slovenia","geoPoint":{"lat":46.33333,"lon":14.33333}},{"facility":"Institute of Oncology Ljubljana","status":"RECRUITING","city":"Ljubljana","zip":"1000","country":"Slovenia","geoPoint":{"lat":46.05108,"lon":14.50513}},{"facility":"Medical Oncology Centre of Rosebank","status":"RECRUITING","city":"Johannesburg","zip":"2196","country":"South Africa","geoPoint":{"lat":-26.20227,"lon":28.04363}},{"facility":"Wilgers Oncology Centre","status":"RECRUITING","city":"Pretoria","zip":"0001","country":"South Africa","geoPoint":{"lat":-25.74486,"lon":28.18783}},{"facility":"Hospital Universitario Son Espases","status":"RECRUITING","city":"Palma De Mallorca","state":"Islas Baleares","zip":"07014","country":"Spain","geoPoint":{"lat":39.56939,"lon":2.65024}},{"facility":"Clinica Universitaria de Navarra","status":"WITHDRAWN","city":"Pamplona","state":"Navarra","zip":"31008","country":"Spain","geoPoint":{"lat":42.81687,"lon":-1.64323}},{"facility":"Complejo Hospitalario de Jaen-Hospital Universitario Medico Quirurgico","status":"RECRUITING","city":"Jaen","zip":"23007","country":"Spain","geoPoint":{"lat":37.76922,"lon":-3.79028}},{"facility":"Hospital Clinico Universitario Virgen de la Victoria;Servicio de Oncologia","status":"RECRUITING","city":"Malaga","zip":"29011","country":"Spain","geoPoint":{"lat":36.72016,"lon":-4.42034}},{"facility":"Hospital Universitario Miguel Servet","status":"RECRUITING","city":"Zaragoza","zip":"50009","country":"Spain","geoPoint":{"lat":41.65606,"lon":-0.87734}},{"facility":"Chang Gung Medical Foundation - Kaohsiung","status":"RECRUITING","city":"Kaohisung","zip":"833","country":"Taiwan"},{"facility":"Taipei Veterans General Hospital","status":"RECRUITING","city":"Taipei City","zip":"112","country":"Taiwan","geoPoint":{"lat":25.04776,"lon":121.53185}},{"facility":"Chung Gung Memorial Hospital","status":"RECRUITING","city":"Taoyuan County","zip":"333","country":"Taiwan"},{"facility":"Chulalongkorn Hospital","status":"RECRUITING","city":"Bangkok","zip":"10330","country":"Thailand","geoPoint":{"lat":13.75398,"lon":100.50144}},{"facility":"Faculty of Med. Siriraj Hosp.","status":"RECRUITING","city":"Bangkok","zip":"10700","country":"Thailand","geoPoint":{"lat":13.75398,"lon":100.50144}},{"facility":"Medicana International Zincirlikuyu Hospital","status":"RECRUITING","city":"Istanbul","state":"Enter Text","zip":"34394","country":"Turkey","geoPoint":{"lat":41.01384,"lon":28.94966}},{"facility":"Memorial Ankara Hastanesi","status":"RECRUITING","city":"Ankara","zip":"06520","country":"Turkey","geoPoint":{"lat":39.91987,"lon":32.85427}},{"facility":"Trakya University Medical Faculty","status":"RECRUITING","city":"Edirne","zip":"22030","country":"Turkey","geoPoint":{"lat":41.67719,"lon":26.55597}},{"facility":"Ba?c?lar Medipol Mega Üniversite Hastanesi","status":"RECRUITING","city":"Istanbul","zip":"34214","country":"Turkey","geoPoint":{"lat":41.01384,"lon":28.94966}},{"facility":"Medicana International Atasehir Hospital","status":"RECRUITING","city":"Istanbul","zip":"34750","country":"Turkey","geoPoint":{"lat":41.01384,"lon":28.94966}},{"facility":"Medicana International Izmir Hospital","status":"RECRUITING","city":"Izmir","country":"Turkey","geoPoint":{"lat":38.41273,"lon":27.13838}},{"facility":"Ac?badem Maslak Hastanesi Büyükdere","status":"RECRUITING","city":"Sar?yer/?stanbul","zip":"34457","country":"Turkey"},{"facility":"Ac?badem Adana Hospital, Oncology Department","status":"RECRUITING","city":"Seyhan/Adana","zip":"01130","country":"Turkey"},{"facility":"Mediclinic City Hospital","status":"RECRUITING","city":"Dubai","country":"United Arab Emirates","geoPoint":{"lat":25.0657,"lon":55.17128}},{"facility":"Blackpool Victoria Hospital","status":"RECRUITING","city":"Blackpool","zip":"FY3 8NR","country":"United Kingdom","geoPoint":{"lat":53.81667,"lon":-3.05}},{"facility":"Bristol Haematology and Oncology centre","status":"RECRUITING","city":"Bristol","zip":"BS2 8ED","country":"United Kingdom","geoPoint":{"lat":51.45523,"lon":-2.59665}},{"facility":"Royal Sussex County Hospital","status":"RECRUITING","city":"Eastbourne","zip":"BN2 1ES","country":"United Kingdom","geoPoint":{"lat":50.76871,"lon":0.28453}},{"facility":"Royal Devon & Exeter Hospital","status":"RECRUITING","city":"Exeter","zip":"EX2 5DW","country":"United Kingdom","geoPoint":{"lat":50.7236,"lon":-3.52751}},{"facility":"Gloucestershire Royal Hospital","status":"RECRUITING","city":"Gloucester","zip":"GL1 3NN","country":"United Kingdom","geoPoint":{"lat":51.86568,"lon":-2.2431}},{"facility":"Royal Surrey County Hospital","status":"RECRUITING","city":"Guildford","zip":"GU2 7XX","country":"United Kingdom","geoPoint":{"lat":51.23536,"lon":-0.57427}},{"facility":"St Georges University Hospitals NHS Foundation Trust","status":"RECRUITING","city":"London","zip":"SW17 0RE","country":"United Kingdom","geoPoint":{"lat":51.50853,"lon":-0.12574}},{"facility":"Freeman Hospital","status":"RECRUITING","city":"New Castle Upon Tyne","zip":"NE7 7DN","country":"United Kingdom"},{"facility":"Mount Vernon Hospital","status":"RECRUITING","city":"Northwood","zip":"HA6 2RN","country":"United Kingdom"},{"facility":"Musgrove Park Hospital","status":"RECRUITING","city":"Somerset","zip":"TA1 5DA","country":"United Kingdom"},{"facility":"Kings Mill Hospital","status":"RECRUITING","city":"Sutton in Ashfield","zip":"NG17 4JL","country":"United Kingdom","geoPoint":{"lat":53.12542,"lon":-1.26135}},{"facility":"Torbay Hospital","status":"RECRUITING","city":"Torquay","zip":"TQ2 7AA","country":"United Kingdom","geoPoint":{"lat":50.46198,"lon":-3.5252}},{"facility":"Hanoi Oncology Hospital","status":"RECRUITING","city":"Hanoi","zip":"100000","country":"Vietnam","geoPoint":{"lat":21.0245,"lon":105.84117}},{"facility":"K hospital","status":"RECRUITING","city":"Hanoi","zip":"100000","country":"Vietnam","geoPoint":{"lat":21.0245,"lon":105.84117}},{"facility":"Ho Chi Minh City Oncology Hospital","status":"RECRUITING","city":"Ho Chi Minh City","country":"Vietnam","geoPoint":{"lat":10.82302,"lon":106.62965}}]},"referencesModule":{"seeAlsoLinks":[{"label":"Related Info","url":"https://www.wayfind-r.com/"}]},"ipdSharingStatementModule":{"ipdSharing":"YES","description":"For eligible studies, qualified researchers may request access to individual patient level clinical data. See Roche's commitment to transparency of clinical study information here: https://go.roche.com/data_sharing"}},"derivedSection":{"miscInfoModule":{"versionHolder":"2025-07-07"}},"hasResults":false}