{"protocolSection":{"identificationModule":{"nctId":"NCT05419375","orgStudyIdInfo":{"id":"BX43361"},"organization":{"fullName":"Hoffmann-La Roche","class":"INDUSTRY"},"briefTitle":"Screening Study for Participants With Malignant Tumors","officialTitle":"Master Screening Study to Determine Biomarker Status and Potential Trial Eligibility for Patients With Malignant Tumors"},"statusModule":{"statusVerifiedDate":"2025-07","overallStatus":"RECRUITING","expandedAccessInfo":{"hasExpandedAccess":false},"startDateStruct":{"date":"2022-07-22","type":"ACTUAL"},"primaryCompletionDateStruct":{"date":"2032-08-21","type":"ESTIMATED"},"completionDateStruct":{"date":"2032-12-22","type":"ESTIMATED"},"studyFirstSubmitDate":"2022-06-13","studyFirstSubmitQcDate":"2022-06-13","studyFirstPostDateStruct":{"date":"2022-06-15","type":"ACTUAL"},"lastUpdateSubmitDate":"2025-07-03","lastUpdatePostDateStruct":{"date":"2025-07-04","type":"ACTUAL"}},"sponsorCollaboratorsModule":{"responsibleParty":{"type":"SPONSOR"},"leadSponsor":{"name":"Hoffmann-La Roche","class":"INDUSTRY"}},"oversightModule":{"oversightHasDmc":false,"isFdaRegulatedDrug":false,"isFdaRegulatedDevice":false},"descriptionModule":{"briefSummary":"The study objective is to determine the biomarker status of a participant's tumor tissue and use that status to determine eligibility for a linked Roche clinical trial."},"conditionsModule":{"conditions":["Solid Tumors"]},"designModule":{"studyType":"INTERVENTIONAL","phases":["PHASE2"],"designInfo":{"allocation":"NA","interventionModel":"SINGLE_GROUP","primaryPurpose":"OTHER","maskingInfo":{"masking":"NONE"}},"enrollmentInfo":{"count":15000,"type":"ESTIMATED"}},"armsInterventionsModule":{"armGroups":[{"label":"Non-Small Cell Lung Cancer (NSCLC)","type":"OTHER","description":"Participants with NSCLC will be screened for biomarker eligibility for a linked Roche study.","interventionNames":["Other: Screening platform"]}],"interventions":[{"type":"OTHER","name":"Screening platform","description":"The screening platform will be used to determine biomarker eligibility for a linked Roche study based on tissue-based testing.","armGroupLabels":["Non-Small Cell Lung Cancer (NSCLC)"]}]},"outcomesModule":{"primaryOutcomes":[{"measure":"Proportion of participants with evaluable biomarker results","timeFrame":"Up to 10 years"},{"measure":"Proportion of participants eligible for a linked Roche clinical trial","timeFrame":"Up to 10 years"}]},"eligibilityModule":{"eligibilityCriteria":"General Inclusion Criteria:\n\n* Confirmed availability of a representative formalin-fixed, paraffin-embedded (FFPE) tumor specimen meeting criteria defined in the protocol\n* Considered by principal investigator (PI) to be a candidate for a linked clinical trial with an investigational medicinal product, and that the participant has the awareness and willingness to participate in said trial\n\nInclusion Criteria for Participants with Stage III NSCLC\n\n* Locally advanced, unresectable Stage III NSCLC of either squamous or non-squamous histology based on 8th edition of the American Joint Committee on Cancer (AJCC) and Union for International Cancer Control (UICC) cancer staging system\n* Eastern Cooperative Oncology Group (ECOG) performance status of 0, 1, or 2\n\nInclusion Criteria for Participants with Stage II, IIIA, or Select IIIB (T3N2 only) NSCLC Requiring Adjuvant Treatment\n\n* Stage II, IIIA, or select IIIB (T3N2 only) NSCLC based on the 8th edition of the AJCC and UICC cancer staging system (Amin et al. 2017)\n* Considered eligible for curative intent surgery (complete resection with all surgical margins testing negative for tumor)\n* Screening within Study BX43361, using a pretreatment biopsy, is encouraged to be performed as early in the participant treatment pathway as possible to ensure the participant is potentially eligible for all cohorts, and should meet guidelines as defined by the protocol\n* Representative FFPE tumor specimen obtained prior to the start of any treatment\n* ECOG Performance Status of 0 or 1\n\nGeneral Exclusion Criteria:\n\n* History of malignancy other than NSCLC within 5 years prior to screening, except for malignancies with a negligible risk of metastasis or death\n* Any condition that may affect the interpretation of study results\n* Significant liver or cardiovascular disease\n* Prior allogenic stem-cell or solid-organ transplantation","healthyVolunteers":false,"sex":"ALL","minimumAge":"18 Years","stdAges":["ADULT","OLDER_ADULT"]},"contactsLocationsModule":{"centralContacts":[{"name":"Reference Study ID Number: BX43361 https://forpatients.roche.com","role":"CONTACT","phone":"1-888-662-6728","email":"global-roche-genentech-trials@gene.com"}],"overallOfficials":[{"name":"Clinical Trials","affiliation":"Hoffmann-La Roche","role":"STUDY_DIRECTOR"}],"locations":[{"facility":"Arizona Oncology Associates, PC - HOPE","status":"WITHDRAWN","city":"Tucson","state":"Arizona","zip":"85711","country":"United States","geoPoint":{"lat":32.22174,"lon":-110.92648}},{"facility":"Southern California Kaiser Permanente","status":"WITHDRAWN","city":"San Diego","state":"California","zip":"92108","country":"United States","geoPoint":{"lat":32.71533,"lon":-117.15726}},{"facility":"Rocky Mountain Cancer Centers-Penrose Pavillion","status":"RECRUITING","city":"Longmont","state":"Colorado","zip":"80504","country":"United States","geoPoint":{"lat":40.16721,"lon":-105.10193}},{"facility":"Oregon Health Sciences Uni","status":"WITHDRAWN","city":"Portland","state":"Oregon","zip":"97239","country":"United States","geoPoint":{"lat":45.52345,"lon":-122.67621}},{"facility":"Hillman Cancer Center","status":"RECRUITING","city":"Pittsburgh","state":"Pennsylvania","zip":"15232","country":"United States","geoPoint":{"lat":40.44062,"lon":-79.99589}},{"facility":"Thompson Cancer Survival Center","status":"TERMINATED","city":"Knoxville","state":"Tennessee","zip":"37916-2305","country":"United States","geoPoint":{"lat":35.96064,"lon":-83.92074}},{"facility":"Baptist Cancer Center","status":"WITHDRAWN","city":"Memphis","state":"Tennessee","zip":"38120","country":"United States","geoPoint":{"lat":35.14953,"lon":-90.04898}},{"facility":"Texas Oncology, P.A.","status":"RECRUITING","city":"Austin","state":"Texas","zip":"78745","country":"United States","geoPoint":{"lat":30.26715,"lon":-97.74306}},{"facility":"Mays Cancer Center, UT Health San Antonio","status":"WITHDRAWN","city":"San Antonio","state":"Texas","zip":"78229-4427","country":"United States","geoPoint":{"lat":29.42412,"lon":-98.49363}},{"facility":"Texas Oncology, P.A.","status":"RECRUITING","city":"San Antonio","state":"Texas","zip":"78229","country":"United States","geoPoint":{"lat":29.42412,"lon":-98.49363}},{"facility":"Texas Oncology- Northeast Texas","status":"RECRUITING","city":"Tyler","state":"Texas","zip":"75702","country":"United States","geoPoint":{"lat":32.35126,"lon":-95.30106}},{"facility":"Oncology & Hematology Associates of Southwest Virginia, Inc","status":"RECRUITING","city":"Blacksburg","state":"Virginia","zip":"24060","country":"United States","geoPoint":{"lat":37.22957,"lon":-80.41394}},{"facility":"Northwest Cancer Specialists","status":"RECRUITING","city":"Vancouver","state":"Washington","zip":"98686","country":"United States","geoPoint":{"lat":45.63873,"lon":-122.66149}},{"facility":"Lifehouse","status":"WITHDRAWN","city":"Camperdown","state":"New South Wales","zip":"2050","country":"Australia","geoPoint":{"lat":-33.88965,"lon":151.17642}},{"facility":"GenesisCare North Shore","status":"WITHDRAWN","city":"St Leonards","state":"New South Wales","zip":"2065","country":"Australia","geoPoint":{"lat":-33.82344,"lon":151.19836}},{"facility":"Westmead Hospital","status":"WITHDRAWN","city":"Westmead","state":"New South Wales","zip":"2145","country":"Australia","geoPoint":{"lat":-33.80383,"lon":150.98768}},{"facility":"Peter MacCallum Cancer Centre","status":"WITHDRAWN","city":"Melbourne","state":"Victoria","zip":"3000","country":"Australia","geoPoint":{"lat":-37.814,"lon":144.96332}},{"facility":"One Clinical Research","status":"WITHDRAWN","city":"Nedlands","state":"Western Australia","zip":"6009","country":"Australia","geoPoint":{"lat":-31.98184,"lon":115.8073}},{"facility":"GHdC Site Les Viviers","status":"RECRUITING","city":"Charleroi","zip":"6000","country":"Belgium","geoPoint":{"lat":50.41136,"lon":4.44448}},{"facility":"UZ Gent","status":"RECRUITING","city":"Gent","zip":"9000","country":"Belgium","geoPoint":{"lat":51.05,"lon":3.71667}},{"facility":"Hospital Sao Rafael - HSR","status":"WITHDRAWN","city":"Salvador","state":"Bahia","zip":"41253-190","country":"Brazil","geoPoint":{"lat":-12.97111,"lon":-38.51083}},{"facility":"Crio - Centro Regional Integrado de Oncologia","status":"RECRUITING","city":"Fortaleza","state":"Ceará","zip":"60336-550","country":"Brazil","geoPoint":{"lat":-3.71722,"lon":-38.54306}},{"facility":"Oncocentro Belo Horizonte","status":"RECRUITING","city":"Belo Horizonte","state":"Minas Gerais","zip":"30360-680","country":"Brazil","geoPoint":{"lat":-19.92083,"lon":-43.93778}},{"facility":"COT - Centro Oncologico do Triangulo","status":"RECRUITING","city":"Uberlandia","state":"Minas Gerais","zip":"38408-150","country":"Brazil","geoPoint":{"lat":-18.91861,"lon":-48.27722}},{"facility":"Universidade de Caxias do Sul - Rio Grande do Sul","status":"RECRUITING","city":"Caxias do Sul","state":"Rio Grande Do Sul","zip":"95070-560","country":"Brazil","geoPoint":{"lat":-29.16806,"lon":-51.17944}},{"facility":"Santa Casa de Misericordia de Porto Alegre","status":"ACTIVE_NOT_RECRUITING","city":"Porto Alegre","state":"Rio Grande Do Sul","zip":"90050-170","country":"Brazil","geoPoint":{"lat":-30.03306,"lon":-51.23}},{"facility":"Hospital Sao Lucas - PUCRS","status":"RECRUITING","city":"Porto Alegre","state":"Rio Grande Do Sul","zip":"90610-000","country":"Brazil","geoPoint":{"lat":-30.03306,"lon":-51.23}},{"facility":"Hospital Nossa Senhora da Conceicao","status":"RECRUITING","city":"Porto Alegre","state":"Rio Grande Do Sul","zip":"91350-200","country":"Brazil","geoPoint":{"lat":-30.03306,"lon":-51.23}},{"facility":"Clínica de Oncologia Reichow","status":"ACTIVE_NOT_RECRUITING","city":"Blumenau","state":"Santa Catarina","zip":"89010-340","country":"Brazil","geoPoint":{"lat":-26.91944,"lon":-49.06611}},{"facility":"Hospital de Cancer de Barretos","status":"RECRUITING","city":"Barretos","state":"São Paulo","zip":"14784-400","country":"Brazil","geoPoint":{"lat":-20.55722,"lon":-48.56778}},{"facility":"Hospital de Base de Sao Jose do Rio Preto","status":"RECRUITING","city":"Sao Jose do Rio Preto","state":"São Paulo","zip":"15090-000","country":"Brazil","geoPoint":{"lat":-20.81972,"lon":-49.37944}},{"facility":"Instituto do Cancer do Estado de Sao Paulo - ICESP","status":"RECRUITING","city":"Sao Paulo","state":"São Paulo","zip":"01246-000","country":"Brazil","geoPoint":{"lat":-23.5475,"lon":-46.63611}},{"facility":"Oncoclinicas Rio de Janeiro S.A.","status":"RECRUITING","city":"Rio de Janeiro","zip":"22250-905","country":"Brazil","geoPoint":{"lat":-22.90278,"lon":-43.2075}},{"facility":"Sunnybrook Health Sciences Centre","status":"RECRUITING","city":"Toronto","state":"Ontario","zip":"M4N 3M5","country":"Canada","geoPoint":{"lat":43.70011,"lon":-79.4163}},{"facility":"K2 Oncology","status":"RECRUITING","city":"Providencia","zip":"7500000","country":"Chile","geoPoint":{"lat":-33.43107,"lon":-70.60454}},{"facility":"OrlandiOncología","status":"WITHDRAWN","city":"Santiago","zip":"7500713","country":"Chile","geoPoint":{"lat":-33.45694,"lon":-70.64827}},{"facility":"Centro de Estudios Clínicos SAGA","status":"TERMINATED","city":"Santiago","zip":"DUMMY_VALUE","country":"Chile","geoPoint":{"lat":-33.45694,"lon":-70.64827}},{"facility":"RedSalud Vitacura","status":"RECRUITING","city":"Santiago","zip":"DUMMY_VALUE","country":"Chile","geoPoint":{"lat":-33.45694,"lon":-70.64827}},{"facility":"James Lind Centro de Investigación Del Cáncer","status":"WITHDRAWN","city":"Temuco","zip":"4800827","country":"Chile","geoPoint":{"lat":-38.73965,"lon":-72.59842}},{"facility":"Clinica De La Costa","status":"WITHDRAWN","city":"Barranquilla","zip":"080020","country":"Colombia","geoPoint":{"lat":10.96854,"lon":-74.78132}},{"facility":"Fundación CTIC - Centro de Tratamiento e Investigación sobre Cáncer Luis Carlos Sarmiento Angulo","status":"RECRUITING","city":"Bogota, D.C.","zip":"110131","country":"Colombia"},{"facility":"Hospital Universitario San Ignacio","status":"RECRUITING","city":"Bogota","zip":"000472","country":"Colombia","geoPoint":{"lat":4.60971,"lon":-74.08175}},{"facility":"Instituto Cancerología Medellin","status":"ACTIVE_NOT_RECRUITING","city":"Medellin","zip":"050024","country":"Colombia","geoPoint":{"lat":6.25184,"lon":-75.56359}},{"facility":"Clinica CIMCA","status":"RECRUITING","city":"San José","zip":"10103","country":"Costa Rica","geoPoint":{"lat":9.93333,"lon":-84.08333}},{"facility":"ICIMED Instituto de Investigación en Ciencias Médicas","status":"COMPLETED","city":"San José","zip":"10108","country":"Costa Rica","geoPoint":{"lat":9.93333,"lon":-84.08333}},{"facility":"CHU Angers,Service de Pneumologie","status":"RECRUITING","city":"Angers","zip":"49933","country":"France","geoPoint":{"lat":47.46667,"lon":-0.55}},{"facility":"Polyclinique Bordeaux Nord Aquitaine","status":"RECRUITING","city":"Bordeaux","zip":"33300","country":"France","geoPoint":{"lat":44.84044,"lon":-0.5805}},{"facility":"Centre Francois Baclesse","status":"RECRUITING","city":"Caen","zip":"14000","country":"France","geoPoint":{"lat":49.18585,"lon":-0.35912}},{"facility":"Centre Leon Berard","status":"RECRUITING","city":"Lyon","zip":"69008","country":"France","geoPoint":{"lat":45.74848,"lon":4.84669}},{"facility":"CHU Strasbourg - Nouvel Hopital Civil","status":"RECRUITING","city":"Strasbourg","zip":"67091","country":"France","geoPoint":{"lat":48.58392,"lon":7.74553}},{"facility":"Hia Sainte Anne","status":"RECRUITING","city":"Toulon","zip":"83041","country":"France","geoPoint":{"lat":43.12442,"lon":5.92836}},{"facility":"Zentralklinikum Augsburg","status":"RECRUITING","city":"Augsburg","zip":"86156","country":"Germany","geoPoint":{"lat":48.37154,"lon":10.89851}},{"facility":"Klinikum Esslingen","status":"RECRUITING","city":"Esslingen","zip":"73730","country":"Germany","geoPoint":{"lat":48.73961,"lon":9.30473}},{"facility":"Asklepios Klinik Gauting","status":"RECRUITING","city":"München-Gauting","zip":"82131","country":"Germany","geoPoint":{"lat":51.60698,"lon":13.31243}},{"facility":"LMU Klinikum der Universität München, Medizinische Klinik und Poliklinik V, Campus Innenstadt","status":"RECRUITING","city":"München","zip":"80336","country":"Germany","geoPoint":{"lat":48.13743,"lon":11.57549}},{"facility":"Klinikum rechts der Isar der TU Muenchen","status":"RECRUITING","city":"München","zip":"81675","country":"Germany","geoPoint":{"lat":48.13743,"lon":11.57549}},{"facility":"Universitätsklinikum Regensburg","status":"RECRUITING","city":"Regensburg","zip":"93053","country":"Germany","geoPoint":{"lat":49.01513,"lon":12.10161}},{"facility":"Universitätsklinikum Würzburg","status":"RECRUITING","city":"Würzburg","zip":"97078","country":"Germany","geoPoint":{"lat":49.79391,"lon":9.95121}},{"facility":"Queen Mary Hospital","status":"TERMINATED","city":"Hong Kong","country":"Hong Kong","geoPoint":{"lat":22.27832,"lon":114.17469}},{"facility":"Rajiv Gandhi Cancer Inst.&Research Center","status":"RECRUITING","city":"New Delhi","state":"Delhi","zip":"110085","country":"India","geoPoint":{"lat":28.63576,"lon":77.22445}},{"facility":"Medanta -The Medicity","status":"RECRUITING","city":"Gurgaon","state":"Haryana","country":"India","geoPoint":{"lat":28.4601,"lon":77.02635}},{"facility":"Tata Memorial Hospital","status":"RECRUITING","city":"Mumbai","state":"Maharashtra","zip":"400012","country":"India","geoPoint":{"lat":19.07283,"lon":72.88261}},{"facility":"Apollo Gleneagles Hospital","status":"RECRUITING","city":"Kolkata","state":"WEST Bengal","zip":"700054","country":"India","geoPoint":{"lat":22.56263,"lon":88.36304}},{"facility":"Rambam Medical Center","status":"RECRUITING","city":"Haifa","zip":"3109601","country":"Israel","geoPoint":{"lat":32.81841,"lon":34.9885}},{"facility":"Rabin Medical Center-Beilinson Campus","status":"RECRUITING","city":"Petach Tikva","zip":"4941492","country":"Israel","geoPoint":{"lat":32.08707,"lon":34.88747}},{"facility":"IRST Istituto Scientifico Romagnolo Per Lo Studio E Cura Dei Tumori, Sede Meldola","status":"RECRUITING","city":"Meldola","state":"Emilia-Romagna","zip":"47014","country":"Italy","geoPoint":{"lat":44.12775,"lon":12.0626}},{"facility":"IRCCS Istituto Regina Elena (IFO)","status":"RECRUITING","city":"Roma","state":"Lazio","zip":"00144","country":"Italy","geoPoint":{"lat":41.89193,"lon":12.51133}},{"facility":"Azienda Ospedaliera San Camillo Forlanini","status":"RECRUITING","city":"Roma","state":"Lazio","zip":"00152","country":"Italy","geoPoint":{"lat":41.89193,"lon":12.51133}},{"facility":"IRCCS A.O.U San MArtino - IST","status":"RECRUITING","city":"Genova","state":"Liguria","zip":"16132","country":"Italy","geoPoint":{"lat":44.40478,"lon":8.94438}},{"facility":"Asst Degli Spedali Civili Di Brescia","status":"RECRUITING","city":"Brescia","state":"Lombardia","zip":"25123","country":"Italy","geoPoint":{"lat":45.53558,"lon":10.21472}},{"facility":"Irccs Istituto Europeo di Oncologia (IEO)","status":"RECRUITING","city":"Milano","state":"Lombardia","zip":"20141","country":"Italy","geoPoint":{"lat":45.46427,"lon":9.18951}},{"facility":"Asst Grande Ospedale Metropolitano Niguarda","status":"RECRUITING","city":"Milano","state":"Lombardia","zip":"20162","country":"Italy","geoPoint":{"lat":45.46427,"lon":9.18951}},{"facility":"A.O. Universitaria S. Luigi Gonzaga","status":"RECRUITING","city":"Orbassano","state":"Piemonte","zip":"10043","country":"Italy","geoPoint":{"lat":45.00547,"lon":7.53813}},{"facility":"IRCCS Giovanni Paolo II Istituto Oncologico","status":"RECRUITING","city":"Bari","state":"Puglia","zip":"70124","country":"Italy","geoPoint":{"lat":41.11148,"lon":16.8554}},{"facility":"Azienda Ospedaliero-Universitaria Careggi","status":"RECRUITING","city":"Firenze","state":"Toscana","zip":"50134","country":"Italy","geoPoint":{"lat":43.77925,"lon":11.24626}},{"facility":"IRCCS Istituto Oncologico Veneto (IOV)","status":"RECRUITING","city":"Padova","state":"Veneto","zip":"35128","country":"Italy","geoPoint":{"lat":45.40797,"lon":11.88586}},{"facility":"Aichi Cancer Center Hospital","status":"COMPLETED","city":"Aichi","zip":"464-8681","country":"Japan","geoPoint":{"lat":32.51879,"lon":130.62158}},{"facility":"Hirosaki University Hospital","status":"WITHDRAWN","city":"Aomori","zip":"036-8563","country":"Japan","geoPoint":{"lat":40.81667,"lon":140.73333}},{"facility":"Shikoku Cancer Center","status":"WITHDRAWN","city":"Ehime","zip":"791-0280","country":"Japan","geoPoint":{"lat":33.63163,"lon":132.76886}},{"facility":"NHO Kyushu Cancer Center","status":"RECRUITING","city":"Fukuoka","zip":"811-1395","country":"Japan","geoPoint":{"lat":33.6,"lon":130.41667}},{"facility":"Kurume University Hospital","status":"RECRUITING","city":"Fukuoka","zip":"830-0011","country":"Japan","geoPoint":{"lat":33.6,"lon":130.41667}},{"facility":"Kobe City Medical Center General Hospital","status":"RECRUITING","city":"Hyogo","zip":"650-0047","country":"Japan"},{"facility":"National Hospital Organization Himeji Medical Center","status":"WITHDRAWN","city":"Hyogo","zip":"670-8520","country":"Japan"},{"facility":"Kagoshima University Hospital","status":"RECRUITING","city":"Kagoshima","zip":"890-8520","country":"Japan","geoPoint":{"lat":31.56667,"lon":130.55}},{"facility":"Kanagawa Cancer Center","status":"WITHDRAWN","city":"Kanagawa","zip":"241-8515","country":"Japan","geoPoint":{"lat":37.58333,"lon":139.91667}},{"facility":"Kumamoto University Hospital","status":"RECRUITING","city":"Kumamoto","zip":"860-8556","country":"Japan","geoPoint":{"lat":32.80589,"lon":130.69182}},{"facility":"Sendai Kousei Hospital","status":"WITHDRAWN","city":"Miyagi","zip":"980-0873","country":"Japan"},{"facility":"Nara Medical University Hospital","status":"WITHDRAWN","city":"Nara","zip":"634-8522","country":"Japan","geoPoint":{"lat":34.68505,"lon":135.80485}},{"facility":"Niigata Cancer Center Hospital","status":"WITHDRAWN","city":"Niigata","zip":"951-8566","country":"Japan","geoPoint":{"lat":37.88637,"lon":139.00589}},{"facility":"Okayama University Hospital","status":"WITHDRAWN","city":"Okayama","zip":"700-8558","country":"Japan","geoPoint":{"lat":34.65,"lon":133.93333}},{"facility":"Kurashiki Central Hospital","status":"WITHDRAWN","city":"Okayama","zip":"710-8602","country":"Japan","geoPoint":{"lat":34.65,"lon":133.93333}},{"facility":"Kindai University Hospital","status":"RECRUITING","city":"Osaka-sayama","zip":"589-8511","country":"Japan","geoPoint":{"lat":34.69374,"lon":135.50218}},{"facility":"Osaka City General Hospital","status":"WITHDRAWN","city":"Osaka","zip":"534-0021","country":"Japan","geoPoint":{"lat":34.69374,"lon":135.50218}},{"facility":"Osaka International Cancer Institute","status":"WITHDRAWN","city":"Osaka","zip":"541-8567","country":"Japan","geoPoint":{"lat":34.69374,"lon":135.50218}},{"facility":"NHO Kinki Chuo Chest Medical Center","status":"WITHDRAWN","city":"Osaka","zip":"591-8555","country":"Japan","geoPoint":{"lat":34.69374,"lon":135.50218}},{"facility":"Shizuoka Cancer Center","status":"COMPLETED","city":"Shizuoka","zip":"411-8777","country":"Japan","geoPoint":{"lat":34.98333,"lon":138.38333}},{"facility":"Juntendo University Hospital","status":"RECRUITING","city":"Tokyo","zip":"113-8431","country":"Japan","geoPoint":{"lat":35.6895,"lon":139.69171}},{"facility":"Komagome Hospital","status":"COMPLETED","city":"Tokyo","zip":"113-8677","country":"Japan","geoPoint":{"lat":35.6895,"lon":139.69171}},{"facility":"The Cancer Institute Hospital of JFCR","status":"RECRUITING","city":"Tokyo","zip":"135-8550","country":"Japan","geoPoint":{"lat":35.6895,"lon":139.69171}},{"facility":"Tottori University Hospital","status":"TERMINATED","city":"Tottori","zip":"683-8504","country":"Japan","geoPoint":{"lat":35.5,"lon":134.23333}},{"facility":"National Hospital Organization Yamaguchi - Ube Medical Center","status":"WITHDRAWN","city":"Yamaguchi","zip":"755-0241","country":"Japan","geoPoint":{"lat":34.18333,"lon":131.46667}},{"facility":"Chungbuk National University Hospital","status":"WITHDRAWN","city":"Cheongju-si","zip":"28644","country":"Korea, Republic of","geoPoint":{"lat":36.63722,"lon":127.48972}},{"facility":"Kyungpook National University Chilgok Hospital","status":"RECRUITING","city":"Daegu","zip":"41404","country":"Korea, Republic of","geoPoint":{"lat":35.87028,"lon":128.59111}},{"facility":"Pusan National University Yangsan Hospital","status":"RECRUITING","city":"Gyeongsangnam-do","zip":"50612","country":"Korea, Republic of"},{"facility":"Chonnam National University Hwasun Hospital","status":"RECRUITING","city":"Jeollanam-do","zip":"58128","country":"Korea, Republic of"},{"facility":"Seoul National University Bundang Hospital","status":"RECRUITING","city":"Seongnam-si","zip":"13605","country":"Korea, Republic of","geoPoint":{"lat":37.43861,"lon":127.13778}},{"facility":"Kangbuk Samsung Hospital","status":"RECRUITING","city":"Seoul","zip":"03181","country":"Korea, Republic of","geoPoint":{"lat":37.566,"lon":126.9784}},{"facility":"Asan Medical Center","status":"RECRUITING","city":"Seoul","zip":"05505","country":"Korea, Republic of","geoPoint":{"lat":37.566,"lon":126.9784}},{"facility":"Korea University Guro Hospital","status":"RECRUITING","city":"Seoul","zip":"08308","country":"Korea, Republic of","geoPoint":{"lat":37.566,"lon":126.9784}},{"facility":"Hospital Civil de Guadalajara Fray Antonio Alcalde","status":"RECRUITING","city":"Guadalajara","state":"Jalisco","zip":"44280","country":"Mexico","geoPoint":{"lat":20.66682,"lon":-103.39182}},{"facility":"Clinstile S.A de C.V.","status":"RECRUITING","city":"Mexico City","state":"Mexico CITY (federal District)","zip":"06700","country":"Mexico","geoPoint":{"lat":19.42847,"lon":-99.12766}},{"facility":"Centro Oncologico Internacional","status":"RECRUITING","city":"Mexico D.F.","state":"Mexico CITY (federal District)","zip":"04700","country":"Mexico"},{"facility":"Centro de Investigación Oncologica Galerias","status":"RECRUITING","city":"Aguascalientes","zip":"20124","country":"Mexico","geoPoint":{"lat":21.88234,"lon":-102.28259}},{"facility":"ARKE Estudios Clínicos S.A. de C.V.","status":"RECRUITING","city":"Ciudad de México","zip":"06700","country":"Mexico","geoPoint":{"lat":19.42847,"lon":-99.12766}},{"facility":"Instituto Nacional de Cancerologia","status":"RECRUITING","city":"Mexico City","zip":"14080","country":"Mexico","geoPoint":{"lat":19.42847,"lon":-99.12766}},{"facility":"Maastricht University Medical Center","status":"RECRUITING","city":"Maastricht","zip":"6229 HX","country":"Netherlands","geoPoint":{"lat":50.84833,"lon":5.68889}},{"facility":"Auckland City Hospital, Cancer and Blood Research","status":"RECRUITING","city":"Auckland","zip":"1023","country":"New Zealand","geoPoint":{"lat":-36.84853,"lon":174.76349}},{"facility":"Oslo university hospital Radiumhospitalet","status":"RECRUITING","city":"Oslo","zip":"0379","country":"Norway","geoPoint":{"lat":59.91273,"lon":10.74609}},{"facility":"Instytut Genetyki i Immunologii GENIM","status":"RECRUITING","city":"Lublin","zip":"20-609","country":"Poland","geoPoint":{"lat":51.25,"lon":22.56667}},{"facility":"Dolno?l?skie Centrum Chorób P?uc we Wroc?awiu","status":"RECRUITING","city":"Wroc?aw","zip":"53-439","country":"Poland"},{"facility":"University Clinical Centre of Serbia","status":"COMPLETED","city":"Belgrade","zip":"11030","country":"Serbia","geoPoint":{"lat":44.80401,"lon":20.46513}},{"facility":"Hospital Medical Center Bezanijska kosa","status":"RECRUITING","city":"Belgrade","zip":"11080","country":"Serbia","geoPoint":{"lat":44.80401,"lon":20.46513}},{"facility":"Univ Clinical Center Kragujevac","status":"COMPLETED","city":"Kragujevac","zip":"552302","country":"Serbia","geoPoint":{"lat":44.01667,"lon":20.91667}},{"facility":"Institute for pulmonary diseases of Vojvodina","status":"RECRUITING","city":"Sremska Kamenica","zip":"21204","country":"Serbia","geoPoint":{"lat":45.22158,"lon":19.84367}},{"facility":"National Cancer Centre","status":"RECRUITING","city":"Singapore","zip":"168583","country":"Singapore","geoPoint":{"lat":1.28967,"lon":103.85007}},{"facility":"Tan Tock Seng Hospital","status":"RECRUITING","city":"Singapore","zip":"308433","country":"Singapore","geoPoint":{"lat":1.28967,"lon":103.85007}},{"facility":"Complejo Hospitalario Universitario Insular?Materno Infantil","status":"RECRUITING","city":"Las Palmas de Gran Canaria","state":"LAS Palmas","zip":"35016","country":"Spain","geoPoint":{"lat":28.09973,"lon":-15.41343}},{"facility":"Hospital General Univ. de Alicante","status":"RECRUITING","city":"Alicante","zip":"3010","country":"Spain","geoPoint":{"lat":38.34517,"lon":-0.48149}},{"facility":"Hospital Universitario La Paz","status":"RECRUITING","city":"Madrid","zip":"28046","country":"Spain","geoPoint":{"lat":40.4165,"lon":-3.70256}},{"facility":"Hospital Regional Universitario Carlos Haya","status":"ACTIVE_NOT_RECRUITING","city":"Malaga","zip":"29010","country":"Spain","geoPoint":{"lat":36.72016,"lon":-4.42034}},{"facility":"Hospital Universitario Virgen del Rocio","status":"RECRUITING","city":"Sevilla","zip":"41013","country":"Spain","geoPoint":{"lat":37.38283,"lon":-5.97317}},{"facility":"Taipei Medical University Shuang Ho Hospital","status":"RECRUITING","city":"New Taipei City","zip":"23561","country":"Taiwan","geoPoint":{"lat":25.01111,"lon":121.44583}},{"facility":"National Cheng Kung Univ Hosp","status":"RECRUITING","city":"Tainan","zip":"00704","country":"Taiwan","geoPoint":{"lat":22.99083,"lon":120.21333}},{"facility":"National Taiwan Uni Hospital","status":"COMPLETED","city":"Taipei City","zip":"10041","country":"Taiwan","geoPoint":{"lat":25.04776,"lon":121.53185}},{"facility":"Taipei Veterans General Hospital","status":"RECRUITING","city":"Taipei City","zip":"11217","country":"Taiwan","geoPoint":{"lat":25.04776,"lon":121.53185}},{"facility":"Taipei Medical University Hospital","status":"COMPLETED","city":"Taipei","zip":"110","country":"Taiwan","geoPoint":{"lat":25.04776,"lon":121.53185}},{"facility":"Taipei Municipal Wan Fang Hospital","status":"RECRUITING","city":"Taipei","zip":"119","country":"Taiwan","geoPoint":{"lat":25.04776,"lon":121.53185}},{"facility":"Chang Gung Memorial Hospital - Linkou","status":"RECRUITING","city":"Taoyuan","zip":"333","country":"Taiwan","geoPoint":{"lat":24.95233,"lon":121.20193}},{"facility":"Taichung Veterans General Hospital","status":"RECRUITING","city":"Xitun Dist.","zip":"40705","country":"Taiwan"},{"facility":"National Cancer Institute","status":"RECRUITING","city":"Bangkok","zip":"10400","country":"Thailand","geoPoint":{"lat":13.75398,"lon":100.50144}},{"facility":"Rajavithi Hospital","status":"RECRUITING","city":"Bangkok","zip":"10400","country":"Thailand","geoPoint":{"lat":13.75398,"lon":100.50144}},{"facility":"Siriraj Hospital","status":"RECRUITING","city":"Bangkok","zip":"10700","country":"Thailand","geoPoint":{"lat":13.75398,"lon":100.50144}},{"facility":"Maharaj Nakorn Chiang Mai Hosp","status":"RECRUITING","city":"Chang Mai","zip":"50200","country":"Thailand"},{"facility":"Oncology Unit, Faculty of Medicine, Vajira Hospital","status":"RECRUITING","city":"Dusit","zip":"10300","country":"Thailand","geoPoint":{"lat":13.7775,"lon":100.51977}},{"facility":"Srinagarind Hospital","status":"RECRUITING","city":"Khon Kaen","zip":"40002","country":"Thailand","geoPoint":{"lat":16.44671,"lon":102.833}},{"facility":"Central Chest Institute of Thailand","status":"RECRUITING","city":"Nonthaburi","zip":"11000","country":"Thailand","geoPoint":{"lat":13.86075,"lon":100.51477}},{"facility":"Songklanagarind Hospital","status":"RECRUITING","city":"Songkhla","zip":"90110","country":"Thailand","geoPoint":{"lat":7.19882,"lon":100.5951}},{"facility":"Ataturk Sanatoryum Egitim Ve Arastirma Hastanesi","status":"RECRUITING","city":"Ankara","zip":"06280","country":"Turkey","geoPoint":{"lat":39.91987,"lon":32.85427}},{"facility":"Gazi Uni Medical Faculty Hospital","status":"ACTIVE_NOT_RECRUITING","city":"Ankara","zip":"06500","country":"Turkey","geoPoint":{"lat":39.91987,"lon":32.85427}},{"facility":"Liv Hospital Ankara","status":"ACTIVE_NOT_RECRUITING","city":"Ankara","zip":"06680","country":"Turkey","geoPoint":{"lat":39.91987,"lon":32.85427}},{"facility":"Bakirkoy Dr. Sadi Konuk Egitim ve Arastirma Hastanesi, Tibbi Onkoloji","status":"RECRUITING","city":"Bakirkoy / Istanbul","zip":"34147","country":"Turkey"},{"facility":"Dicle University Faculty of Medicine","status":"RECRUITING","city":"Diyarbakir","zip":"21280","country":"Turkey","geoPoint":{"lat":37.91363,"lon":40.21721}},{"facility":"Ataturk University Medical Faculty Yakutiye Research Hospital Medical Oncology Department","status":"ACTIVE_NOT_RECRUITING","city":"Erzurum","zip":"25240","country":"Turkey","geoPoint":{"lat":39.90861,"lon":41.27694}},{"facility":"Medipol University Medical Faculty","status":"COMPLETED","city":"Istanbul","zip":"34214","country":"Turkey","geoPoint":{"lat":41.01384,"lon":28.94966}},{"facility":"Marmara Uni Faculty of Medicine","status":"TERMINATED","city":"Istanbul","zip":"34890","country":"Turkey","geoPoint":{"lat":41.01384,"lon":28.94966}},{"facility":"Medikal Park Samsun","status":"COMPLETED","city":"Samsun","zip":"55200","country":"Turkey","geoPoint":{"lat":41.27976,"lon":36.3361}},{"facility":"Medical Park Seyhan Hospital","status":"RECRUITING","city":"Seyhan","zip":"01140","country":"Turkey"},{"facility":"Barts & London School of Med","status":"RECRUITING","city":"London","zip":"EC1A 7BE","country":"United Kingdom","geoPoint":{"lat":51.50853,"lon":-0.12574}},{"facility":"Royal Marsden Hospital","status":"ACTIVE_NOT_RECRUITING","city":"London","zip":"SW3 6JJ","country":"United Kingdom","geoPoint":{"lat":51.50853,"lon":-0.12574}},{"facility":"Christie Hospital Nhs Trust","status":"WITHDRAWN","city":"Manchester","zip":"M2O 4BX","country":"United Kingdom","geoPoint":{"lat":53.48095,"lon":-2.23743}}]},"ipdSharingStatementModule":{"ipdSharing":"YES","description":"For eligible studies, qualified researchers may request access to individual patient level clinical data. See Roche's commitment to transparency of clinical study information here: https://go.roche.com/data_sharing"}},"derivedSection":{"miscInfoModule":{"versionHolder":"2025-07-07","removedCountries":["Sweden"]},"conditionBrowseModule":{"meshes":[{"id":"D009369","term":"Neoplasms"}]}},"hasResults":false}