{"protocolSection":{"identificationModule":{"nctId":"NCT06350097","orgStudyIdInfo":{"id":"D516NC00001"},"organization":{"fullName":"AstraZeneca","class":"INDUSTRY"},"briefTitle":"Phase III, Open-label Study of First-line Osimertinib With or Without Datopotamab Deruxtecan for EGFRm Locally Advanced or Metastatic Non-small Cell Lung Cancer","officialTitle":"A Phase III, Open-label, Randomised Study of Osimertinib With or Without Datopotamab Deruxtecan (Dato-DXd), as First-line Treatment in Participants With Epidermal Growth Factor Receptor (EGFR) Mutation-positive, Locally Advanced or Metastatic Non-small Cell Lung Cancer","acronym":"TROPION-Lung14"},"statusModule":{"statusVerifiedDate":"2025-04","overallStatus":"RECRUITING","expandedAccessInfo":{"hasExpandedAccess":false},"startDateStruct":{"date":"2024-04-29","type":"ACTUAL"},"primaryCompletionDateStruct":{"date":"2028-03-21","type":"ESTIMATED"},"completionDateStruct":{"date":"2032-05-25","type":"ESTIMATED"},"studyFirstSubmitDate":"2024-04-02","studyFirstSubmitQcDate":"2024-04-02","studyFirstPostDateStruct":{"date":"2024-04-05","type":"ACTUAL"},"lastUpdateSubmitDate":"2025-04-08","lastUpdatePostDateStruct":{"date":"2025-04-09","type":"ACTUAL"}},"sponsorCollaboratorsModule":{"responsibleParty":{"type":"SPONSOR"},"leadSponsor":{"name":"AstraZeneca","class":"INDUSTRY"},"collaborators":[{"name":"Daiichi Sankyo","class":"INDUSTRY"}]},"oversightModule":{"oversightHasDmc":true,"isFdaRegulatedDrug":false,"isFdaRegulatedDevice":false},"descriptionModule":{"briefSummary":"The purpose of this study is to evaluate efficacy and safety of osimertinib (tablet) in combination with Datopotamab Deruxtecan (i.v. infusion) compared with osimertinib (tablet) monotherapy as a first-line therapy in participants with locally advanced or metastatic EGFRm (Ex19del and/or L858R) NSCLC.\n\nStudy details include:\n\n1. The study duration will be event-driven, with an estimated duration of approximately 9 years.\n2. Participants may receive study treatment until disease progression, unacceptable toxicity, or other specific discontinuation criteria are met.\n3. The visit frequency will be every 3 weeks during the treatment period.\n\nNote: Participants on osimertinib treatment (osimertinib only arm or who have discontinued Datopotamab Deruxtecan while are still receiving osimertinib) are required to attend visits to perform assessments every 6 weeks from Cycle 7 until Cycle 17 and then visits every 12 weeks until disease progression, IP discontinuation or primary PFS DCO. Participants who are receiving osimertinib + Datopotamab Deruxtecan are still required to attend visit to perform assessment every 3 weeks (q3w) per SoA.","detailedDescription":"This is a global Phase III, open-label, randomised, multicentre study assessing the efficacy and safety of osimertinib in combination with Datopotamab Deruxtecan compared with osimertinib in participants with locally advanced or metastatic EGFRm (Ex19del and/or L858R) NSCLC who have not received any prior therapy for advanced disease."},"conditionsModule":{"conditions":["Non-small Cell Lung Cancer"],"keywords":["Non-small Cell Lung Cancer, NSCLC, Epidermal Growth Factor Receptor (EGFR) Mutation-positive, Osimertinib, Dato-DXd, Datopotamab Deruxtecan, Tagrisso"]},"designModule":{"studyType":"INTERVENTIONAL","phases":["PHASE3"],"designInfo":{"allocation":"RANDOMIZED","interventionModel":"PARALLEL","primaryPurpose":"TREATMENT","maskingInfo":{"masking":"NONE"}},"enrollmentInfo":{"count":582,"type":"ESTIMATED"}},"armsInterventionsModule":{"armGroups":[{"label":"Arm 1: Osimertinib in combination with Datopotamab Deruxtecan","type":"EXPERIMENTAL","description":"Participants in this group will receive osimertinib 80 mg QD as oral tablet with Datopotamab Deruxtecan 6mg/kg as i.v. infusion q3w of Day 1 of every 21-day cycle.","interventionNames":["Drug: Osimertinib","Drug: Datopotamab Deruxtecan"]},{"label":"Arm 2: Osimertinib monotherapy","type":"ACTIVE_COMPARATOR","description":"Participants in this group will receive osimertinib 80 mg QD as oral tablet.","interventionNames":["Drug: Osimertinib"]}],"interventions":[{"type":"DRUG","name":"Osimertinib","description":"Arm 1: Osimertinib 80 mg QD as oral tablet with Datopotamab Deruxtecan 6mg/kg as i.v. infusion.\n\nArm 2: Osimertinib 80 mg QD as oral tablet .","armGroupLabels":["Arm 1: Osimertinib in combination with Datopotamab Deruxtecan","Arm 2: Osimertinib monotherapy"],"otherNames":["Osimertinib: AZD9291","Datopotamab Deruxtecan: Dato-DXd"]},{"type":"DRUG","name":"Datopotamab Deruxtecan","description":"Osimertinib 80 mg QD as oral tablet with Datopotamab Deruxtecan 6mg/kg as i.v. infusion.","armGroupLabels":["Arm 1: Osimertinib in combination with Datopotamab Deruxtecan"],"otherNames":["Osimertinib: AZD9291","Datopotamab Deruxtecan: Dato-DXd"]}]},"outcomesModule":{"primaryOutcomes":[{"measure":"To demonstrate the superiority of osimertinib in combination with Datopotamab Deruxtecan relative to osimertinib by assessment of PFS by BICR in all randomised participants.","description":"PFS is defined as time from randomisation until progression per RECIST 1.1 as assessed by BICR, or death due to any cause (in the absence of progression).","timeFrame":"It is anticipated that it will be performed approximately 3 years after the first participant is randomised."}],"secondaryOutcomes":[{"measure":"To demonstrate the superiority of osimertinib in combination with Datopotamab Deruxtecan relative to osimertinib by assessment of OS in all randomised participants.","description":"OS defined as the time from randomisation until the date of death due to any cause.","timeFrame":"It is anticipated that it will be performed approximately 7 years after the first participant has been randomised."},{"measure":"To demonstrate the effectiveness of osimertinib in combination with Datopotamab Deruxtecan relative to osimertinib by assessment of PFS on CNS metastases in participants with CNS metastases at baseline","description":"Central nervous system progression-free survival (CNS PFS) is defined as the time from randomisation until the date of objective CNS progression assessed by CNS BICR or death (by any cause in absence of CNS progression).","timeFrame":"It is anticipated that it will be performed approximately 3 years after the first participant is randomised."},{"measure":"To demonstrate the effectiveness of osimertinib in combination with Datopotamab Deruxtecan relative to osimertinib by assessment of PFS by investigator in all randomised participants.","description":"PFS is defined as time from randomisation until progression per RECIST 1.1 as assessed by investigator, or death due to any cause (in the absence of progression).","timeFrame":"It is anticipated that it will be performed approximately 3 years after the first participant is randomised."},{"measure":"To demonstrate the effectiveness of osimertinib in combination with Datopotamab Deruxtecan relative to osimertinib by assessment of ORR in all randomised participants with measurable disease at baseline.","description":"ORR is defined as the proportion of participants who have a confirmed CR or confirmed PR, as determined by BICR (and investigator) per RECIST 1.1.","timeFrame":"It is anticipated that it will be performed approximately 3 years after the first participant is randomised."},{"measure":"To demonstrate the effectiveness of osimertinib in combination with Datopotamab Deruxtecan relative to osimertinib by assessment of DoR in all randomised participants with measurable disease at baseline.","description":"DoR is defined as the time from the date of first documented confirmed response until date of documented progression per RECIST 1.1, as assessed by BICR (and investigator) assessment or death due to any cause.\n\nThe measure of interest is the median of DoR.","timeFrame":"It is anticipated that it will be performed approximately 3 years after the first participant is randomised."},{"measure":"To demonstrate the effectiveness of osimertinib in combination with Datopotamab Deruxtecan relative to osimertinib on the prevention of CNS metastases","description":"Neuro-radiologist assessments according to CNS RECIST 1.1 to determine the presence/absence of CNS lesions at progression in participants without CNS metastases at baseline.","timeFrame":"It is anticipated that it will be performed approximately 3 years after the first participant is randomised."},{"measure":"To demonstrate the effectiveness of osimertinib in combination with Datopotamab Deruxtecan relative to osimertinib by assessment of PFS2 in all randomised participants","description":"PFS2 will be defined as the time from randomisation to the earliest of the progression event (following the initial progression) subsequent to first subsequent anti-cancer therapy, or death.","timeFrame":"It is anticipated that it will be performed approximately 7 years after the first participant has been randomised."},{"measure":"To assess the PK of osimertinib and Datopotamab Deruxtecan","description":"Concentration of osimertinib and its metabolite AZ5104, Datopotamab Deruxtecan, total anti-TROP2 antibody and DXd in plasma.","timeFrame":"It is anticipated that it will be performed approximately 7 years after the first participant has been randomised."},{"measure":"To investigate the immunogenicity of Datopotamab Deruxtecan","description":"Presence of ADAs for Datopotamab Deruxtecan (confirmatory results: positive or negative, titres, and neutralizing antibodies).","timeFrame":"It is anticipated that it will be performed approximately 7 years after the first participant has been randomised."},{"measure":"To compare the local EGFR mutation test result used for patient selection with the retrospective central cobas® EGFR Mutation Test v2 results from baseline tumour samples","description":"Concordance of EGFR mutation status between the local EGFR mutation test and the central cobas® EGFR Mutation Test v2 results from tumour samples with evaluable results.","timeFrame":"It is anticipated that it will be performed approximately 3 years after the first participant is randomised."},{"measure":"To demonstrate the effectiveness of osimertinib in combination with Datopotamab Deruxtecan vs. osimertinib monotherapy based on the cobas® EGFR Mutation Test v2 plasma screening test result for Ex19del or L858R EGFR mutations","description":"PFS by Investigator by plasma EGFR mutation status PFS is defined as time from randomisation until progression per RECIST 1.1 as assessed by investigator, or death due to any cause (in the absence of progression).","timeFrame":"It is anticipated that it will be performed approximately 7 years after the first participant has been randomised."}]},"eligibilityModule":{"eligibilityCriteria":"Inclusion Criteria:\n\nAge\n\n1. Participant must be ≥ 18 years; Participant from Japan must be ≥ 20 years, at the time of signing the ICF.\n\n   Type of Participant and Disease Characteristics\n2. Histologically or cytologically documented nonsquamous NSCLC.\n3. Stage IIIB or IIIC or Stage IV metastatic NSCLC or recurrent NSCLC (based on the American Joint Committee on Cancer Edition 8) not amenable to curative surgery or definitive chemoradiation at the time of randomisation.\n4. Participants must not have received prior EGFR TKIs or other systemic therapy for Stage IIIB, IIIC or IV NSCLC.\n5. The tumour harbors 1 of the 2 common EGFR mutations known to be associated with EGFR-TKI sensitivity (Ex19del or L858R), either alone or in combination with other EGFR mutations.\n6. For participants enrolled in randomisation period, mandatory provision of an unstained, archival tumour tissue sample in a quantity sufficient to allow for central confirmation of the EGFR mutation status.\n7. WHO performance status of 0 or 1.\n8. At least one lesion not previously irradiated that qualifies as a RECIST 1.1 TL at baseline and can be accurately measured at baseline as ≥10 mm in the longest diameter (except lymph nodes, which must have short axis ≥15 mm) with CT or MRI and is suitable for accurate repeated measurements.\n9. Adequate bone marrow reserve and organ function within 7 days before the first dose of study intervention .\n\n   Sex and Contraceptive/Barrier Requirements\n10. Male and female Contraceptive use by males or females should be consistent with local regulations regarding the methods of contraception for those participating in clinical studies.\n\n    Other Inclusion Criteria\n11. All races, gender and ethnic groups are eligible for this study.\n\nExclusion Criteria:\n\nMedical Conditions\n\n1. As judged by the investigator, any evidence of diseases (such as severe or uncontrolled systemic diseases, including active bleeding diseases, psychiatric illness/social situations), history of allogenic organ transplant, and/or substance abuse which, in the investigator's opinion, makes it undesirable for the participant to participate in the study or that would jeopardise compliance with the protocol.\n2. Refractory nausea and vomiting, chronic gastrointestinal disease, inability to swallow the formulated product, or previous significant bowel resection that would preclude adequate absorption, distribution, metabolism, or excretion of osimertinib.\n3. History of another primary malignancy.\n4. Spinal cord compression and unstable brain metastases.\n5. Clinically significant corneal disease.\n6. Has active or uncontrolled hepatitis B or C virus infection.\n7. Known HIV infection that is not well controlled.\n8. Uncontrolled infection requiring i.v. antibiotics, antivirals or antifungals; suspected infections (eg, prodromal symptoms); or inability to rule out infections (participants with localised fungal infections of skin or nails are eligible).\n9. Resting ECG with clinically abnormal findings.\n10. Uncontrolled or significant cardiac disease.\n11. Past medical history of ILD, drug-induced ILD, radiation pneumonitis which required steroid treatment, or any evidence of clinically active ILD.\n12. Has severe pulmonary function compromise.\n\n    Prior/Concomitant Therapy\n13. Prior exposure to any agent including an ADC containing a chemotherapeutic agent targeting topoisomerase I, TROP2-targeted therapy.\n\n    Prior/Concurrent Clinical Study Experience\n14. Participants with a known history of severe hypersensitivity reactions to either Dato-DXd and osimertinib or any excipients of Dato DXd and osimertinib or drugs with a similar chemical structure or class to DXd and osimertinib.","healthyVolunteers":false,"sex":"ALL","minimumAge":"18 Years","stdAges":["ADULT","OLDER_ADULT"]},"contactsLocationsModule":{"centralContacts":[{"name":"AstraZeneca Clinical Study Information Center","role":"CONTACT","phone":"1-877-240-9479","email":"information.center@astrazeneca.com"}],"locations":[{"facility":"Research Site","status":"NOT_YET_RECRUITING","city":"Fountain Valley","state":"California","zip":"92708","country":"United States","geoPoint":{"lat":33.70918,"lon":-117.95367}},{"facility":"Research Site","status":"NOT_YET_RECRUITING","city":"Los Alamitos","state":"California","zip":"90720","country":"United States","geoPoint":{"lat":33.80307,"lon":-118.07256}},{"facility":"Research Site","status":"NOT_YET_RECRUITING","city":"Los Angeles","state":"California","zip":"90017","country":"United States","geoPoint":{"lat":34.05223,"lon":-118.24368}},{"facility":"Research Site","status":"NOT_YET_RECRUITING","city":"Los Angeles","state":"California","zip":"90033","country":"United States","geoPoint":{"lat":34.05223,"lon":-118.24368}},{"facility":"Research Site","status":"NOT_YET_RECRUITING","city":"Los Angeles","state":"California","zip":"90095","country":"United States","geoPoint":{"lat":34.05223,"lon":-118.24368}},{"facility":"Research Site","status":"NOT_YET_RECRUITING","city":"Orange","state":"California","zip":"92868","country":"United States","geoPoint":{"lat":33.78779,"lon":-117.85311}},{"facility":"Research Site","status":"NOT_YET_RECRUITING","city":"San Diego","state":"California","zip":"92123","country":"United States","geoPoint":{"lat":32.71533,"lon":-117.15726}},{"facility":"Research Site","status":"NOT_YET_RECRUITING","city":"Walnut Creek","state":"California","zip":"94598","country":"United States","geoPoint":{"lat":37.90631,"lon":-122.06496}},{"facility":"Research Site","status":"NOT_YET_RECRUITING","city":"New Haven","state":"Connecticut","zip":"06510","country":"United States","geoPoint":{"lat":41.30815,"lon":-72.92816}},{"facility":"Research Site","status":"NOT_YET_RECRUITING","city":"Washington","state":"District of Columbia","zip":"20037","country":"United States","geoPoint":{"lat":38.89511,"lon":-77.03637}},{"facility":"Research Site","status":"NOT_YET_RECRUITING","city":"Jacksonville","state":"Florida","zip":"32256","country":"United States","geoPoint":{"lat":30.33218,"lon":-81.65565}},{"facility":"Research Site","status":"NOT_YET_RECRUITING","city":"Ocala","state":"Florida","zip":"34474","country":"United States","geoPoint":{"lat":29.1872,"lon":-82.14009}},{"facility":"Research Site","status":"NOT_YET_RECRUITING","city":"Honolulu","state":"Hawaii","zip":"96819","country":"United States","geoPoint":{"lat":21.30694,"lon":-157.85833}},{"facility":"Research Site","status":"NOT_YET_RECRUITING","city":"North Chicago","state":"Illinois","zip":"60064","country":"United States","geoPoint":{"lat":42.32558,"lon":-87.84118}},{"facility":"Research Site","status":"NOT_YET_RECRUITING","city":"Fort Wayne","state":"Indiana","zip":"46845","country":"United States","geoPoint":{"lat":41.1306,"lon":-85.12886}},{"facility":"Research Site","status":"RECRUITING","city":"Bethesda","state":"Maryland","zip":"20817","country":"United States","geoPoint":{"lat":38.98067,"lon":-77.10026}},{"facility":"Research Site","status":"NOT_YET_RECRUITING","city":"Detroit","state":"Michigan","zip":"48201","country":"United States","geoPoint":{"lat":42.33143,"lon":-83.04575}},{"facility":"Research Site","status":"NOT_YET_RECRUITING","city":"Saint Paul","state":"Minnesota","zip":"55102","country":"United States","geoPoint":{"lat":44.94441,"lon":-93.09327}},{"facility":"Research Site","status":"NOT_YET_RECRUITING","city":"Saint Louis","state":"Missouri","zip":"63110","country":"United States","geoPoint":{"lat":38.62727,"lon":-90.19789}},{"facility":"Research Site","status":"NOT_YET_RECRUITING","city":"New York","state":"New York","zip":"10065","country":"United States","geoPoint":{"lat":40.71427,"lon":-74.00597}},{"facility":"Research Site","status":"NOT_YET_RECRUITING","city":"Houston","state":"Texas","zip":"77030","country":"United States","geoPoint":{"lat":29.76328,"lon":-95.36327}},{"facility":"Research Site","status":"NOT_YET_RECRUITING","city":"Houston","state":"Texas","zip":"77090","country":"United States","geoPoint":{"lat":29.76328,"lon":-95.36327}},{"facility":"Research Site","status":"NOT_YET_RECRUITING","city":"Webster","state":"Texas","zip":"77598","country":"United States","geoPoint":{"lat":29.53773,"lon":-95.11826}},{"facility":"Research Site","status":"NOT_YET_RECRUITING","city":"Woodway","state":"Texas","zip":"76712","country":"United States","geoPoint":{"lat":31.506,"lon":-97.20501}},{"facility":"Research Site","status":"NOT_YET_RECRUITING","city":"Fairfax","state":"Virginia","zip":"22031","country":"United States","geoPoint":{"lat":38.84622,"lon":-77.30637}},{"facility":"Research Site","status":"NOT_YET_RECRUITING","city":"Fort Belvoir","state":"Virginia","zip":"22060","country":"United States","geoPoint":{"lat":38.7119,"lon":-77.14589}},{"facility":"Research Site","status":"NOT_YET_RECRUITING","city":"Midlothian","state":"Virginia","zip":"23114","country":"United States","geoPoint":{"lat":37.50598,"lon":-77.64916}},{"facility":"Research Site","status":"WITHDRAWN","city":"Seattle","state":"Washington","zip":"98104","country":"United States","geoPoint":{"lat":47.60621,"lon":-122.33207}},{"facility":"Research Site","status":"RECRUITING","city":"Clayton","zip":"3168","country":"Australia","geoPoint":{"lat":-37.91667,"lon":145.11667}},{"facility":"Research Site","status":"RECRUITING","city":"Kogarah","zip":"2217","country":"Australia","geoPoint":{"lat":-33.98333,"lon":151.11667}},{"facility":"Research Site","status":"NOT_YET_RECRUITING","city":"South Brisbane","zip":"4101","country":"Australia","geoPoint":{"lat":-27.48034,"lon":153.02049}},{"facility":"Research Site","status":"RECRUITING","city":"Westmead","zip":"2145","country":"Australia","geoPoint":{"lat":-33.80383,"lon":150.98768}},{"facility":"Research Site","status":"RECRUITING","city":"Barretos","zip":"14784-400","country":"Brazil","geoPoint":{"lat":-20.55722,"lon":-48.56778}},{"facility":"Research Site","status":"NOT_YET_RECRUITING","city":"Natal","zip":"59075-740","country":"Brazil","geoPoint":{"lat":-5.795,"lon":-35.20944}},{"facility":"Research Site","status":"NOT_YET_RECRUITING","city":"Porto Alegre","zip":"91350-200","country":"Brazil","geoPoint":{"lat":-30.03306,"lon":-51.23}},{"facility":"Research Site","status":"RECRUITING","city":"Salvador","zip":"41253-190","country":"Brazil","geoPoint":{"lat":-12.97111,"lon":-38.51083}},{"facility":"Research Site","status":"NOT_YET_RECRUITING","city":"Sao Paulo","zip":"01246-000","country":"Brazil","geoPoint":{"lat":-23.5475,"lon":-46.63611}},{"facility":"Research Site","status":"NOT_YET_RECRUITING","city":"Edmonton","state":"Alberta","zip":"T6G 1Z2","country":"Canada","geoPoint":{"lat":53.55014,"lon":-113.46871}},{"facility":"Research Site","status":"RECRUITING","city":"Montreal","state":"Quebec","zip":"H4A 3J1","country":"Canada","geoPoint":{"lat":45.50884,"lon":-73.58781}},{"facility":"Research Site","status":"NOT_YET_RECRUITING","city":"Beijing","zip":"100029","country":"China","geoPoint":{"lat":39.9075,"lon":116.39723}},{"facility":"Research Site","status":"NOT_YET_RECRUITING","city":"Beijing","zip":"100034","country":"China","geoPoint":{"lat":39.9075,"lon":116.39723}},{"facility":"Research Site","status":"NOT_YET_RECRUITING","city":"Beijing","zip":"100142","country":"China","geoPoint":{"lat":39.9075,"lon":116.39723}},{"facility":"Research Site","status":"RECRUITING","city":"Changchun","zip":"130000","country":"China","geoPoint":{"lat":43.88,"lon":125.32278}},{"facility":"Research Site","status":"NOT_YET_RECRUITING","city":"Changsha","zip":"410013","country":"China","geoPoint":{"lat":28.19874,"lon":112.97087}},{"facility":"Research Site","status":"RECRUITING","city":"Chengdu","zip":"610000","country":"China","geoPoint":{"lat":30.66667,"lon":104.06667}},{"facility":"Research Site","status":"RECRUITING","city":"Chengdu","zip":"610042","country":"China","geoPoint":{"lat":30.66667,"lon":104.06667}},{"facility":"Research Site","status":"RECRUITING","city":"Chengdu","zip":"610072","country":"China","geoPoint":{"lat":30.66667,"lon":104.06667}},{"facility":"Research Site","status":"RECRUITING","city":"Chongqing","zip":"400030","country":"China","geoPoint":{"lat":29.56278,"lon":106.55278}},{"facility":"Research Site","status":"RECRUITING","city":"Chongqing","zip":"402260","country":"China","geoPoint":{"lat":29.56278,"lon":106.55278}},{"facility":"Research Site","status":"RECRUITING","city":"Guangzhou","zip":"510100","country":"China","geoPoint":{"lat":23.11667,"lon":113.25}},{"facility":"Research Site","status":"RECRUITING","city":"Hangzhou","zip":"310006","country":"China","geoPoint":{"lat":30.29365,"lon":120.16142}},{"facility":"Research Site","status":"NOT_YET_RECRUITING","city":"Hangzhou","zip":"31000","country":"China","geoPoint":{"lat":30.29365,"lon":120.16142}},{"facility":"Research Site","status":"NOT_YET_RECRUITING","city":"Hangzhou","zip":"310022","country":"China","geoPoint":{"lat":30.29365,"lon":120.16142}},{"facility":"Research Site","status":"NOT_YET_RECRUITING","city":"Hankou,Wuhan","zip":"430022","country":"China"},{"facility":"Research Site","status":"RECRUITING","city":"Harbin","zip":"150049","country":"China","geoPoint":{"lat":45.75,"lon":126.65}},{"facility":"Research Site","status":"RECRUITING","city":"Hefei","zip":"230031","country":"China","geoPoint":{"lat":31.86389,"lon":117.28083}},{"facility":"Research Site","status":"RECRUITING","city":"Hefei","zip":"230601","country":"China","geoPoint":{"lat":31.86389,"lon":117.28083}},{"facility":"Research Site","status":"RECRUITING","city":"Jinan","zip":"250021","country":"China","geoPoint":{"lat":36.66833,"lon":116.99722}},{"facility":"Research Site","status":"RECRUITING","city":"Jinan","zip":"250117","country":"China","geoPoint":{"lat":36.66833,"lon":116.99722}},{"facility":"Research Site","status":"RECRUITING","city":"Kunming","zip":"650118","country":"China","geoPoint":{"lat":25.03889,"lon":102.71833}},{"facility":"Research Site","status":"RECRUITING","city":"Linhai","zip":"317000","country":"China","geoPoint":{"lat":28.85535,"lon":121.14469}},{"facility":"Research Site","status":"RECRUITING","city":"Ningbo","zip":"315010","country":"China","geoPoint":{"lat":29.87819,"lon":121.54945}},{"facility":"Research Site","status":"RECRUITING","city":"Shanghai","zip":"200030","country":"China","geoPoint":{"lat":31.22222,"lon":121.45806}},{"facility":"Research Site","status":"NOT_YET_RECRUITING","city":"Shanghai","zip":"200433","country":"China","geoPoint":{"lat":31.22222,"lon":121.45806}},{"facility":"Research Site","status":"NOT_YET_RECRUITING","city":"Shenyang","zip":"110004","country":"China","geoPoint":{"lat":41.79222,"lon":123.43278}},{"facility":"Research Site","status":"RECRUITING","city":"Wenzhou","zip":"325000","country":"China","geoPoint":{"lat":27.99942,"lon":120.66682}},{"facility":"Research Site","status":"RECRUITING","city":"Wuhan","zip":"430030","country":"China","geoPoint":{"lat":30.58333,"lon":114.26667}},{"facility":"Research Site","status":"RECRUITING","city":"Xi'an","zip":"710061","country":"China","geoPoint":{"lat":34.25833,"lon":108.92861}},{"facility":"Research Site","status":"RECRUITING","city":"Xuzhou","zip":"221000","country":"China","geoPoint":{"lat":34.18045,"lon":117.15707}},{"facility":"Research Site","status":"RECRUITING","city":"Yangzhou","zip":"225001","country":"China","geoPoint":{"lat":32.39722,"lon":119.43583}},{"facility":"Research Site","status":"NOT_YET_RECRUITING","city":"Zhengzhou City","zip":"450000","country":"China"},{"facility":"Research Site","status":"RECRUITING","city":"Zhengzhou","zip":"450008","country":"China","geoPoint":{"lat":34.75778,"lon":113.64861}},{"facility":"Research Site","status":"RECRUITING","city":"Berlin","zip":"13125","country":"Germany","geoPoint":{"lat":52.52437,"lon":13.41053}},{"facility":"Research Site","status":"NOT_YET_RECRUITING","city":"Erfurt","zip":"99089","country":"Germany","geoPoint":{"lat":50.9787,"lon":11.03283}},{"facility":"Research Site","status":"RECRUITING","city":"Frankfurt","zip":"60488","country":"Germany","geoPoint":{"lat":50.11552,"lon":8.68417}},{"facility":"Research Site","status":"NOT_YET_RECRUITING","city":"Goettingen","zip":"37075","country":"Germany"},{"facility":"Research Site","status":"RECRUITING","city":"Immenhausen","zip":"34376","country":"Germany","geoPoint":{"lat":51.42763,"lon":9.48017}},{"facility":"Research Site","status":"NOT_YET_RECRUITING","city":"Kiel","zip":"24105","country":"Germany","geoPoint":{"lat":54.32133,"lon":10.13489}},{"facility":"Research Site","status":"RECRUITING","city":"Köln","zip":"51109","country":"Germany","geoPoint":{"lat":50.93333,"lon":6.95}},{"facility":"Research Site","status":"NOT_YET_RECRUITING","city":"Mainz","zip":"55131","country":"Germany","geoPoint":{"lat":49.98419,"lon":8.2791}},{"facility":"Research Site","status":"NOT_YET_RECRUITING","city":"München","zip":"81925","country":"Germany","geoPoint":{"lat":48.13743,"lon":11.57549}},{"facility":"Research Site","status":"NOT_YET_RECRUITING","city":"Hong Kong","zip":"999077","country":"Hong Kong","geoPoint":{"lat":22.27832,"lon":114.17469}},{"facility":"Research Site","status":"NOT_YET_RECRUITING","city":"Hong Kong","country":"Hong Kong","geoPoint":{"lat":22.27832,"lon":114.17469}},{"facility":"Research Site","status":"NOT_YET_RECRUITING","city":"Jordan","zip":"HKG","country":"Hong Kong"},{"facility":"Research Site","status":"NOT_YET_RECRUITING","city":"Lai Chi Kok","country":"Hong Kong","geoPoint":{"lat":22.3369,"lon":114.14031}},{"facility":"Research Site","status":"NOT_YET_RECRUITING","city":"Bangalore","zip":"560027","country":"India","geoPoint":{"lat":12.97194,"lon":77.59369}},{"facility":"Research Site","status":"NOT_YET_RECRUITING","city":"Delhi","zip":"110085","country":"India","geoPoint":{"lat":28.65195,"lon":77.23149}},{"facility":"Research Site","status":"NOT_YET_RECRUITING","city":"Hyderabad","zip":"500032","country":"India","geoPoint":{"lat":17.38405,"lon":78.45636}},{"facility":"Research Site","status":"NOT_YET_RECRUITING","city":"Kolkata","zip":"700054","country":"India","geoPoint":{"lat":22.56263,"lon":88.36304}},{"facility":"Research Site","status":"NOT_YET_RECRUITING","city":"Mysuru","zip":"570017","country":"India","geoPoint":{"lat":12.29791,"lon":76.63925}},{"facility":"Research Site","status":"NOT_YET_RECRUITING","city":"Nashik","zip":"422011","country":"India","geoPoint":{"lat":19.99727,"lon":73.79096}},{"facility":"Research Site","status":"NOT_YET_RECRUITING","city":"New Delhi","zip":"100049","country":"India","geoPoint":{"lat":28.63576,"lon":77.22445}},{"facility":"Research Site","status":"NOT_YET_RECRUITING","city":"Vadodara","zip":"391760","country":"India","geoPoint":{"lat":22.29941,"lon":73.20812}},{"facility":"Research Site","status":"SUSPENDED","city":"Varanasi","zip":"221005","country":"India","geoPoint":{"lat":25.31668,"lon":83.01041}},{"facility":"Research Site","status":"RECRUITING","city":"Milano","zip":"20141","country":"Italy","geoPoint":{"lat":45.46427,"lon":9.18951}},{"facility":"Research Site","status":"RECRUITING","city":"Monza","zip":"20900","country":"Italy","geoPoint":{"lat":45.58005,"lon":9.27246}},{"facility":"Research Site","status":"RECRUITING","city":"Orbassano","zip":"10043","country":"Italy","geoPoint":{"lat":45.00547,"lon":7.53813}},{"facility":"Research Site","status":"RECRUITING","city":"Padova","zip":"35128","country":"Italy","geoPoint":{"lat":45.40797,"lon":11.88586}},{"facility":"Research Site","status":"NOT_YET_RECRUITING","city":"Parma","zip":"43100","country":"Italy","geoPoint":{"lat":44.79935,"lon":10.32618}},{"facility":"Research Site","status":"RECRUITING","city":"Chuo-ku","zip":"104-0045","country":"Japan","geoPoint":{"lat":35.57779,"lon":139.71685}},{"facility":"Research Site","status":"RECRUITING","city":"Fukuoka-shi","zip":"812-8582","country":"Japan","geoPoint":{"lat":33.6,"lon":130.41667}},{"facility":"Research Site","status":"NOT_YET_RECRUITING","city":"Kashiwa","zip":"277-8577","country":"Japan","geoPoint":{"lat":35.86224,"lon":139.97732}},{"facility":"Research Site","status":"RECRUITING","city":"Koto-ku","zip":"135-8550","country":"Japan","geoPoint":{"lat":35.66667,"lon":139.81718}},{"facility":"Research Site","status":"NOT_YET_RECRUITING","city":"Niigata-shi","zip":"951-8566","country":"Japan","geoPoint":{"lat":37.88637,"lon":139.00589}},{"facility":"Research Site","status":"NOT_YET_RECRUITING","city":"Osaka-shi","zip":"541-8567","country":"Japan","geoPoint":{"lat":34.69374,"lon":135.50218}},{"facility":"Research Site","status":"RECRUITING","city":"Osakasayama-shi","zip":"589-8511","country":"Japan","geoPoint":{"lat":34.69374,"lon":135.50218}},{"facility":"Research Site","status":"RECRUITING","city":"Sendai-shi","zip":"981-0914","country":"Japan","geoPoint":{"lat":38.26667,"lon":140.86667}},{"facility":"Research Site","status":"RECRUITING","city":"Wakayama-shi","zip":"641-8510","country":"Japan","geoPoint":{"lat":34.23333,"lon":135.16667}},{"facility":"Research Site","status":"RECRUITING","city":"Yokohama-shi","zip":"241-8515","country":"Japan","geoPoint":{"lat":35.43333,"lon":139.65}},{"facility":"Research Site","status":"RECRUITING","city":"Erie","zip":"16544","country":"Korea, Republic of"},{"facility":"Research Site","status":"RECRUITING","city":"Goyang-si","zip":"410-769","country":"Korea, Republic of","geoPoint":{"lat":37.65639,"lon":126.835}},{"facility":"Research Site","status":"RECRUITING","city":"Namdong-gu","zip":"21565","country":"Korea, Republic of"},{"facility":"Research Site","status":"RECRUITING","city":"Seoul","zip":"06351","country":"Korea, Republic of","geoPoint":{"lat":37.566,"lon":126.9784}},{"facility":"Research Site","status":"RECRUITING","city":"Seoul","zip":"120-752","country":"Korea, Republic of","geoPoint":{"lat":37.566,"lon":126.9784}},{"facility":"Research Site","status":"RECRUITING","city":"Seoul","zip":"13620","country":"Korea, Republic of","geoPoint":{"lat":37.566,"lon":126.9784}},{"facility":"Research Site","status":"RECRUITING","city":"Bystra","zip":"43-360","country":"Poland","geoPoint":{"lat":49.76042,"lon":19.05973}},{"facility":"Research Site","status":"RECRUITING","city":"Olsztyn","zip":"10-357","country":"Poland","geoPoint":{"lat":53.77995,"lon":20.49416}},{"facility":"Research Site","status":"RECRUITING","city":"Poznań","zip":"60-569","country":"Poland","geoPoint":{"lat":52.40692,"lon":16.92993}},{"facility":"Research Site","status":"RECRUITING","city":"Warszawa","zip":"02-781","country":"Poland","geoPoint":{"lat":52.22977,"lon":21.01178}},{"facility":"Research Site","status":"NOT_YET_RECRUITING","city":"Rio Piedras","zip":"00935","country":"Puerto Rico","geoPoint":{"lat":18.39745,"lon":-66.04989}},{"facility":"Research Site","status":"NOT_YET_RECRUITING","city":"San Juan","zip":"00918","country":"Puerto Rico","geoPoint":{"lat":18.46633,"lon":-66.10572}},{"facility":"Research Site","status":"RECRUITING","city":"Barcelona","zip":"8036","country":"Spain","geoPoint":{"lat":41.38879,"lon":2.15899}},{"facility":"Research Site","status":"RECRUITING","city":"Granada","zip":"18007","country":"Spain","geoPoint":{"lat":37.18817,"lon":-3.60667}},{"facility":"Research Site","status":"RECRUITING","city":"La Coruña","zip":"15006","country":"Spain","geoPoint":{"lat":43.37135,"lon":-8.396}},{"facility":"Research Site","status":"NOT_YET_RECRUITING","city":"Madrid","zip":"28040","country":"Spain","geoPoint":{"lat":40.4165,"lon":-3.70256}},{"facility":"Research Site","status":"NOT_YET_RECRUITING","city":"Majadahonda","zip":"28222","country":"Spain","geoPoint":{"lat":40.47353,"lon":-3.87182}},{"facility":"Research Site","status":"RECRUITING","city":"Valencia","zip":"46009","country":"Spain","geoPoint":{"lat":39.46975,"lon":-0.37739}},{"facility":"Research Site","status":"RECRUITING","city":"Taichung","zip":"40705","country":"Taiwan","geoPoint":{"lat":24.1469,"lon":120.6839}},{"facility":"Research Site","status":"RECRUITING","city":"Tainan","zip":"704","country":"Taiwan","geoPoint":{"lat":22.99083,"lon":120.21333}},{"facility":"Research Site","status":"RECRUITING","city":"Taipei City","zip":"106","country":"Taiwan","geoPoint":{"lat":25.04776,"lon":121.53185}},{"facility":"Research Site","status":"RECRUITING","city":"Taipei","zip":"10002","country":"Taiwan","geoPoint":{"lat":25.04776,"lon":121.53185}},{"facility":"Research Site","status":"RECRUITING","city":"Taipei","zip":"TAIWAN","country":"Taiwan","geoPoint":{"lat":25.04776,"lon":121.53185}},{"facility":"Research Site","status":"RECRUITING","city":"Taoyuan","zip":"333","country":"Taiwan","geoPoint":{"lat":24.95233,"lon":121.20193}},{"facility":"Research Site","status":"RECRUITING","city":"Bangkok","zip":"10400","country":"Thailand","geoPoint":{"lat":13.75398,"lon":100.50144}},{"facility":"Research Site","status":"RECRUITING","city":"Bangkok","zip":"10700","country":"Thailand","geoPoint":{"lat":13.75398,"lon":100.50144}},{"facility":"Research Site","status":"RECRUITING","city":"Dusit","zip":"10300","country":"Thailand","geoPoint":{"lat":13.7775,"lon":100.51977}},{"facility":"Research Site","status":"RECRUITING","city":"Hat Yai","zip":"90110","country":"Thailand","geoPoint":{"lat":7.00836,"lon":100.47668}},{"facility":"Research Site","status":"RECRUITING","city":"Mueang Udon Thani","zip":"41000","country":"Thailand"},{"facility":"Research Site","status":"NOT_YET_RECRUITING","city":"Adapazarı","zip":"54100","country":"Turkey","geoPoint":{"lat":40.78056,"lon":30.40333}},{"facility":"Research Site","status":"NOT_YET_RECRUITING","city":"Ankara","zip":"06530","country":"Turkey","geoPoint":{"lat":39.91987,"lon":32.85427}},{"facility":"Research Site","status":"NOT_YET_RECRUITING","city":"Goztepe Istanbul","country":"Turkey"},{"facility":"Research Site","status":"NOT_YET_RECRUITING","city":"Izmir","zip":"35100","country":"Turkey","geoPoint":{"lat":38.41273,"lon":27.13838}},{"facility":"Research Site","status":"NOT_YET_RECRUITING","city":"Küçükçekmece","zip":"34295","country":"Turkey","geoPoint":{"lat":40.99461,"lon":28.78083}},{"facility":"Research Site","status":"NOT_YET_RECRUITING","city":"Seyhan","zip":"1060","country":"Turkey"},{"facility":"Research Site","status":"RECRUITING","city":"Ha noi","zip":"100000","country":"Vietnam","geoPoint":{"lat":20.47366,"lon":106.02292}},{"facility":"Research Site","status":"RECRUITING","city":"Hanoi","zip":"100000","country":"Vietnam","geoPoint":{"lat":21.0245,"lon":105.84117}},{"facility":"Research Site","status":"RECRUITING","city":"Ho Chi Minh City","country":"Vietnam","geoPoint":{"lat":10.82302,"lon":106.62965}},{"facility":"Research Site","status":"RECRUITING","city":"Ho Chi Minh","zip":"700000","country":"Vietnam","geoPoint":{"lat":10.82302,"lon":106.62965}},{"facility":"Research Site","status":"RECRUITING","city":"Ho Chi Minh","zip":"70000","country":"Vietnam","geoPoint":{"lat":10.82302,"lon":106.62965}},{"facility":"Research Site","status":"RECRUITING","city":"Vinh","zip":"460000","country":"Vietnam","geoPoint":{"lat":18.67337,"lon":105.69232}}]},"ipdSharingStatementModule":{"ipdSharing":"YES","description":"Qualified researchers can request access to anonymized individual patient-level data from AstraZeneca group of companies sponsored clinical trials via the request portal.\n\nAll request will be evaluated as per the AZ disclosure commitment: https://astrazenecagrouptrials.pharmacm.com/ST/Submission/Disclosure","infoTypes":["STUDY_PROTOCOL","SAP"],"timeFrame":"AstraZeneca will meet or exceed data availability as per the commitments made to the EFPIA Pharma Data Sharing Principles.\n\nFor details of our timelines, please rerefer to our disclosure commitment at https://astrazenecagrouptrials.pharmacm.com/ST/Submission/Disclosure","accessCriteria":"When a request has been approved AstraZeneca will provide access to the deidentified individual patient-level data in an approved sponsored tool .\n\nSigned Data Sharing Agreement (non-negotiable contract for data accessors) must be in place before accessing requested information.\n\nAdditionally, all users will need to accept the terms and conditions of the SAS MSE to gain access. For additional details, please review the Disclosure Statements at https://astrazenecagrouptrials.pharmacm.com/ST/Submission/Disclosure.","url":"https://astrazenecagroup-dt.pharmacm.com/DT/Home"}},"derivedSection":{"miscInfoModule":{"versionHolder":"2025-07-07"},"conditionBrowseModule":{"meshes":[{"id":"D008175","term":"Lung Neoplasms"},{"id":"D002289","term":"Carcinoma, Non-Small-Cell Lung"}],"ancestors":[{"id":"D012142","term":"Respiratory Tract Neoplasms"},{"id":"D013899","term":"Thoracic Neoplasms"},{"id":"D009371","term":"Neoplasms by Site"},{"id":"D009369","term":"Neoplasms"},{"id":"D008171","term":"Lung Diseases"},{"id":"D012140","term":"Respiratory Tract Diseases"},{"id":"D002283","term":"Carcinoma, Bronchogenic"},{"id":"D001984","term":"Bronchial Neoplasms"}],"browseLeaves":[{"id":"M11172","name":"Lung Neoplasms","asFound":"Lung Cancer","relevance":"HIGH"},{"id":"M5546","name":"Carcinoma, Non-Small-Cell Lung","asFound":"Non-small Cell Lung Cancer","relevance":"HIGH"},{"id":"M5534","name":"Carcinoma","relevance":"LOW"},{"id":"M14979","name":"Respiratory Tract Neoplasms","relevance":"LOW"},{"id":"M16658","name":"Thoracic Neoplasms","relevance":"LOW"},{"id":"M11168","name":"Lung Diseases","relevance":"LOW"},{"id":"M14977","name":"Respiratory Tract Diseases","relevance":"LOW"},{"id":"M5540","name":"Carcinoma, Bronchogenic","relevance":"LOW"},{"id":"M5260","name":"Bronchial Neoplasms","relevance":"LOW"}],"browseBranches":[{"abbrev":"BC04","name":"Neoplasms"},{"abbrev":"BC08","name":"Respiratory Tract (Lung and Bronchial) Diseases"},{"abbrev":"All","name":"All Conditions"}]},"interventionBrowseModule":{"meshes":[{"id":"C000596361","term":"Osimertinib"}],"ancestors":[{"id":"D000092004","term":"Tyrosine Kinase Inhibitors"},{"id":"D047428","term":"Protein Kinase Inhibitors"},{"id":"D004791","term":"Enzyme Inhibitors"},{"id":"D045504","term":"Molecular Mechanisms of Pharmacological Action"},{"id":"D000970","term":"Antineoplastic Agents"}],"browseLeaves":[{"id":"M145673","name":"Osimertinib","asFound":"Switch","relevance":"HIGH"},{"id":"M11900","name":"Mitogens","relevance":"LOW"},{"id":"M2889","name":"Tyrosine Kinase Inhibitors","relevance":"LOW"},{"id":"M25820","name":"Protein Kinase Inhibitors","relevance":"LOW"},{"id":"M7951","name":"Enzyme Inhibitors","relevance":"LOW"},{"id":"T22","name":"Tyrosine","relevance":"LOW"}],"browseBranches":[{"abbrev":"ANeo","name":"Antineoplastic Agents"},{"abbrev":"All","name":"All Drugs and Chemicals"},{"abbrev":"AA","name":"Amino Acids"}]}},"hasResults":false}