{"protocolSection":{"identificationModule":{"nctId":"NCT06372145","orgStudyIdInfo":{"id":"LTS17043"},"secondaryIdInfos":[{"id":"2023-503631-18","type":"REGISTRY","domain":"CTIS"},{"id":"U1111-1287-6797","type":"REGISTRY","domain":"ICTRP"}],"organization":{"fullName":"Sanofi","class":"INDUSTRY"},"briefTitle":"A Study to Investigate Long-term Safety and Tolerability of Tolebrutinib in Participants With Multiple Sclerosis.","officialTitle":"An Interventional, Phase 3 Extension Study to Investigate Long-term Safety and Tolerability of Tolebrutinib in Participants With Relapsing Multiple Sclerosis, Primary Progressive Multiple Sclerosis, or Nonrelapsing Secondary Progressive Multiple Sclerosis"},"statusModule":{"statusVerifiedDate":"2025-03","overallStatus":"RECRUITING","expandedAccessInfo":{"hasExpandedAccess":false},"startDateStruct":{"date":"2024-04-16","type":"ACTUAL"},"primaryCompletionDateStruct":{"date":"2029-04-30","type":"ESTIMATED"},"completionDateStruct":{"date":"2029-04-30","type":"ESTIMATED"},"studyFirstSubmitDate":"2024-04-15","studyFirstSubmitQcDate":"2024-04-15","studyFirstPostDateStruct":{"date":"2024-04-17","type":"ACTUAL"},"lastUpdateSubmitDate":"2025-03-06","lastUpdatePostDateStruct":{"date":"2025-03-07","type":"ACTUAL"}},"sponsorCollaboratorsModule":{"responsibleParty":{"type":"SPONSOR"},"leadSponsor":{"name":"Sanofi","class":"INDUSTRY"}},"oversightModule":{"oversightHasDmc":true,"isFdaRegulatedDrug":true,"isFdaRegulatedDevice":false},"descriptionModule":{"briefSummary":"This is a Phase 3 extension, global, multicenter study to assess the long-term safety and tolerability of tolebrutinib in adult participants (aged ≥18 years) with RMS, PPMS, or NRSPMS who were previously enrolled in the Phase 2b LTS (LTS16004) or 1 of the 4 Phase 3 tolebrutinib pivotal trials (GEMINI 1 \\[EFC16033\\], GEMINI 2 \\[EFC16034\\], HERCULES \\[EFC16645\\], or PERSEUS \\[EFC16035\\]).\n\nSUBSTUDY: ToleDYNAMIC substudy","detailedDescription":"Participants with relapsing MS from the Phase 2b LTS16004 parent study will continue open-label (OL) tolebrutinib.\n\nAll participants from the Phase 3 parent studies (EFC16033, EFC16034, EFC16645, and EFC16035) will learn which treatment they received in the parent study:\n\n* If from one of the Phase 3 relapsing MS studies and on teriflunomide, an accelerated elimination procedure or a 3-month washout period is required prior to starting OL tolebrutinib. If on teriflunomide, and benefiting and recommended by the Investigator, the participant may opt to continue teriflunomide outside of the LTS17043 study, if clinically appropriate. If on tolebrutinib, the participant will continue tolebrutinib.\n* All participants from one of the Phase 3 progressive MS studies will start OL tolebrutinib.\n* If a participant already started OL tolebrutinib in the Phase 3 parent study this will be continued.\n* RMS participants who are not eligible for OL tolebrutinib per Health Authority and/or ethics committee decisions on the study conduct (ie, partial hold on initiation of tolebrutinib) will continue their parent study treatment assignment as per their randomization from the parent study.\n\nThe treatment duration per participant will be approximately 3 years of OL tolebrutinib."},"conditionsModule":{"conditions":["Relapsing Multiple Sclerosis","Secondary Progressive Multiple Sclerosis","Progressive Relapsing Multiple Sclerosis"]},"designModule":{"studyType":"INTERVENTIONAL","phases":["PHASE3"],"designInfo":{"allocation":"NON_RANDOMIZED","interventionModel":"SINGLE_GROUP","primaryPurpose":"TREATMENT","maskingInfo":{"masking":"NONE"}},"enrollmentInfo":{"count":2500,"type":"ESTIMATED"}},"armsInterventionsModule":{"armGroups":[{"label":"Tolebrutinib","type":"EXPERIMENTAL","description":"* Participants will receive OL tolebrunitib 60 mg once daily.\n* RMS participants who are not eligible for OL tolebrutinib per Health Authority and/or ethics committee decisions on the study conduct (ie, partial hold on initiation of tolebrutinib) will continue their parent study treatment assignment as per their randomization from the parent study.","interventionNames":["Drug: Tolebrutinib","Drug: Placebo"]},{"label":"Teriflunomide","type":"ACTIVE_COMPARATOR","description":"* participants will receive teriflunomide 14 mg daily\n* RMS participants who are not eligible for OL tolebrutinib per Health Authority and/or ethics committee decisions on the study conduct (ie, partial hold on initiation of tolebrutinib) will continue their parent study treatment assignment (either tolebrutinib or teriflunomide) as per their randomization from the parent study. If unblinded to teriflunomide parent study treatment assignment, these RMS participants will continue teriflunomide in the LTS17043 study.","interventionNames":["Drug: Placebo","Drug: Teriflunomide"]}],"interventions":[{"type":"DRUG","name":"Tolebrutinib","description":"Pharmaceutical form:Tablet-Route of administration:oral","armGroupLabels":["Tolebrutinib"],"otherNames":["SAR442168"]},{"type":"DRUG","name":"Placebo","description":"Pharmaceutical form:Tablet-Route of administration:oral","armGroupLabels":["Teriflunomide","Tolebrutinib"]},{"type":"DRUG","name":"Teriflunomide","description":"Pharmaceutical form:Tablet-Route of administration:oral","armGroupLabels":["Teriflunomide"],"otherNames":["Aubagio"]}]},"outcomesModule":{"primaryOutcomes":[{"measure":"Number of Participants with Adverse Events (AEs) and Serious Adverse Events (SAEs), Adverse Events of Special Interest (AESIs) and AEs leading to permanent study intervention discontinuation","timeFrame":"From baseline until the End of study approximately 3 years per participant"},{"measure":"Number of Participants with Potentially clinically significant abnormalities (PCSAs)","description":"Potentially clinically significant abnormalities (PCSAs) determined by laboratory tests, electrocardiogram (ECG), or vital signs and safety findings on MRI during the study period.","timeFrame":"From baseline until the End of study approximately 3 years per participant"}],"secondaryOutcomes":[{"measure":"Time to onset of 6-month confirmed disability worsening (CDW for RMS) or confirmed disability progression (CDP for PPMS and NRSPMS) for participants from pivotal studies","description":"Time to onset is defined as a sustained increase from baseline EDSS (pivotal trial) of:\n\n* RMS: ≥1.5 points when the baseline score is 0, ≥1.0 point when the baseline score is 0.5 to ≤5.5 or ≥0.5 point when the baseline score is \\>5.5\n* PPMS: ≥1.0 point when the baseline score is ≤5.5 or ≥0.5 point when the baseline score is \\>5.5\n* NRSPMS: ≥1.0 point when the baseline score is ≤5.0 or ≥0.5 point when the baseline score is \\>5.0","timeFrame":"From baseline until the End of study approximately 3 years per participant"},{"measure":"Annualized Relapse Rate (ARR) for RMS only","description":"ARR during the OL treatment period assessed by confirmed protocol-defined relapses","timeFrame":"From baseline until the End of study approximately 3 years per participant"},{"measure":"Number of new and/or enlarging T2-hyperintense lesions per year","timeFrame":"From baseline until the End of study approximately 3 years per participant"},{"measure":"Change from baseline in total volume of T2-hyperintense lesions","timeFrame":"From baseline until the End of study approximately 3 years per participant"},{"measure":"ToleDYNAMIC substudy Change from baseline in biomarkers","timeFrame":"From baseline until 12 months per participant"}]},"eligibilityModule":{"eligibilityCriteria":"Inclusion Criteria:\n\n- Participants with RMS, PPMS, or NRSPMS who completed the Phase 2b LTS (LTS16004) or 1 of the 4 Phase 3 pivotal tolebrutinib trials (EFC16033, EFC16034, EFC16645, EFC16035) on IMP.\n\nOR\n\n- The Phase 2b LTS (LTS16004) or Phase 3 tolebrutinib pivotal trial participants who temporarily discontinued IMP due to a national emergency and completed the trial visits.\n\nToleDYNAMIC Substudy: Inclusion criteria are those of the main study\n\nExclusion Criteria:\n\n* Participants are excluded from the study if any of the following criteria apply:\n* The participant is at risk for or has a persistent chronic, active (including fever higher than 38°C and clinically unstable), or recurring systemic infection, as judged by the Investigator\n* For participants initiating OL tolebrutinib in the LTS17043 study: Participants at risk of developing or having reactivation of hepatitis, ie, results at the unblinding visit (RMS) or opt-in visit (PMS) for serological markers for hepatitis B and C viruses indicating acute or chronic infection\n* Active alcohol use disorder or a history of alcohol or drug abuse within 1 year prior to the opt-in visit\n* Current alcohol intake equal to or exceeding the following at the opt-in visit: more than 2 drinks per day for men and more than 1 drink per day for women\n* Abnormal ECG during the opt-in visit considered in the Investigator's judgment to be clinically significant, such as QTcF \\>500 msec, in the context of this study.\n* A bleeding disorder, known platelet dysfunction, abnormal platelet count (\\<100,000/microliter), history of significant bleeding event or other conditions and planned procedures that may predispose the participant to excessive bleeding during the study, as judged by the Investigator.\n* For participants initiating OL tolebrutinib in the LTS17043 study: Confirmed unblinding visit (RMS) or opt-in visit (PMS) alanine aminotransferase (ALT) more than 1.5 × upper limit of normal (ULN) OR aspartate aminotransferase (AST) more than 1.5 × ULN OR alkaline phosphatase more than 2 × ULN (unless caused by non-liver-related disorder or explained by a stable chronic liver disorder) OR total bilirubin more than 1.5 × ULN (unless due to Gilbert syndrome or non-liver-related disorder).\n* Acute liver disease, cirrhosis, chronic liver disease (unless considered stable for more than 6 months).\n* Participants who developed clinically relevant cardiovascular, hepatic, endocrine, neuropsychiatric or other major systemic disease making implementation of the protocol or interpretation of the trial results difficult or that would put the patient at risk by participating in the trial, as judged by the Investigator.\n* The participant is receiving treatment during the study period with drugs not permitted by the study protocol, including potent and moderate inducers of cytochrome P450 (CYP) 3A or potent inhibitors of CYP2C8 hepatic enzymes.\n\nNOTE: The above information is not intended to contain all considerations relevant to a patient's potential participation in a clinical trial.\n\nToleDYNAMIC Substudy: Exclusion criteria are those of the main study","healthyVolunteers":false,"sex":"ALL","minimumAge":"18 Years","stdAges":["ADULT","OLDER_ADULT"]},"contactsLocationsModule":{"centralContacts":[{"name":"Trial Transparency email recommended (Toll free for US & Canada)","role":"CONTACT","phone":"800-633-1610","phoneExt":"option 6","email":"Contact-US@sanofi.com"}],"locations":[{"facility":"University of Alabama at Birmingham- Site Number : 8400013","status":"RECRUITING","city":"Birmingham","state":"Alabama","zip":"35233","country":"United States","geoPoint":{"lat":33.52066,"lon":-86.80249}},{"facility":"North Central Neurology Associates- Site Number : 8400009","status":"RECRUITING","city":"Cullman","state":"Alabama","zip":"35058","country":"United States","geoPoint":{"lat":34.17482,"lon":-86.84361}},{"facility":"Center for Neurology and Spine - Phoenix - North 32nd Street- Site Number : 8400089","status":"RECRUITING","city":"Phoenix","state":"Arizona","zip":"84018","country":"United States","geoPoint":{"lat":33.44838,"lon":-112.07404}},{"facility":"University of California San Diego - La Jolla- Site Number : 8400101","status":"RECRUITING","city":"La Jolla","state":"California","zip":"92037","country":"United States","geoPoint":{"lat":32.84727,"lon":-117.2742}},{"facility":"Collaborative Neuroscience Research- Site Number : 8400045","status":"RECRUITING","city":"Los Alamitos","state":"California","zip":"90720","country":"United States","geoPoint":{"lat":33.80307,"lon":-118.07256}},{"facility":"Keck School of Medicine of University of Southern California- Site Number : 8400143","status":"RECRUITING","city":"Los Angeles","state":"California","zip":"90033","country":"United States","geoPoint":{"lat":34.05223,"lon":-118.24368}},{"facility":"Private Practice - Dr. Regina Berkovich- Site Number : 8400059","status":"RECRUITING","city":"West Hollywood","state":"California","zip":"90048","country":"United States","geoPoint":{"lat":34.09001,"lon":-118.36174}},{"facility":"University of Colorado - Anschutz Medical Campus- Site Number : 8400012","status":"RECRUITING","city":"Aurora","state":"Colorado","zip":"80045","country":"United States","geoPoint":{"lat":39.72943,"lon":-104.83192}},{"facility":"Advanced Neurology of Colorado- Site Number : 8400025","status":"RECRUITING","city":"Fort Collins","state":"Colorado","zip":"80528","country":"United States","geoPoint":{"lat":40.58526,"lon":-105.08442}},{"facility":"MedStar Georgetown University Hospital- Site Number : 8400119","status":"RECRUITING","city":"Washington","state":"District of Columbia","zip":"20007","country":"United States","geoPoint":{"lat":38.89511,"lon":-77.03637}},{"facility":"SFM Clinical Research- Site Number : 8400029","status":"RECRUITING","city":"Boca Raton","state":"Florida","zip":"33487","country":"United States","geoPoint":{"lat":26.3669,"lon":-80.13033}},{"facility":"Neurology Associates - Maitland- Site Number : 8409902","status":"RECRUITING","city":"Maitland","state":"Florida","zip":"32751","country":"United States","geoPoint":{"lat":28.62778,"lon":-81.36312}},{"facility":"University of Miami- Site Number : 8400063","status":"RECRUITING","city":"Miami","state":"Florida","zip":"33136","country":"United States","geoPoint":{"lat":25.77427,"lon":-80.19366}},{"facility":"Aqualane Clinical Research- Site Number : 8400027","status":"RECRUITING","city":"Naples","state":"Florida","zip":"34105","country":"United States","geoPoint":{"lat":26.14234,"lon":-81.79596}},{"facility":"Axiom Clinical Research of Florida- Site Number : 8400001","status":"RECRUITING","city":"Tampa","state":"Florida","zip":"33609","country":"United States","geoPoint":{"lat":27.94752,"lon":-82.45843}},{"facility":"University of South Florida- Site Number : 8409905","status":"RECRUITING","city":"Tampa","state":"Florida","zip":"33612","country":"United States","geoPoint":{"lat":27.94752,"lon":-82.45843}},{"facility":"Velocity Clinical Research - Savannah Neurology- Site Number : 8409903","status":"RECRUITING","city":"Savannah","state":"Georgia","zip":"31406","country":"United States","geoPoint":{"lat":32.08354,"lon":-81.09983}},{"facility":"Consultants in Neurology- Site Number : 8409906","status":"RECRUITING","city":"Northbrook","state":"Illinois","zip":"60062","country":"United States","geoPoint":{"lat":42.12753,"lon":-87.82895}},{"facility":"Springfield Clinic 1st - 800 Building- Site Number : 8400071","status":"RECRUITING","city":"Springfield","state":"Illinois","zip":"62702","country":"United States","geoPoint":{"lat":39.80172,"lon":-89.64371}},{"facility":"Fort Wayne Neurological Center - North- Site Number : 8400039","status":"RECRUITING","city":"Fort Wayne","state":"Indiana","zip":"46845","country":"United States","geoPoint":{"lat":41.1306,"lon":-85.12886}},{"facility":"University of Kansas Medical Center- Site Number : 8400023","status":"RECRUITING","city":"Kansas City","state":"Kansas","zip":"66160","country":"United States","geoPoint":{"lat":39.11417,"lon":-94.62746}},{"facility":"Norton Cancer Institute - St. Matthews- Site Number : 8400127","status":"RECRUITING","city":"Louisville","state":"Kentucky","zip":"40207","country":"United States","geoPoint":{"lat":38.25424,"lon":-85.75941}},{"facility":"The NeuroMedical Center- Site Number : 8400057","status":"RECRUITING","city":"Baton Rouge","state":"Louisiana","zip":"70810","country":"United States","geoPoint":{"lat":30.45075,"lon":-91.15455}},{"facility":"Tufts Medical Center- Site Number : 8400072","status":"RECRUITING","city":"Boston","state":"Massachusetts","zip":"02111","country":"United States","geoPoint":{"lat":42.35843,"lon":-71.05977}},{"facility":"Harper University Hospital- Site Number : 8400046","status":"RECRUITING","city":"Detroit","state":"Michigan","zip":"48201","country":"United States","geoPoint":{"lat":42.33143,"lon":-83.04575}},{"facility":"Michigan Institute for Neurological Disorders- Site Number : 8400058","status":"RECRUITING","city":"Farmington Hills","state":"Michigan","zip":"48334","country":"United States","geoPoint":{"lat":42.48531,"lon":-83.37716}},{"facility":"Memorial Healthcare Institute for Neuroscience- Site Number : 8400033","status":"RECRUITING","city":"Owosso","state":"Michigan","zip":"48867","country":"United States","geoPoint":{"lat":42.9978,"lon":-84.17664}},{"facility":"Minneapolis Clinic of Neurology - Golden Valley- Site Number : 8400051","status":"RECRUITING","city":"Golden Valley","state":"Minnesota","zip":"55422","country":"United States","geoPoint":{"lat":45.00969,"lon":-93.34912}},{"facility":"Sharlin Health & Neurology- Site Number : 8400093","status":"RECRUITING","city":"Ozark","state":"Missouri","zip":"65721","country":"United States","geoPoint":{"lat":37.02089,"lon":-93.20602}},{"facility":"Missouri Baptist Medical Center- Site Number : 8400019","status":"RECRUITING","city":"Saint Louis","state":"Missouri","zip":"63131","country":"United States","geoPoint":{"lat":38.62727,"lon":-90.19789}},{"facility":"Cleveland Clinic Lou Ruvo Center for Brain Health Las Vegas- Site Number : 8400117","status":"RECRUITING","city":"Las Vegas","state":"Nevada","zip":"89106","country":"United States","geoPoint":{"lat":36.17497,"lon":-115.13722}},{"facility":"The University of New Mexico- Site Number : 8400032","status":"RECRUITING","city":"Albuquerque","state":"New Mexico","zip":"87106","country":"United States","geoPoint":{"lat":35.08449,"lon":-106.65114}},{"facility":"Icahn School of Medicine at Mount Sinai- Site Number : 8400038","status":"RECRUITING","city":"New York","state":"New York","zip":"10029","country":"United States","geoPoint":{"lat":40.71427,"lon":-74.00597}},{"facility":"South Shore Neurologic Associates - Patchogue- Site Number : 8400100","status":"RECRUITING","city":"Patchogue","state":"New York","zip":"11772","country":"United States","geoPoint":{"lat":40.76565,"lon":-73.01511}},{"facility":"Stony Brook University- Site Number : 8400042","status":"RECRUITING","city":"Stony Brook","state":"New York","zip":"11794","country":"United States","geoPoint":{"lat":40.92565,"lon":-73.14094}},{"facility":"Wake Forest Baptist Medical Center - Winston-Salem - Medical Center Boulevard- Site Number : 8400116","status":"RECRUITING","city":"Winston-Salem","state":"North Carolina","zip":"27157","country":"United States","geoPoint":{"lat":36.09986,"lon":-80.24422}},{"facility":"Dayton Center for Neurological Disorders- Site Number : 8400081","status":"RECRUITING","city":"Centerville","state":"Ohio","zip":"45459","country":"United States","geoPoint":{"lat":39.62839,"lon":-84.15938}},{"facility":"Cleveland Clinic - Cleveland- Site Number : 8400125","status":"RECRUITING","city":"Cleveland","state":"Ohio","zip":"44195","country":"United States","geoPoint":{"lat":41.4995,"lon":-81.69541}},{"facility":"The Ohio State University- Site Number : 8400150","status":"RECRUITING","city":"Columbus","state":"Ohio","zip":"43210","country":"United States","geoPoint":{"lat":39.96118,"lon":-82.99879}},{"facility":"The Boster Center for Multiple Sclerosis- Site Number : 8400147","status":"RECRUITING","city":"Columbus","state":"Ohio","zip":"43235","country":"United States","geoPoint":{"lat":39.96118,"lon":-82.99879}},{"facility":"Medical Center at Elizabeth Place- Site Number : 8409901","status":"RECRUITING","city":"Dayton","state":"Ohio","zip":"45408","country":"United States","geoPoint":{"lat":39.75895,"lon":-84.19161}},{"facility":"Providence St. Vincent's Medical Center- Site Number : 8400020","status":"RECRUITING","city":"Portland","state":"Oregon","zip":"97225","country":"United States","geoPoint":{"lat":45.52345,"lon":-122.67621}},{"facility":"Premier Neurology- Site Number : 8400069","status":"RECRUITING","city":"Greer","state":"South Carolina","zip":"29650","country":"United States","geoPoint":{"lat":34.93873,"lon":-82.22706}},{"facility":"Hope Neurology- Site Number : 8409904","status":"RECRUITING","city":"Knoxville","state":"Tennessee","zip":"37922","country":"United States","geoPoint":{"lat":35.96064,"lon":-83.92074}},{"facility":"Neurology Center of San Antonio- Site Number : 8400036","status":"RECRUITING","city":"San Antonio","state":"Texas","zip":"78258","country":"United States","geoPoint":{"lat":29.42412,"lon":-98.49363}},{"facility":"Texas Institute for Neurological Disorders - Sherman- Site Number : 8400151","status":"RECRUITING","city":"Sherman","state":"Texas","zip":"75092","country":"United States","geoPoint":{"lat":33.63566,"lon":-96.60888}},{"facility":"University of Vermont Medical Center- Site Number : 8400130","status":"RECRUITING","city":"Burlington","state":"Vermont","zip":"05401","country":"United States","geoPoint":{"lat":44.47588,"lon":-73.21207}},{"facility":"Neurological Associates - Richmond- Site Number : 8400097","status":"RECRUITING","city":"Richmond","state":"Virginia","zip":"23226","country":"United States","geoPoint":{"lat":37.55376,"lon":-77.46026}},{"facility":"Investigational Site Number : 0320007","status":"ACTIVE_NOT_RECRUITING","city":"Buenos Aires","state":"Ciudad De Buenos Aires","zip":"1060","country":"Argentina","geoPoint":{"lat":-34.61315,"lon":-58.37723}},{"facility":"Investigational Site Number : 0320001","status":"ACTIVE_NOT_RECRUITING","city":"Buenos Aires","state":"Ciudad De Buenos Aires","zip":"1424","country":"Argentina","geoPoint":{"lat":-34.61315,"lon":-58.37723}},{"facility":"Investigational Site Number : 0329901","status":"ACTIVE_NOT_RECRUITING","city":"Caba","state":"Ciudad De Buenos Aires","zip":"C1425 BKU","country":"Argentina","geoPoint":{"lat":-34.61315,"lon":-58.37723}},{"facility":"Investigational Site Number : 0320003","status":"RECRUITING","city":"Rosario","state":"Santa Fe","zip":"2000","country":"Argentina","geoPoint":{"lat":-32.94682,"lon":-60.63932}},{"facility":"Investigational Site Number : 0320002","status":"RECRUITING","city":"Buenos Aires","zip":"1012","country":"Argentina","geoPoint":{"lat":-34.61315,"lon":-58.37723}},{"facility":"Investigational Site Number : 0320004","status":"ACTIVE_NOT_RECRUITING","city":"Buenos Aires","zip":"1023","country":"Argentina","geoPoint":{"lat":-34.61315,"lon":-58.37723}},{"facility":"Investigational Site Number : 0320006","status":"ACTIVE_NOT_RECRUITING","city":"Córdoba","zip":"5000","country":"Argentina","geoPoint":{"lat":-31.4135,"lon":-64.18105}},{"facility":"Investigational Site Number : 0320005","status":"RECRUITING","city":"San Miguel de Tucuman","zip":"4000","country":"Argentina","geoPoint":{"lat":-26.82414,"lon":-65.2226}},{"facility":"Investigational Site Number : 0320005","status":"ACTIVE_NOT_RECRUITING","city":"San Miguel de Tucumán","zip":"4000","country":"Argentina","geoPoint":{"lat":-26.82414,"lon":-65.2226}},{"facility":"Investigational Site Number : 0360001","status":"ACTIVE_NOT_RECRUITING","city":"Saint Leonards","state":"New South Wales","zip":"2065","country":"Australia","geoPoint":{"lat":-33.82344,"lon":151.19836}},{"facility":"Investigational Site Number : 0360006","status":"ACTIVE_NOT_RECRUITING","city":"Kent Town","state":"South Australia","zip":"5067","country":"Australia","geoPoint":{"lat":-34.92155,"lon":138.62009}},{"facility":"Investigational Site Number : 0360007","status":"ACTIVE_NOT_RECRUITING","city":"Melbourne","state":"Victoria","zip":"3065","country":"Australia","geoPoint":{"lat":-37.814,"lon":144.96332}},{"facility":"Investigational Site Number : 0400003","status":"RECRUITING","city":"Innsbruck","zip":"6020","country":"Austria","geoPoint":{"lat":47.26266,"lon":11.39454}},{"facility":"Investigational Site Number : 0400004","status":"RECRUITING","city":"Linz","zip":"4020","country":"Austria","geoPoint":{"lat":48.30639,"lon":14.28611}},{"facility":"Investigational Site Number : 0400002","status":"RECRUITING","city":"Vienna","zip":"1090","country":"Austria","geoPoint":{"lat":48.20849,"lon":16.37208}},{"facility":"Investigational Site Number : 0560005","status":"ACTIVE_NOT_RECRUITING","city":"Bruges","zip":"8000","country":"Belgium","geoPoint":{"lat":51.20892,"lon":3.22424}},{"facility":"Investigational Site Number : 0560007","status":"RECRUITING","city":"Brussels","zip":"1200","country":"Belgium","geoPoint":{"lat":50.85045,"lon":4.34878}},{"facility":"Investigational Site Number : 0560004","status":"RECRUITING","city":"Gent","zip":"9000","country":"Belgium","geoPoint":{"lat":51.05,"lon":3.71667}},{"facility":"Investigational Site Number : 0560006","status":"ACTIVE_NOT_RECRUITING","city":"Leuven","zip":"3000","country":"Belgium","geoPoint":{"lat":50.87959,"lon":4.70093}},{"facility":"Investigational Site Number : 0560008","status":"RECRUITING","city":"Liège","zip":"4000","country":"Belgium","geoPoint":{"lat":50.63373,"lon":5.56749}},{"facility":"Investigational Site Number : 0560001","status":"RECRUITING","city":"Overpelt","zip":"3900","country":"Belgium","geoPoint":{"lat":51.21038,"lon":5.41557}},{"facility":"Instituto de Neurologia de Curitiba - Ecoville- Site Number : 0760002","status":"RECRUITING","city":"Curitiba","state":"Paraná","zip":"81210-310","country":"Brazil","geoPoint":{"lat":-25.42778,"lon":-49.27306}},{"facility":"Hospital São Lucas da PUCRS - Porto Alegre - Avenida Ipiranga- Site Number : 0760001","status":"RECRUITING","city":"Porto Alegre","state":"Rio Grande Do Sul","zip":"90610-000","country":"Brazil","geoPoint":{"lat":-30.03306,"lon":-51.23}},{"facility":"CPQuali Pesquisa Clinica - São Paulo- Site Number : 0760007","status":"RECRUITING","city":"São Paulo","zip":"01228-000","country":"Brazil","geoPoint":{"lat":-23.5475,"lon":-46.63611}},{"facility":"Investigational Site Number : 1000002","status":"RECRUITING","city":"Pleven","zip":"5800","country":"Bulgaria","geoPoint":{"lat":43.41667,"lon":24.61667}},{"facility":"Investigational Site Number : 1000005","status":"ACTIVE_NOT_RECRUITING","city":"Plovdiv","zip":"4002","country":"Bulgaria","geoPoint":{"lat":42.15,"lon":24.75}},{"facility":"Investigational Site Number : 1000004","status":"RECRUITING","city":"Sofia","zip":"1113","country":"Bulgaria","geoPoint":{"lat":42.69751,"lon":23.32415}},{"facility":"Investigational Site Number : 1000008","status":"RECRUITING","city":"Sofia","zip":"1407","country":"Bulgaria","geoPoint":{"lat":42.69751,"lon":23.32415}},{"facility":"Investigational Site Number : 1000001","status":"RECRUITING","city":"Sofia","zip":"1431","country":"Bulgaria","geoPoint":{"lat":42.69751,"lon":23.32415}},{"facility":"Investigational Site Number : 1000006","status":"ACTIVE_NOT_RECRUITING","city":"Sofia","zip":"1431","country":"Bulgaria","geoPoint":{"lat":42.69751,"lon":23.32415}},{"facility":"Investigational Site Number : 1000009","status":"ACTIVE_NOT_RECRUITING","city":"Sofia","zip":"1680","country":"Bulgaria","geoPoint":{"lat":42.69751,"lon":23.32415}},{"facility":"Investigational Site Number : 1240002","status":"RECRUITING","city":"Edmonton","state":"Alberta","zip":"T6G 2B7","country":"Canada","geoPoint":{"lat":53.55014,"lon":-113.46871}},{"facility":"Investigational Site Number : 1240017","status":"RECRUITING","city":"Burnaby","state":"British Columbia","zip":"V5G 2X6","country":"Canada","geoPoint":{"lat":49.26636,"lon":-122.95263}},{"facility":"Investigational Site Number : 1249901","status":"RECRUITING","city":"Vancouver","state":"British Columbia","zip":"V6T 1Z4","country":"Canada","geoPoint":{"lat":49.24966,"lon":-123.11934}},{"facility":"Investigational Site Number : 1240011","status":"RECRUITING","city":"Halifax","state":"Nova Scotia","zip":"B3H 4R2","country":"Canada","geoPoint":{"lat":44.64533,"lon":-63.57239}},{"facility":"Investigational Site Number : 1240012","status":"RECRUITING","city":"Hamilton","state":"Ontario","zip":"L8L 2X2","country":"Canada","geoPoint":{"lat":43.25011,"lon":-79.84963}},{"facility":"Investigational Site Number : 1240003","status":"RECRUITING","city":"Ottawa","state":"Ontario","zip":"K1H 8L6","country":"Canada","geoPoint":{"lat":45.41117,"lon":-75.69812}},{"facility":"Investigational Site Number : 1240006","status":"RECRUITING","city":"Gatineau","state":"Quebec","zip":"J8Y 1W2","country":"Canada","geoPoint":{"lat":45.47723,"lon":-75.70164}},{"facility":"Investigational Site Number : 1240021","status":"RECRUITING","city":"Lévis","state":"Quebec","zip":"G6W 5M6","country":"Canada","geoPoint":{"lat":46.80326,"lon":-71.17793}},{"facility":"Investigational Site Number : 1240004","status":"RECRUITING","city":"Montreal","state":"Quebec","zip":"H2X 3E4","country":"Canada","geoPoint":{"lat":45.50884,"lon":-73.58781}},{"facility":"Investigational Site Number : 1240015","status":"RECRUITING","city":"Montreal","state":"Quebec","zip":"H3A 2B4","country":"Canada","geoPoint":{"lat":45.50884,"lon":-73.58781}},{"facility":"Investigational Site Number : 1240007","status":"RECRUITING","city":"Sherbrooke","state":"Quebec","zip":"J1H 5N4","country":"Canada","geoPoint":{"lat":45.40008,"lon":-71.89908}},{"facility":"Investigational Site Number : 1240001","status":"RECRUITING","city":"Quebec","zip":"G1J 1Z4","country":"Canada","geoPoint":{"lat":46.81228,"lon":-71.21454}},{"facility":"Investigational Site Number : 1520002","status":"ACTIVE_NOT_RECRUITING","city":"Santiago","state":"Reg Metropolitana De Santiago","zip":"8320325","country":"Chile","geoPoint":{"lat":-33.45694,"lon":-70.64827}},{"facility":"Investigational Site Number : 1520005","status":"ACTIVE_NOT_RECRUITING","city":"Santiago","state":"Reg Metropolitana De Santiago","zip":"8330032","country":"Chile","geoPoint":{"lat":-33.45694,"lon":-70.64827}},{"facility":"Investigational Site Number : 1520001","status":"RECRUITING","city":"Santiago","state":"Reg Metropolitana De Santiago","zip":"8380456","country":"Chile","geoPoint":{"lat":-33.45694,"lon":-70.64827}},{"facility":"Investigational Site Number : 1520003","status":"ACTIVE_NOT_RECRUITING","city":"Santiago","zip":"8431657","country":"Chile","geoPoint":{"lat":-33.45694,"lon":-70.64827}},{"facility":"Investigational Site Number : 1560009","status":"RECRUITING","city":"Beijing","zip":"100005","country":"China","geoPoint":{"lat":39.9075,"lon":116.39723}},{"facility":"Investigational Site Number : 1560006","status":"ACTIVE_NOT_RECRUITING","city":"Beijing","zip":"100034","country":"China","geoPoint":{"lat":39.9075,"lon":116.39723}},{"facility":"Investigational Site Number : 1560023","status":"ACTIVE_NOT_RECRUITING","city":"Beijing","zip":"100191","country":"China","geoPoint":{"lat":39.9075,"lon":116.39723}},{"facility":"Investigational Site Number : 1560025","status":"ACTIVE_NOT_RECRUITING","city":"Beijing","zip":"100730","country":"China","geoPoint":{"lat":39.9075,"lon":116.39723}},{"facility":"Investigational Site Number : 1560004","status":"RECRUITING","city":"Changchun","zip":"130021","country":"China","geoPoint":{"lat":43.88,"lon":125.32278}},{"facility":"Investigational Site Number : 1560015","status":"RECRUITING","city":"Changsha","zip":"410008","country":"China","geoPoint":{"lat":28.19874,"lon":112.97087}},{"facility":"Investigational Site Number : 1560005","status":"RECRUITING","city":"Chengdu","zip":"610041","country":"China","geoPoint":{"lat":30.66667,"lon":104.06667}},{"facility":"Investigational Site Number : 1560019","status":"ACTIVE_NOT_RECRUITING","city":"Chongqing","zip":"400016","country":"China","geoPoint":{"lat":29.56278,"lon":106.55278}},{"facility":"Investigational Site Number : 1560035","status":"COMPLETED","city":"Fuzhou","zip":"350005","country":"China","geoPoint":{"lat":26.06139,"lon":119.30611}},{"facility":"Investigational Site Number : 1569903","status":"RECRUITING","city":"Guangzhou","zip":"510630","country":"China","geoPoint":{"lat":23.11667,"lon":113.25}},{"facility":"Investigational Site Number : 1560027","status":"RECRUITING","city":"Hohhot","zip":"010070","country":"China","geoPoint":{"lat":40.81056,"lon":111.65222}},{"facility":"Investigational Site Number : 1560014","status":"ACTIVE_NOT_RECRUITING","city":"Jiazhuang","zip":"050000","country":"China"},{"facility":"Investigational Site Number : 1560044","status":"ACTIVE_NOT_RECRUITING","city":"Nanjing","zip":"210008","country":"China","geoPoint":{"lat":32.06167,"lon":118.77778}},{"facility":"Investigational Site Number : 1560042","status":"ACTIVE_NOT_RECRUITING","city":"Nanjing","zip":"210029","country":"China","geoPoint":{"lat":32.06167,"lon":118.77778}},{"facility":"Investigational Site Number : 1569901","status":"RECRUITING","city":"Shanghai","zip":"200040","country":"China","geoPoint":{"lat":31.22222,"lon":121.45806}},{"facility":"Investigational Site Number : 1560018","status":"RECRUITING","city":"Shenyang","zip":"110004","country":"China","geoPoint":{"lat":41.79222,"lon":123.43278}},{"facility":"Investigational Site Number : 1560008","status":"RECRUITING","city":"Taiyuan","zip":"030001","country":"China","geoPoint":{"lat":37.86944,"lon":112.56028}},{"facility":"Investigational Site Number : 1560020","status":"RECRUITING","city":"Tianjin","zip":"300052","country":"China","geoPoint":{"lat":39.14222,"lon":117.17667}},{"facility":"Investigational Site Number : 1560011","status":"ACTIVE_NOT_RECRUITING","city":"Wuhan","zip":"430030","country":"China","geoPoint":{"lat":30.58333,"lon":114.26667}},{"facility":"Investigational Site Number : 1560017","status":"RECRUITING","city":"Xi An","zip":"710038","country":"China"},{"facility":"Investigational Site Number : 1910001","status":"ACTIVE_NOT_RECRUITING","city":"Zagreb","zip":"10000","country":"Croatia","geoPoint":{"lat":45.81444,"lon":15.97798}},{"facility":"Investigational Site Number : 1910002","status":"RECRUITING","city":"Zagreb","zip":"10000","country":"Croatia","geoPoint":{"lat":45.81444,"lon":15.97798}},{"facility":"Investigational Site Number : 2039907","status":"ACTIVE_NOT_RECRUITING","city":"Brno","zip":"625 00","country":"Czechia","geoPoint":{"lat":49.19522,"lon":16.60796}},{"facility":"Investigational Site Number : 2030002","status":"RECRUITING","city":"Brno","zip":"656 91","country":"Czechia","geoPoint":{"lat":49.19522,"lon":16.60796}},{"facility":"Investigational Site Number : 2039903","status":"RECRUITING","city":"Hradec Králové","zip":"500 05","country":"Czechia","geoPoint":{"lat":50.20923,"lon":15.83277}},{"facility":"Investigational Site Number : 2039901","status":"RECRUITING","city":"Jihlava","zip":"586 01","country":"Czechia","geoPoint":{"lat":49.3961,"lon":15.59124}},{"facility":"Investigational Site Number : 2039902","status":"RECRUITING","city":"Ostrava","zip":"708 52","country":"Czechia","geoPoint":{"lat":49.83465,"lon":18.28204}},{"facility":"Investigational Site Number : 2039904","status":"ACTIVE_NOT_RECRUITING","city":"Pardubice","zip":"532 03","country":"Czechia","geoPoint":{"lat":50.04075,"lon":15.77659}},{"facility":"Investigational Site Number : 2030008","status":"ACTIVE_NOT_RECRUITING","city":"Prague","zip":"100 34","country":"Czechia","geoPoint":{"lat":50.08804,"lon":14.42076}},{"facility":"Investigational Site Number : 2039906","status":"ACTIVE_NOT_RECRUITING","city":"Prague","zip":"128 08","country":"Czechia","geoPoint":{"lat":50.08804,"lon":14.42076}},{"facility":"Investigational Site Number : 2039905","status":"ACTIVE_NOT_RECRUITING","city":"Prague","zip":"150 06","country":"Czechia","geoPoint":{"lat":50.08804,"lon":14.42076}},{"facility":"Investigational Site Number : 2030003","status":"RECRUITING","city":"Teplice","zip":"415 01","country":"Czechia","geoPoint":{"lat":50.6404,"lon":13.82451}},{"facility":"Investigational Site Number : 2030007","status":"ACTIVE_NOT_RECRUITING","city":"Zlín","zip":"762 75","country":"Czechia","geoPoint":{"lat":49.22645,"lon":17.67065}},{"facility":"Investigational Site Number : 2080001","status":"RECRUITING","city":"Esbjerg","zip":"6700","country":"Denmark","geoPoint":{"lat":55.47028,"lon":8.45187}},{"facility":"Investigational Site Number : 2080005","status":"COMPLETED","city":"Holstebro","zip":"7500","country":"Denmark","geoPoint":{"lat":56.36009,"lon":8.61607}},{"facility":"Investigational Site Number : 2080004","status":"RECRUITING","city":"Odense","zip":"5000","country":"Denmark","geoPoint":{"lat":55.39594,"lon":10.38831}},{"facility":"Investigational Site Number : 2330001","status":"RECRUITING","city":"Tallinn","zip":"11315","country":"Estonia","geoPoint":{"lat":59.43696,"lon":24.75353}},{"facility":"Investigational Site Number : 2460001","status":"ACTIVE_NOT_RECRUITING","city":"Tampere","zip":"33520","country":"Finland","geoPoint":{"lat":61.49911,"lon":23.78712}},{"facility":"Investigational Site Number : 2460002","status":"ACTIVE_NOT_RECRUITING","city":"Turku","zip":"20521","country":"Finland","geoPoint":{"lat":60.45148,"lon":22.26869}},{"facility":"Investigational Site Number : 2500019","status":"RECRUITING","city":"Besançon","zip":"25000","country":"France","geoPoint":{"lat":47.24878,"lon":6.01815}},{"facility":"Investigational Site Number : 2500011","status":"RECRUITING","city":"Bron","zip":"69500","country":"France","geoPoint":{"lat":45.73333,"lon":4.91667}},{"facility":"Investigational Site Number : 2500005","status":"RECRUITING","city":"Clermont-ferrand","zip":"63000","country":"France","geoPoint":{"lat":45.77966,"lon":3.08628}},{"facility":"Investigational Site Number : 2500015","status":"RECRUITING","city":"Gonesse","zip":"95500","country":"France","geoPoint":{"lat":48.98693,"lon":2.44892}},{"facility":"Investigational Site Number : 2500009","status":"RECRUITING","city":"Lille","zip":"59037","country":"France","geoPoint":{"lat":50.63297,"lon":3.05858}},{"facility":"Investigational Site Number : 2500006","status":"RECRUITING","city":"Montpellier","zip":"34295","country":"France","geoPoint":{"lat":43.61092,"lon":3.87723}},{"facility":"Investigational Site Number : 2500008","status":"RECRUITING","city":"Nancy","zip":"54035","country":"France","geoPoint":{"lat":48.68439,"lon":6.18496}},{"facility":"Investigational Site Number : 2500002","status":"RECRUITING","city":"Nice","zip":"06001","country":"France","geoPoint":{"lat":43.70313,"lon":7.26608}},{"facility":"Investigational Site Number : 2500017","status":"RECRUITING","city":"Nîmes","zip":"30029","country":"France","geoPoint":{"lat":43.83333,"lon":4.35}},{"facility":"Investigational Site Number : 2500007","status":"RECRUITING","city":"Paris","zip":"75019","country":"France","geoPoint":{"lat":48.85341,"lon":2.3488}},{"facility":"Investigational Site Number : 2500014","status":"RECRUITING","city":"Paris","zip":"75651","country":"France","geoPoint":{"lat":48.85341,"lon":2.3488}},{"facility":"Investigational Site Number : 2500004","status":"RECRUITING","city":"Poissy","zip":"78303","country":"France","geoPoint":{"lat":48.92902,"lon":2.04952}},{"facility":"Investigational Site Number : 2500003","status":"RECRUITING","city":"Rennes","zip":"35033","country":"France","geoPoint":{"lat":48.11198,"lon":-1.67429}},{"facility":"Investigational Site Number : 2500010","status":"ACTIVE_NOT_RECRUITING","city":"Saint-herblain","zip":"44800","country":"France","geoPoint":{"lat":47.21765,"lon":-1.64841}},{"facility":"Investigational Site Number : 2500001","status":"RECRUITING","city":"Strasbourg","zip":"67200","country":"France","geoPoint":{"lat":48.58392,"lon":7.74553}},{"facility":"Investigational Site Number : 2500012","status":"RECRUITING","city":"Toulouse","zip":"31059","country":"France","geoPoint":{"lat":43.60426,"lon":1.44367}},{"facility":"Investigational Site Number : 2760005","status":"RECRUITING","city":"Bayreuth","zip":"95445","country":"Germany","geoPoint":{"lat":49.94782,"lon":11.57893}},{"facility":"Investigational Site Number : 2760009","status":"RECRUITING","city":"Berlin","zip":"10117","country":"Germany","geoPoint":{"lat":52.52437,"lon":13.41053}},{"facility":"Investigational Site Number : 2760015","status":"RECRUITING","city":"Berlin","zip":"10713","country":"Germany","geoPoint":{"lat":52.52437,"lon":13.41053}},{"facility":"Investigational Site Number : 2760014","status":"RECRUITING","city":"Berlin","zip":"12099","country":"Germany","geoPoint":{"lat":52.52437,"lon":13.41053}},{"facility":"Investigational Site Number : 2760020","status":"ACTIVE_NOT_RECRUITING","city":"Bochum","zip":"44791","country":"Germany","geoPoint":{"lat":51.48165,"lon":7.21648}},{"facility":"Investigational Site Number : 2760001","status":"RECRUITING","city":"Dresden","zip":"01307","country":"Germany","geoPoint":{"lat":51.05089,"lon":13.73832}},{"facility":"Investigational Site Number : 2769901","status":"RECRUITING","city":"Düsseldorf","zip":"40225","country":"Germany","geoPoint":{"lat":51.22172,"lon":6.77616}},{"facility":"Investigational Site Number : 2760012","status":"RECRUITING","city":"Essen","zip":"45147","country":"Germany","geoPoint":{"lat":51.45657,"lon":7.01228}},{"facility":"Investigational Site Number : 2760002","status":"RECRUITING","city":"Giessen","zip":"35392","country":"Germany","geoPoint":{"lat":50.58727,"lon":8.67554}},{"facility":"Investigational Site Number : 2760016","status":"RECRUITING","city":"Hamburg","zip":"22179","country":"Germany","geoPoint":{"lat":53.57532,"lon":10.01534}},{"facility":"Investigational Site Number : 2760008","status":"RECRUITING","city":"Münster","zip":"48149","country":"Germany","geoPoint":{"lat":51.96236,"lon":7.62571}},{"facility":"Investigational Site Number : 2760011","status":"RECRUITING","city":"ULM","zip":"89081","country":"Germany","geoPoint":{"lat":48.39841,"lon":9.99155}},{"facility":"Investigational Site Number : 2760003","status":"RECRUITING","city":"Wã¼rzburg","zip":"97074","country":"Germany"},{"facility":"Investigational Site Number : 3000006","status":"ACTIVE_NOT_RECRUITING","city":"Athens","zip":"115 25","country":"Greece","geoPoint":{"lat":37.97945,"lon":23.71622}},{"facility":"Investigational Site Number : 3000001","status":"RECRUITING","city":"Athens","zip":"115 28","country":"Greece","geoPoint":{"lat":37.97945,"lon":23.71622}},{"facility":"Investigational Site Number : 3000002","status":"RECRUITING","city":"Athens","zip":"124 62","country":"Greece","geoPoint":{"lat":37.97945,"lon":23.71622}},{"facility":"Investigational Site Number : 3000007","status":"ACTIVE_NOT_RECRUITING","city":"Athens","zip":"151 25","country":"Greece","geoPoint":{"lat":37.97945,"lon":23.71622}},{"facility":"Investigational Site Number : 3000004","status":"RECRUITING","city":"Larissa","zip":"411 10","country":"Greece","geoPoint":{"lat":39.63689,"lon":22.41761}},{"facility":"Investigational Site Number : 3000003","status":"RECRUITING","city":"Thessaloniki","zip":"546 36","country":"Greece","geoPoint":{"lat":40.64361,"lon":22.93086}},{"facility":"Investigational Site Number : 3440001","status":"ACTIVE_NOT_RECRUITING","city":"Sha Tin","zip":"999077","country":"Hong Kong","geoPoint":{"lat":22.38333,"lon":114.18333}},{"facility":"Investigational Site Number : 3489901","status":"RECRUITING","city":"Budapest","zip":"1033","country":"Hungary","geoPoint":{"lat":47.49801,"lon":19.03991}},{"facility":"Investigational Site Number : 3480007","status":"ACTIVE_NOT_RECRUITING","city":"Budapest","zip":"1135","country":"Hungary","geoPoint":{"lat":47.49801,"lon":19.03991}},{"facility":"Investigational Site Number : 3489903","status":"RECRUITING","city":"Budapest","zip":"1138","country":"Hungary","geoPoint":{"lat":47.49801,"lon":19.03991}},{"facility":"Investigational Site Number : 3480002","status":"ACTIVE_NOT_RECRUITING","city":"Pécs","zip":"7623","country":"Hungary","geoPoint":{"lat":46.08333,"lon":18.23333}},{"facility":"Investigational Site Number : 3569904","status":"ACTIVE_NOT_RECRUITING","city":"Chandigarh","zip":"160012","country":"India","geoPoint":{"lat":30.73629,"lon":76.7884}},{"facility":"Investigational Site Number : 3560007","status":"COMPLETED","city":"Gurugram","zip":"122001","country":"India"},{"facility":"Investigational Site Number : 3569903","status":"ACTIVE_NOT_RECRUITING","city":"Gurugram","zip":"122002","country":"India"},{"facility":"Investigational Site Number : 3569901","status":"ACTIVE_NOT_RECRUITING","city":"Mangaluru","zip":"575018","country":"India","geoPoint":{"lat":12.91723,"lon":74.85603}},{"facility":"Investigational Site Number : 3560009","status":"ACTIVE_NOT_RECRUITING","city":"Nagpur","zip":"440012","country":"India","geoPoint":{"lat":21.14631,"lon":79.08491}},{"facility":"Investigational Site Number : 3569902","status":"RECRUITING","city":"New Delhi","zip":"110029","country":"India","geoPoint":{"lat":28.63576,"lon":77.22445}},{"facility":"Investigational Site Number : 3560002","status":"ACTIVE_NOT_RECRUITING","city":"New Delhi","zip":"110060","country":"India","geoPoint":{"lat":28.63576,"lon":77.22445}},{"facility":"Investigational Site Number : 3560004","status":"ACTIVE_NOT_RECRUITING","city":"Thiruvananthapuram","zip":"695011","country":"India","geoPoint":{"lat":8.4855,"lon":76.94924}},{"facility":"Investigational Site Number : 3760003","status":"ACTIVE_NOT_RECRUITING","city":"Haifa","zip":"3109601","country":"Israel","geoPoint":{"lat":32.81841,"lon":34.9885}},{"facility":"Investigational Site Number : 3760001","status":"RECRUITING","city":"Ramat Gan","zip":"5262100","country":"Israel","geoPoint":{"lat":32.08227,"lon":34.81065}},{"facility":"Investigational Site Number : 3760006","status":"ACTIVE_NOT_RECRUITING","city":"Rehovot","zip":"7610001","country":"Israel","geoPoint":{"lat":31.89421,"lon":34.81199}},{"facility":"Investigational Site Number : 3760004","status":"ACTIVE_NOT_RECRUITING","city":"Safed","zip":"1311001","country":"Israel","geoPoint":{"lat":32.96465,"lon":35.496}},{"facility":"Investigational Site Number : 3800016","status":"RECRUITING","city":"Florence","state":"Firenze","zip":"50134","country":"Italy","geoPoint":{"lat":43.77925,"lon":11.24626}},{"facility":"Investigational Site Number : 3800010","status":"ACTIVE_NOT_RECRUITING","city":"Milan","state":"Lombardia","zip":"20133","country":"Italy","geoPoint":{"lat":45.46427,"lon":9.18951}},{"facility":"Investigational Site Number : 3800009","status":"ACTIVE_NOT_RECRUITING","city":"Rome","state":"Roma","zip":"00168","country":"Italy","geoPoint":{"lat":41.89193,"lon":12.51133}},{"facility":"Investigational Site Number : 3800013","status":"RECRUITING","city":"Rome","state":"Roma","zip":"00189","country":"Italy","geoPoint":{"lat":41.89193,"lon":12.51133}},{"facility":"Investigational Site Number : 3800012","status":"ACTIVE_NOT_RECRUITING","city":"Florence","state":"Toscana","zip":"50134","country":"Italy","geoPoint":{"lat":43.77925,"lon":11.24626}},{"facility":"Investigational Site Number : 3800011","status":"ACTIVE_NOT_RECRUITING","city":"Bergamo","zip":"24127","country":"Italy","geoPoint":{"lat":45.69601,"lon":9.66721}},{"facility":"Investigational Site Number : 3800007","status":"RECRUITING","city":"Cagliari","zip":"09126","country":"Italy","geoPoint":{"lat":39.23054,"lon":9.11917}},{"facility":"Investigational Site Number : 3800015","status":"RECRUITING","city":"Catania","zip":"95123","country":"Italy","geoPoint":{"lat":37.49223,"lon":15.07041}},{"facility":"Investigational Site Number : 3800014","status":"ACTIVE_NOT_RECRUITING","city":"Genoa","zip":"16132","country":"Italy","geoPoint":{"lat":44.40478,"lon":8.94438}},{"facility":"Investigational Site Number : 3800001","status":"RECRUITING","city":"Milan","zip":"20132","country":"Italy","geoPoint":{"lat":45.46427,"lon":9.18951}},{"facility":"Investigational Site Number : 3800006","status":"RECRUITING","city":"Naples","zip":"80138","country":"Italy","geoPoint":{"lat":40.85216,"lon":14.26811}},{"facility":"Investigational Site Number : 3800008","status":"ACTIVE_NOT_RECRUITING","city":"Pavia","zip":"27100","country":"Italy","geoPoint":{"lat":45.19205,"lon":9.15917}},{"facility":"Investigational Site Number : 3800002","status":"RECRUITING","city":"Pozzilli","zip":"86077","country":"Italy","geoPoint":{"lat":41.51142,"lon":14.06252}},{"facility":"Investigational Site Number : 3800009","status":"RECRUITING","city":"Roma","zip":"00168","country":"Italy","geoPoint":{"lat":41.89193,"lon":12.51133}},{"facility":"Investigational Site Number : 3800005","status":"ACTIVE_NOT_RECRUITING","city":"Rome","zip":"00149","country":"Italy","geoPoint":{"lat":41.89193,"lon":12.51133}},{"facility":"Investigational Site Number : 3920022","status":"RECRUITING","city":"Morioka","state":"Iwate","zip":"020-8505","country":"Japan","geoPoint":{"lat":39.7,"lon":141.15}},{"facility":"Investigational Site Number : 3920023","status":"RECRUITING","city":"Sagamihara","state":"Kanagawa","zip":"252-0315","country":"Japan","geoPoint":{"lat":35.54899,"lon":139.26064}},{"facility":"Investigational Site Number : 3920018","status":"ACTIVE_NOT_RECRUITING","city":"Kawagoe","state":"Saitama","zip":"350-8550","country":"Japan","geoPoint":{"lat":35.90861,"lon":139.48528}},{"facility":"Investigational Site Number : 3920011","status":"RECRUITING","city":"Kyoto","zip":"616-8255","country":"Japan","geoPoint":{"lat":35.02107,"lon":135.75385}},{"facility":"Investigational Site Number : 3920001","status":"ACTIVE_NOT_RECRUITING","city":"Osaka","zip":"556-0016","country":"Japan","geoPoint":{"lat":34.69374,"lon":135.50218}},{"facility":"Investigational Site Number : 3920004","status":"RECRUITING","city":"Osaka","zip":"570-8507","country":"Japan","geoPoint":{"lat":34.69374,"lon":135.50218}},{"facility":"Investigational Site Number : 3920010","status":"RECRUITING","city":"Tokyo","zip":"145-0065","country":"Japan","geoPoint":{"lat":35.6895,"lon":139.69171}},{"facility":"Investigational Site Number : 4100001","status":"ACTIVE_NOT_RECRUITING","city":"Goyang-si","state":"Gyeonggi-do","zip":"10408","country":"Korea, Republic of","geoPoint":{"lat":37.65639,"lon":126.835}},{"facility":"Investigational Site Number : 4100003","status":"ACTIVE_NOT_RECRUITING","city":"Seoul","state":"Seoul-teukbyeolsi","zip":"03080","country":"Korea, Republic of","geoPoint":{"lat":37.566,"lon":126.9784}},{"facility":"Investigational Site Number : 4100006","status":"ACTIVE_NOT_RECRUITING","city":"Seoul","state":"Seoul-teukbyeolsi","zip":"03722","country":"Korea, Republic of","geoPoint":{"lat":37.566,"lon":126.9784}},{"facility":"Investigational Site Number : 4100002","status":"ACTIVE_NOT_RECRUITING","city":"Seoul","state":"Seoul-teukbyeolsi","zip":"06351","country":"Korea, Republic of","geoPoint":{"lat":37.566,"lon":126.9784}},{"facility":"Investigational Site Number : 4280002","status":"ACTIVE_NOT_RECRUITING","city":"Riga","zip":"LV-1002","country":"Latvia","geoPoint":{"lat":56.946,"lon":24.10589}},{"facility":"Investigational Site Number : 4280003","status":"ACTIVE_NOT_RECRUITING","city":"Riga","zip":"LV-1015","country":"Latvia","geoPoint":{"lat":56.946,"lon":24.10589}},{"facility":"Investigational Site Number : 4400003","status":"ACTIVE_NOT_RECRUITING","city":"Kaunas","zip":"50009","country":"Lithuania","geoPoint":{"lat":54.90272,"lon":23.90961}},{"facility":"Investigational Site Number : 4400004","status":"ACTIVE_NOT_RECRUITING","city":"Siauliai","zip":"76231","country":"Lithuania","geoPoint":{"lat":55.93333,"lon":23.31667}},{"facility":"Investigational Site Number : 4400001","status":"ACTIVE_NOT_RECRUITING","city":"Vilnius","zip":"08661","country":"Lithuania","geoPoint":{"lat":54.68916,"lon":25.2798}},{"facility":"Investigational Site Number : 4840002","status":"RECRUITING","city":"Mexico City","state":"Ciudad De Mexico","zip":"03100","country":"Mexico","geoPoint":{"lat":19.42847,"lon":-99.12766}},{"facility":"Investigational Site Number : 4840001","status":"RECRUITING","city":"Mexico City","state":"Ciudad De Mexico","zip":"06700","country":"Mexico","geoPoint":{"lat":19.42847,"lon":-99.12766}},{"facility":"Investigational Site Number : 4840003","status":"RECRUITING","city":"Veracruz","zip":"91900","country":"Mexico","geoPoint":{"lat":19.18095,"lon":-96.1429}},{"facility":"Investigational Site Number : 5280001","status":"ACTIVE_NOT_RECRUITING","city":"Amsterdam","zip":"1081 HV","country":"Netherlands","geoPoint":{"lat":52.37403,"lon":4.88969}},{"facility":"Investigational Site Number : 5280002","status":"RECRUITING","city":"Heerlen","zip":"6419 PC","country":"Netherlands","geoPoint":{"lat":50.88365,"lon":5.98154}},{"facility":"Investigational Site Number : 5780003","status":"RECRUITING","city":"Bergen","zip":"5021","country":"Norway","geoPoint":{"lat":60.39299,"lon":5.32415}},{"facility":"Investigational Site Number : 5780001","status":"RECRUITING","city":"Oslo","zip":"0450","country":"Norway","geoPoint":{"lat":59.91273,"lon":10.74609}},{"facility":"Investigational Site Number : 6160003","status":"RECRUITING","city":"Bydgoszcz","state":"Kujawsko-pomorskie","zip":"85-796","country":"Poland","geoPoint":{"lat":53.1235,"lon":18.00762}},{"facility":"Investigational Site Number : 6160001","status":"RECRUITING","city":"Lodz","state":"Lódzkie","zip":"90-549","country":"Poland","geoPoint":{"lat":51.75,"lon":19.46667}},{"facility":"Investigational Site Number : 6160005","status":"RECRUITING","city":"Warsaw","state":"Mazowieckie","zip":"01-211","country":"Poland","geoPoint":{"lat":52.22977,"lon":21.01178}},{"facility":"Investigational Site Number : 6160006","status":"ACTIVE_NOT_RECRUITING","city":"Warsaw","state":"Mazowieckie","zip":"01-684","country":"Poland","geoPoint":{"lat":52.22977,"lon":21.01178}},{"facility":"Investigational Site Number : 6160009","status":"ACTIVE_NOT_RECRUITING","city":"Glogow","state":"Podkarpackie","zip":"36-060","country":"Poland","geoPoint":{"lat":51.66361,"lon":16.0845}},{"facility":"Investigational Site Number : 6160004","status":"RECRUITING","city":"Katowice","state":"Slaskie","zip":"40-752","country":"Poland","geoPoint":{"lat":50.25841,"lon":19.02754}},{"facility":"Investigational Site Number : 6160008","status":"ACTIVE_NOT_RECRUITING","city":"Plewiska","state":"Wielkopolskie","zip":"62-064","country":"Poland","geoPoint":{"lat":52.36706,"lon":16.80985}},{"facility":"Investigational Site Number : 6160002","status":"ACTIVE_NOT_RECRUITING","city":"Katowice","zip":"40-595","country":"Poland","geoPoint":{"lat":50.25841,"lon":19.02754}},{"facility":"Investigational Site Number : 6160012","status":"RECRUITING","city":"Lublin","zip":"20-016","country":"Poland","geoPoint":{"lat":51.25,"lon":22.56667}},{"facility":"Investigational Site Number : 6160011","status":"ACTIVE_NOT_RECRUITING","city":"Zabrze","zip":"41-800","country":"Poland","geoPoint":{"lat":50.32492,"lon":18.78576}},{"facility":"Investigational Site Number : 6200001","status":"ACTIVE_NOT_RECRUITING","city":"Braga","zip":"4710-243","country":"Portugal","geoPoint":{"lat":41.55032,"lon":-8.42005}},{"facility":"Investigational Site Number : 6200005","status":"RECRUITING","city":"Coimbra","zip":"3000-075","country":"Portugal","geoPoint":{"lat":40.20564,"lon":-8.41955}},{"facility":"Investigational Site Number : 6200011","status":"RECRUITING","city":"Lisbon","zip":"1169-050","country":"Portugal","geoPoint":{"lat":38.71667,"lon":-9.13333}},{"facility":"Investigational Site Number : 6200006","status":"ACTIVE_NOT_RECRUITING","city":"Lisbon","zip":"1649-035","country":"Portugal","geoPoint":{"lat":38.71667,"lon":-9.13333}},{"facility":"Investigational Site Number : 6200004","status":"ACTIVE_NOT_RECRUITING","city":"Santa Maria Da Feira","zip":"4520-211","country":"Portugal","geoPoint":{"lat":40.92726,"lon":-8.54839}},{"facility":"San Juan MS Center- Site Number : 8400015","status":"RECRUITING","city":"Guaynabo","zip":"00969","country":"Puerto Rico","geoPoint":{"lat":18.35745,"lon":-66.111}},{"facility":"Investigational Site Number : 6420015","status":"ACTIVE_NOT_RECRUITING","city":"Brașov","zip":"500283","country":"Romania","geoPoint":{"lat":45.64861,"lon":25.60613}},{"facility":"Investigational Site Number : 6420008","status":"RECRUITING","city":"Bucharest","zip":"022328","country":"Romania","geoPoint":{"lat":44.43225,"lon":26.10626}},{"facility":"Investigational Site Number : 6420006","status":"RECRUITING","city":"Cluj-napoca","zip":"400006","country":"Romania","geoPoint":{"lat":46.76667,"lon":23.6}},{"facility":"Investigational Site Number : 6420003","status":"RECRUITING","city":"Constanta","zip":"900123","country":"Romania","geoPoint":{"lat":44.18073,"lon":28.63432}},{"facility":"Investigational Site Number : 6420004","status":"RECRUITING","city":"Câmpulung","zip":"115100","country":"Romania","geoPoint":{"lat":45.26667,"lon":25.05}},{"facility":"Investigational Site Number : 6420013","status":"RECRUITING","city":"Oradea","zip":"410169","country":"Romania","geoPoint":{"lat":47.0458,"lon":21.91833}},{"facility":"Investigational Site Number : 6420005","status":"RECRUITING","city":"Sibiu","zip":"550052","country":"Romania","geoPoint":{"lat":45.8,"lon":24.15}},{"facility":"Investigational Site Number : 6420002","status":"ACTIVE_NOT_RECRUITING","city":"Timișoara","zip":"300736","country":"Romania","geoPoint":{"lat":45.75372,"lon":21.22571}},{"facility":"Investigational Site Number : 6880001","status":"RECRUITING","city":"Belgrade","zip":"11000","country":"Serbia","geoPoint":{"lat":44.80401,"lon":20.46513}},{"facility":"Investigational Site Number : 6880003","status":"ACTIVE_NOT_RECRUITING","city":"Belgrade","zip":"11000","country":"Serbia","geoPoint":{"lat":44.80401,"lon":20.46513}},{"facility":"Investigational Site Number : 6880006","status":"ACTIVE_NOT_RECRUITING","city":"Belgrade","zip":"11000","country":"Serbia","geoPoint":{"lat":44.80401,"lon":20.46513}},{"facility":"Investigational Site Number : 6880002","status":"RECRUITING","city":"Kragujevac","zip":"34000","country":"Serbia","geoPoint":{"lat":44.01667,"lon":20.91667}},{"facility":"Investigational Site Number : 6880005","status":"ACTIVE_NOT_RECRUITING","city":"Novi Sad","zip":"21000","country":"Serbia","geoPoint":{"lat":45.25167,"lon":19.83694}},{"facility":"Investigational Site Number : 7030001","status":"ACTIVE_NOT_RECRUITING","city":"Bratislava","zip":"821 01","country":"Slovakia","geoPoint":{"lat":48.14816,"lon":17.10674}},{"facility":"Investigational Site Number : 7030002","status":"ACTIVE_NOT_RECRUITING","city":"Martin","zip":"036 01","country":"Slovakia","geoPoint":{"lat":49.06651,"lon":18.92399}},{"facility":"Investigational Site Number : 7030004","status":"ACTIVE_NOT_RECRUITING","city":"Nitra","zip":"950 01","country":"Slovakia","geoPoint":{"lat":48.30763,"lon":18.08453}},{"facility":"Investigational Site Number : 7249908","status":"RECRUITING","city":"A Coruña","state":"A Coruña [La Coruña]","zip":"15006","country":"Spain","geoPoint":{"lat":43.37135,"lon":-8.396}},{"facility":"Investigational Site Number : 7249907","status":"RECRUITING","city":"Seville","state":"Andalucia","zip":"41009","country":"Spain","geoPoint":{"lat":37.38283,"lon":-5.97317}},{"facility":"Investigational Site Number : 7249906","status":"RECRUITING","city":"Barcelona","state":"Barcelona [Barcelona]","zip":"08035","country":"Spain","geoPoint":{"lat":41.38879,"lon":2.15899}},{"facility":"Investigational Site Number : 7249912","status":"RECRUITING","city":"Barcelona","state":"Barcelona [Barcelona]","zip":"08036","country":"Spain","geoPoint":{"lat":41.38879,"lon":2.15899}},{"facility":"Investigational Site Number : 7249919","status":"ACTIVE_NOT_RECRUITING","city":"L'hospitalet de Llobregat","state":"Barcelona [Barcelona]","zip":"08907","country":"Spain","geoPoint":{"lat":41.35967,"lon":2.10028}},{"facility":"Investigational Site Number : 7249913","status":"ACTIVE_NOT_RECRUITING","city":"Barakaldo","state":"Bizkaia","zip":"48903","country":"Spain","geoPoint":{"lat":43.29639,"lon":-2.98813}},{"facility":"Investigational Site Number : 7249918","status":"ACTIVE_NOT_RECRUITING","city":"Donostia-san Sebastian","state":"Gipuzkoa","zip":"20014","country":"Spain","geoPoint":{"lat":43.31283,"lon":-1.97499}},{"facility":"Investigational Site Number : 7249911","status":"ACTIVE_NOT_RECRUITING","city":"Girona","state":"Girona [Gerona]","zip":"17190","country":"Spain","geoPoint":{"lat":41.98311,"lon":2.82493}},{"facility":"Investigational Site Number : 7249904","status":"RECRUITING","city":"Las Palmas de Gran Canaria","state":"Las Palmas","zip":"35010","country":"Spain","geoPoint":{"lat":28.09973,"lon":-15.41343}},{"facility":"Investigational Site Number : 7249902","status":"ACTIVE_NOT_RECRUITING","city":"Lleida","state":"Lleida [Lérida]","zip":"25198","country":"Spain","geoPoint":{"lat":41.61674,"lon":0.62218}},{"facility":"Investigational Site Number : 7249909","status":"RECRUITING","city":"Madrid","state":"Madrid, Comunidad De","zip":"28007","country":"Spain","geoPoint":{"lat":40.4165,"lon":-3.70256}},{"facility":"Investigational Site Number : 7249901","status":"RECRUITING","city":"Majadahonda","state":"Madrid","zip":"28222","country":"Spain","geoPoint":{"lat":40.47353,"lon":-3.87182}},{"facility":"Investigational Site Number : 7249905","status":"RECRUITING","city":"Pozuelo de Alarcón","state":"Madrid","zip":"28223","country":"Spain","geoPoint":{"lat":40.43293,"lon":-3.81338}},{"facility":"Investigational Site Number : 7249914","status":"ACTIVE_NOT_RECRUITING","city":"Córdoba","zip":"14004","country":"Spain","geoPoint":{"lat":37.89155,"lon":-4.77275}},{"facility":"Investigational Site Number : 7249903","status":"ACTIVE_NOT_RECRUITING","city":"Madrid","zip":"28034","country":"Spain","geoPoint":{"lat":40.4165,"lon":-3.70256}},{"facility":"Investigational Site Number : 7249910","status":"ACTIVE_NOT_RECRUITING","city":"Madrid","zip":"28040","country":"Spain","geoPoint":{"lat":40.4165,"lon":-3.70256}},{"facility":"Investigational Site Number : 7249916","status":"RECRUITING","city":"Murcia","zip":"30120","country":"Spain","geoPoint":{"lat":37.98704,"lon":-1.13004}},{"facility":"Investigational Site Number : 7249915","status":"RECRUITING","city":"Málaga","zip":"29010","country":"Spain","geoPoint":{"lat":36.72016,"lon":-4.42034}},{"facility":"Investigational Site Number : 7249917","status":"RECRUITING","city":"Valencia","zip":"46026","country":"Spain","geoPoint":{"lat":39.46975,"lon":-0.37739}},{"facility":"Investigational Site Number : 7520001","status":"RECRUITING","city":"Gothenburg","zip":"413 45","country":"Sweden","geoPoint":{"lat":57.70716,"lon":11.96679}},{"facility":"Investigational Site Number : 7520002","status":"RECRUITING","city":"Stockholm","zip":"113 65","country":"Sweden","geoPoint":{"lat":59.33258,"lon":18.0649}},{"facility":"Investigational Site Number : 7560002","status":"ACTIVE_NOT_RECRUITING","city":"Bern","zip":"3010","country":"Switzerland","geoPoint":{"lat":46.94809,"lon":7.44744}},{"facility":"Investigational Site Number : 1580007","status":"ACTIVE_NOT_RECRUITING","city":"Hsinchu","zip":"300","country":"Taiwan","geoPoint":{"lat":24.80361,"lon":120.96861}},{"facility":"Investigational Site Number : 1580002","status":"ACTIVE_NOT_RECRUITING","city":"Taipei City","zip":"112","country":"Taiwan","geoPoint":{"lat":25.04776,"lon":121.53185}},{"facility":"Investigational Site Number : 7929902","status":"RECRUITING","city":"Akdeniz","zip":"33070","country":"Turkey","geoPoint":{"lat":36.45984,"lon":34.1411}},{"facility":"Investigational Site Number : 7920006","status":"RECRUITING","city":"Ankara","zip":"06230","country":"Turkey","geoPoint":{"lat":39.91987,"lon":32.85427}},{"facility":"Investigational Site Number : 7920005","status":"RECRUITING","city":"Eskişehir","zip":"26480","country":"Turkey","geoPoint":{"lat":39.77667,"lon":30.52056}},{"facility":"Investigational Site Number : 7920002","status":"RECRUITING","city":"Istanbul","zip":"34098","country":"Turkey","geoPoint":{"lat":41.01384,"lon":28.94966}},{"facility":"Investigational Site Number : 7920009","status":"ACTIVE_NOT_RECRUITING","city":"Istanbul","zip":"34668","country":"Turkey","geoPoint":{"lat":41.01384,"lon":28.94966}},{"facility":"Investigational Site Number : 7920007","status":"ACTIVE_NOT_RECRUITING","city":"Istanbul","zip":"34785","country":"Turkey","geoPoint":{"lat":41.01384,"lon":28.94966}},{"facility":"Investigational Site Number : 7920003","status":"ACTIVE_NOT_RECRUITING","city":"Istanbul","zip":"34906","country":"Turkey","geoPoint":{"lat":41.01384,"lon":28.94966}},{"facility":"Investigational Site Number : 7920010","status":"RECRUITING","city":"Izmir","zip":"35360","country":"Turkey","geoPoint":{"lat":38.41273,"lon":27.13838}},{"facility":"Investigational Site Number : 7920001","status":"ACTIVE_NOT_RECRUITING","city":"Izmit","zip":"41001","country":"Turkey","geoPoint":{"lat":40.76694,"lon":29.91694}},{"facility":"Investigational Site Number : 7929901","status":"ACTIVE_NOT_RECRUITING","city":"Kütahya","zip":"43100","country":"Turkey","geoPoint":{"lat":39.42417,"lon":29.98333}},{"facility":"Investigational Site Number : 7929903","status":"RECRUITING","city":"Samsun","zip":"55139","country":"Turkey","geoPoint":{"lat":41.27976,"lon":36.3361}},{"facility":"Investigational Site Number : 8040020","status":"ACTIVE_NOT_RECRUITING","city":"Chernivtsi","zip":"14029","country":"Ukraine","geoPoint":{"lat":48.29149,"lon":25.94034}},{"facility":"Investigational Site Number : 8049912","status":"ACTIVE_NOT_RECRUITING","city":"Chernivtsi","zip":"58000","country":"Ukraine","geoPoint":{"lat":48.29149,"lon":25.94034}},{"facility":"Investigational Site Number : 8049904","status":"RECRUITING","city":"Chernivtsi","zip":"58023","country":"Ukraine","geoPoint":{"lat":48.29149,"lon":25.94034}},{"facility":"Investigational Site Number : 8049905","status":"ACTIVE_NOT_RECRUITING","city":"Dnipro","zip":"49089","country":"Ukraine","geoPoint":{"lat":48.4593,"lon":35.03864}},{"facility":"Investigational Site Number : 8040025","status":"RECRUITING","city":"Kharkiv","zip":"61058","country":"Ukraine","geoPoint":{"lat":49.98081,"lon":36.25272}},{"facility":"Investigational Site Number : 8049903","status":"RECRUITING","city":"Kharkiv","zip":"61068","country":"Ukraine","geoPoint":{"lat":49.98081,"lon":36.25272}},{"facility":"Investigational Site Number : 8040018","status":"ACTIVE_NOT_RECRUITING","city":"Kharkiv","zip":"61166","country":"Ukraine","geoPoint":{"lat":49.98081,"lon":36.25272}},{"facility":"Investigational Site Number : 8049908","status":"RECRUITING","city":"Krykhivtsi","zip":"76493","country":"Ukraine","geoPoint":{"lat":48.89834,"lon":24.66334}},{"facility":"Investigational Site Number : 8049902","status":"RECRUITING","city":"Kyiv","zip":"01135","country":"Ukraine","geoPoint":{"lat":50.45466,"lon":30.5238}},{"facility":"Investigational Site Number : 8049911","status":"ACTIVE_NOT_RECRUITING","city":"Kyiv","zip":"02091","country":"Ukraine","geoPoint":{"lat":50.45466,"lon":30.5238}},{"facility":"Investigational Site Number : 8049901","status":"RECRUITING","city":"Kyiv","zip":"03115","country":"Ukraine","geoPoint":{"lat":50.45466,"lon":30.5238}},{"facility":"Investigational Site Number : 8049914","status":"RECRUITING","city":"Lutsk","zip":"43005","country":"Ukraine","geoPoint":{"lat":50.75932,"lon":25.34244}},{"facility":"Investigational Site Number : 8049909","status":"RECRUITING","city":"Lviv","zip":"79010","country":"Ukraine","geoPoint":{"lat":49.83826,"lon":24.02324}},{"facility":"Investigational Site Number : 8049906","status":"RECRUITING","city":"Lviv","zip":"79044","country":"Ukraine","geoPoint":{"lat":49.83826,"lon":24.02324}},{"facility":"Investigational Site Number : 8049913","status":"RECRUITING","city":"Odesa","zip":"65025","country":"Ukraine","geoPoint":{"lat":46.47747,"lon":30.73262}},{"facility":"Investigational Site Number : 8040024","status":"RECRUITING","city":"Vinnytsia","zip":"21009","country":"Ukraine","geoPoint":{"lat":49.23278,"lon":28.48097}},{"facility":"Investigational Site Number : 8049910","status":"ACTIVE_NOT_RECRUITING","city":"Vinnytsia","zip":"21050","country":"Ukraine","geoPoint":{"lat":49.23278,"lon":28.48097}},{"facility":"Investigational Site Number : 8260003","status":"RECRUITING","city":"Exeter","state":"Devon","zip":"EX2 5DW","country":"United Kingdom","geoPoint":{"lat":50.7236,"lon":-3.52751}},{"facility":"Investigational Site Number : 8260016","status":"ACTIVE_NOT_RECRUITING","city":"Canterbury","state":"Kent","zip":"CT1 3NG","country":"United Kingdom","geoPoint":{"lat":51.27904,"lon":1.07992}},{"facility":"Investigational Site Number : 8260005","status":"ACTIVE_NOT_RECRUITING","city":"London","state":"London, City Of","zip":"SW17 0QT","country":"United Kingdom","geoPoint":{"lat":51.50853,"lon":-0.12574}},{"facility":"Investigational Site Number : 8260019","status":"ACTIVE_NOT_RECRUITING","city":"Salford","state":"Manchester","zip":"M6 8HD","country":"United Kingdom","geoPoint":{"lat":53.48771,"lon":-2.29042}},{"facility":"Investigational Site Number : 8260013","status":"RECRUITING","city":"Oxford","state":"Oxfordshire","zip":"OX3 9DU","country":"United Kingdom","geoPoint":{"lat":51.75222,"lon":-1.25596}},{"facility":"Investigational Site Number : 8260009","status":"RECRUITING","city":"Bristol","zip":"BS10 5NB","country":"United Kingdom","geoPoint":{"lat":51.45523,"lon":-2.59665}},{"facility":"Investigational Site Number : 8260014","status":"ACTIVE_NOT_RECRUITING","city":"Newcastle Upon Tyne","zip":"NE2 4HH","country":"United Kingdom","geoPoint":{"lat":54.97328,"lon":-1.61396}}]},"ipdSharingStatementModule":{"ipdSharing":"YES","description":"Qualified researchers may request access to patient level data and related study documents including the clinical study report, study protocol with any amendments, blank case report form, statistical analysis plan, and dataset specifications. Patient level data will be anonymized and study documents will be redacted to protect the privacy of trial participants. Further details on Sanofi's data sharing criteria, eligible studies, and process for requesting access can be found at: https://vivli.org"}},"derivedSection":{"miscInfoModule":{"versionHolder":"2025-07-07"},"conditionBrowseModule":{"meshes":[{"id":"D009362","term":"Neoplasm Metastasis"},{"id":"D009103","term":"Multiple Sclerosis"},{"id":"D020528","term":"Multiple Sclerosis, Chronic Progressive"},{"id":"D012598","term":"Sclerosis"}],"ancestors":[{"id":"D010335","term":"Pathologic Processes"},{"id":"D020278","term":"Demyelinating Autoimmune Diseases, CNS"},{"id":"D020274","term":"Autoimmune Diseases of the Nervous System"},{"id":"D009422","term":"Nervous System Diseases"},{"id":"D003711","term":"Demyelinating Diseases"},{"id":"D001327","term":"Autoimmune Diseases"},{"id":"D007154","term":"Immune System Diseases"},{"id":"D009385","term":"Neoplastic Processes"},{"id":"D009369","term":"Neoplasms"},{"id":"D002908","term":"Chronic Disease"},{"id":"D020969","term":"Disease Attributes"}],"browseLeaves":[{"id":"M12307","name":"Neoplasm Metastasis","asFound":"Secondary","relevance":"HIGH"},{"id":"M15415","name":"Sclerosis","asFound":"Sclerosis","relevance":"HIGH"},{"id":"M12060","name":"Multiple Sclerosis","asFound":"Multiple Sclerosis","relevance":"HIGH"},{"id":"M22313","name":"Multiple Sclerosis, Chronic Progressive","asFound":"Secondary Progressive Multiple Sclerosis","relevance":"HIGH"},{"id":"M4629","name":"Autoimmune Diseases","relevance":"LOW"},{"id":"M22098","name":"Demyelinating Autoimmune Diseases, CNS","relevance":"LOW"},{"id":"M22094","name":"Autoimmune Diseases of the Nervous System","relevance":"LOW"},{"id":"M6909","name":"Demyelinating Diseases","relevance":"LOW"},{"id":"M10200","name":"Immune System Diseases","relevance":"LOW"},{"id":"M12330","name":"Neoplastic Processes","relevance":"LOW"},{"id":"M6147","name":"Chronic Disease","relevance":"LOW"},{"id":"M22700","name":"Disease Attributes","relevance":"LOW"},{"id":"T1303","name":"Chronic Graft Versus Host Disease","relevance":"LOW"}],"browseBranches":[{"abbrev":"BC04","name":"Neoplasms"},{"abbrev":"BC23","name":"Symptoms and General Pathology"},{"abbrev":"All","name":"All Conditions"},{"abbrev":"BC10","name":"Nervous System Diseases"},{"abbrev":"BC20","name":"Immune System Diseases"},{"abbrev":"Rare","name":"Rare Diseases"}]},"interventionBrowseModule":{"meshes":[{"id":"C527525","term":"Teriflunomide"}],"ancestors":[{"id":"D000894","term":"Anti-Inflammatory Agents, Non-Steroidal"},{"id":"D018712","term":"Analgesics, Non-Narcotic"},{"id":"D000700","term":"Analgesics"},{"id":"D018689","term":"Sensory System Agents"},{"id":"D018373","term":"Peripheral Nervous System Agents"},{"id":"D045505","term":"Physiological Effects of Drugs"},{"id":"D000893","term":"Anti-Inflammatory Agents"},{"id":"D018501","term":"Antirheumatic Agents"},{"id":"D007166","term":"Immunosuppressive Agents"},{"id":"D007155","term":"Immunologic Factors"}],"browseLeaves":[{"id":"M11982","name":"Morphine","relevance":"LOW"},{"id":"M349571","name":"Teriflunomide","asFound":"Nutritional support","relevance":"HIGH"},{"id":"M4217","name":"Anti-Inflammatory Agents","relevance":"LOW"},{"id":"M4218","name":"Anti-Inflammatory Agents, Non-Steroidal","relevance":"LOW"},{"id":"M4032","name":"Analgesics","relevance":"LOW"},{"id":"M20786","name":"Analgesics, Non-Narcotic","relevance":"LOW"},{"id":"M20604","name":"Antirheumatic Agents","relevance":"LOW"},{"id":"M10212","name":"Immunosuppressive Agents","relevance":"LOW"},{"id":"M10201","name":"Immunologic Factors","relevance":"LOW"}],"browseBranches":[{"abbrev":"Analg","name":"Analgesics"},{"abbrev":"CNSDep","name":"Central Nervous System Depressants"},{"abbrev":"All","name":"All Drugs and Chemicals"},{"abbrev":"Infl","name":"Anti-Inflammatory Agents"},{"abbrev":"ARhu","name":"Antirheumatic Agents"}]}},"hasResults":false}