{"protocolSection":{"identificationModule":{"nctId":"NCT04975997","orgStudyIdInfo":{"id":"CC-220-MM-002"},"secondaryIdInfos":[{"id":"U1111-1260-2872","type":"OTHER","domain":"UTN Number"},{"id":"2020-000431-49","type":"EUDRACT_NUMBER"}],"organization":{"fullName":"Celgene","class":"INDUSTRY"},"briefTitle":"Open-label Study Comparing Iberdomide, Daratumumab and Dexamethasone (IberDd) Versus Daratumumab, Bortezomib, and Dexamethasone (DVd) in Participants With Relapsed or Refractory Multiple Myeloma (RRMM)","officialTitle":"A Phase 3, Two-Stage, Randomized, Multicenter, Open-label Study Comparing Iberdomide, Daratumumab and Dexamethasone (IberDd) Versus Daratumumab, Bortezomib, and Dexamethasone (DVd) in Subjects With Relapsed or Refractory Multiple Myeloma (RRMM)","acronym":"EXCALIBER-RRMM"},"statusModule":{"statusVerifiedDate":"2025-05","overallStatus":"RECRUITING","expandedAccessInfo":{"hasExpandedAccess":false},"startDateStruct":{"date":"2022-06-23","type":"ACTUAL"},"primaryCompletionDateStruct":{"date":"2026-03-18","type":"ESTIMATED"},"completionDateStruct":{"date":"2032-06-25","type":"ESTIMATED"},"studyFirstSubmitDate":"2021-07-02","studyFirstSubmitQcDate":"2021-07-14","studyFirstPostDateStruct":{"date":"2021-07-26","type":"ACTUAL"},"lastUpdateSubmitDate":"2025-05-15","lastUpdatePostDateStruct":{"date":"2025-05-18","type":"ACTUAL"}},"sponsorCollaboratorsModule":{"responsibleParty":{"type":"SPONSOR"},"leadSponsor":{"name":"Celgene","class":"INDUSTRY"}},"oversightModule":{"oversightHasDmc":true,"isFdaRegulatedDrug":true,"isFdaRegulatedDevice":false},"descriptionModule":{"briefSummary":"This is a multicenter, two-stage, randomized, controlled, open-label, Phase 3 study comparing the efficacy and safety of iberdomide in combination with dexamethasone and daratumumab (IberDd) versus daratumumab, bortezomib, and dexamethasone (DVd) in participants with relapsed or refractory multiple myeloma (RRMM).","detailedDescription":"This is a multicenter, two-stage, randomized, controlled, open-label, Phase 3 study comparing the efficacy and safety of iberdomide in combination with dexamethasone and daratumumab (IberDd) versus daratumumab, bortezomib, and dexamethasone (DVd) in participants with relapsed or refractory multiple myeloma (RRMM). Approximately 200 patients randomized in stage 1 to one of three iberdomide dose levels of 1, 1.3, or 1.6 mg in combination with daratumumab and dexamethasone (Treatment Arms A1, A2, or A3), or to the DVd comparator arm (Treatment Arm B).\n\nIn Stage 2 of the study, approximately 664 additional subjects will be randomized 1:1 between 2 treatment arms:\n\n* Approximately 332 subjects will be randomized to receive Treatment Arm A (IberDd)\n* Approximately 332 subjects will be randomized to receive Treatment Arm B (DVd)\n\nParticipants in both treatment arms will continue to receive treatment until confirmed progressive disease (PD), unacceptable toxicity or withdrawal of consent. To ensure accuracy and completeness of the primary endpoint assessment of progression-free survival (PFS), participants who permanently discontinue study treatment for any reason, other than confirmed PD or withdrawal of consent, will continue to be followed for disease assessment.\n\nThe study will be conducted in compliance with International Council for Harmonisation (ICH) and Good Clinical Practices (GCPs)."},"conditionsModule":{"conditions":["Multiple Myeloma"],"keywords":["Iberdomide","CC-220","Daratumumab","Darzalex Faspro","Bortezomib","Velcade","Dexamethasone","MM","Multiple Myeloma","RRMM","CELMoD","Cereblon Modulators"]},"designModule":{"studyType":"INTERVENTIONAL","phases":["PHASE3"],"designInfo":{"allocation":"RANDOMIZED","interventionModel":"PARALLEL","primaryPurpose":"TREATMENT","maskingInfo":{"masking":"NONE"}},"enrollmentInfo":{"count":864,"type":"ESTIMATED"}},"armsInterventionsModule":{"armGroups":[{"label":"Daratumumab in combination with Iberdomide and dexamethasone - Dose 1","type":"EXPERIMENTAL","description":"Participants will receive oral iberdomide, subcutaneous daratumumab and oral dexamethasone.","interventionNames":["Drug: Dexamethasone","Drug: Daratumumab","Drug: Iberdomide"]},{"label":"Daratumumab in combination with Iberdomide and dexamethasone - Dose 2","type":"EXPERIMENTAL","interventionNames":["Drug: Dexamethasone","Drug: Daratumumab","Drug: Iberdomide"]},{"label":"Daratumumab in combination with Iberdomide and dexamethasone - Dose 3","type":"EXPERIMENTAL","interventionNames":["Drug: Dexamethasone","Drug: Daratumumab","Drug: Iberdomide"]},{"label":"Daratumumab in combination with dexamethasone and bortezomib","type":"ACTIVE_COMPARATOR","description":"Participants will receive subcutaneous daratumumab, bortezomib and oral dexamethasone","interventionNames":["Drug: Dexamethasone","Drug: Bortezomib","Drug: Daratumumab"]}],"interventions":[{"type":"DRUG","name":"Dexamethasone","description":"Oral dexamethasone 40mg on days 1, 8, 15, 22 of a 28-day cycle","armGroupLabels":["Daratumumab in combination with Iberdomide and dexamethasone - Dose 1","Daratumumab in combination with Iberdomide and dexamethasone - Dose 2","Daratumumab in combination with Iberdomide and dexamethasone - Dose 3","Daratumumab in combination with dexamethasone and bortezomib"]},{"type":"DRUG","name":"Daratumumab","description":"Subcutaneous Daratumumab 1800mg on Days 1, 8, 15 and 22 for Cycles 1 to 2, on Days 1 and 15 for Cycles 3 to 6, and then on Day 1 for Cycle 7+ of a 28-day cycle","armGroupLabels":["Daratumumab in combination with Iberdomide and dexamethasone - Dose 1","Daratumumab in combination with Iberdomide and dexamethasone - Dose 2","Daratumumab in combination with Iberdomide and dexamethasone - Dose 3"],"otherNames":["DARZALEX FASPRO"]},{"type":"DRUG","name":"Bortezomib","description":"Subcutaneous Bortezomib 1.3 mg/m2 on Days 1, 4, 8 and 11 of each 21-day cycle for a total of 8 cycles.","armGroupLabels":["Daratumumab in combination with dexamethasone and bortezomib"]},{"type":"DRUG","name":"Iberdomide","description":"Oral Iberdomide 1.0mg on Days 1 to 21 of a 28-day cycle","armGroupLabels":["Daratumumab in combination with Iberdomide and dexamethasone - Dose 1"],"otherNames":["CC-220","BMS-986382"]},{"type":"DRUG","name":"Iberdomide","description":"Oral Iberdomide 1.3mg on Days 1 to 21 of a 28-day cycle","armGroupLabels":["Daratumumab in combination with Iberdomide and dexamethasone - Dose 2"],"otherNames":["CC-220","BMS-986382"]},{"type":"DRUG","name":"Iberdomide","description":"Oral Iberdomide 1.6mg on Days 1 to 21 of a 28-day cycle","armGroupLabels":["Daratumumab in combination with Iberdomide and dexamethasone - Dose 3"],"otherNames":["CC-220","BMS-986382"]},{"type":"DRUG","name":"Dexamethasone","description":"Oral dexamethasone 20mg on days 1,2, 4,5,8,9,11,12 of a 21-day cycle from cycles 1-8","armGroupLabels":["Daratumumab in combination with dexamethasone and bortezomib"]},{"type":"DRUG","name":"Daratumumab","description":"Subcutaneous daratumumab 1800mg Cycles 1 to 3 on Days 1, 8, 15 of a 21-day cycle, Cycles 4 to 8 on Day 1 of a 21-day cycle and Cycles 9+ on Day 1 of a 28-day cycle.","armGroupLabels":["Daratumumab in combination with dexamethasone and bortezomib"],"otherNames":["DARZALEX FASPRO"]}]},"outcomesModule":{"primaryOutcomes":[{"measure":"Progression-free Survival (PFS)","description":"To compare the efficacy of iberdomide (also known as BMS-986382), daratumumab, and dexamethasone (IberDd) to that of daratumumab, bortezomib, and dexamethasone (DVd) in participants with relapsed or refractory multiple myeloma (RRMM) in terms of progression free survival (PFS).","timeFrame":"Up to approximately 5 years"},{"measure":"Minimal Residual Disease (MRD) negative Complete Response (CR) at any time","description":"To compare the efficacy of iberdomide (also known as BMS-986382), daratumumab, and dexamethasone (IberDd) to that of daratumumab, bortezomib, and dexamethasone (DVd) in participants with relapsed or refractory multiple myeloma (RRMM) in terms of minimal residual disease (MRD) negative complete response (CR) at any time.","timeFrame":"Up to approximately 5 years"}],"secondaryOutcomes":[{"measure":"Overall Survival (OS)","description":"To evaluate clinical efficacy in terms of overall survival (OS) in participants with relapsed or refractory multiple myeloma (RRMM) treated with iberdomide, daratumumab, and dexamethasone (IberDd) compared to daratumumab, bortezomib, and dexamethasone (DVd).","timeFrame":"Up to approximately 5 years"},{"measure":"Sustainability of Minimal Residual Disease (MRD) negativity","description":"To evaluate the sustainability of minimal residual disease (MRD) negativity.","timeFrame":"Up to approximately 5 years"},{"measure":"Overall Response Rate (ORR)","description":"Calculated as percentage of participants who achieve best response of partial response (PR) or better according to the IMWG Uniform Response Criteria for multiple myeloma.","timeFrame":"Up to approximately 5 years"},{"measure":"Time to response (TTR)","description":"Time from randomization to the first documentation of response (PR or better).","timeFrame":"Up to approximately 5 years"},{"measure":"Duration of Response (DoR)","description":"Time from the first documentation of response (PR or better) to the first documentation of progressive disease (PD) or death due to any cause, whichever occurs first.","timeFrame":"Up to approximately 5 years"},{"measure":"Time to Progression (TTP)","description":"The time from randomization to the first documented disease progression.","timeFrame":"Up to approximately 5 years"},{"measure":"Time to Next Treatment (TTNT)","description":"Time from randomization to the start of the next antimyeloma treatment.","timeFrame":"Up to approximately 5 years"},{"measure":"Progression-free Survival 2 (PFS2)","description":"Time from randomization to progression on the next anti-myeloma treatment or death due to any cause, whichever occurs first.","timeFrame":"Up to approximately 5 years"},{"measure":"Safety","description":"Type, frequency, seriousness and severity of adverse events (AEs), and relationship of AEs to study treatment.","timeFrame":"Up to approximately 5 years"},{"measure":"European Organization for Research and Treatment of Cancer - Quality of Life C30 Questionnaire (EORTC QLQ-C30)","description":"Mean changes from baseline in subscale scores in subject-reported health related quality of life outcomes and multiple myeloma-related symptoms as measured by the EORTC QLQ-C30.","timeFrame":"Up to approximately 5 years"},{"measure":"European Quality of Life Multiple Myeloma Module (EORTC QLQ-MY20)","description":"EORTC QLQ-MY20 is a 20-item myeloma module intended for use among participants varying in disease stage and treatment modality. Mean changes from baseline in subscale scores in subject-reported health related quality of life outcomes and multiple myeloma-related symptoms as measured by the EORTC QLQ- MY20.","timeFrame":"Up to approximately 5 years"},{"measure":"Recommended iberdomide dose for Stage 2","timeFrame":"Up to approximately 1 year"},{"measure":"Area under the plasma concentration-time curve from time zero to tau (AUC(TAU))","timeFrame":"Up to approximately 1 year"},{"measure":"Maximum plasma concentration (Cmax)","timeFrame":"Up to approximately 1 year"},{"measure":"Time to maximum plasma concentration (Tmax)","timeFrame":"Up to approximately 1 year"}]},"eligibilityModule":{"eligibilityCriteria":"Inclusion Criteria\n\n* Documented diagnosis of multiple myeloma (MM) and measurable disease.\n* Received 1 to 2 prior lines of anti-myeloma therapy.\n* Must have documented disease progression during or after their last anti-myeloma regimen.\n* Eastern Cooperative Oncology Group (ECOG) performance status score of 0, 1 or 2.\n\nExclusion Criteria\n\n* Any condition that confounds the ability to interpret data from the study.\n* Has plasma cell leukemia, Waldenstrom's macroglobulinemia or POEMS syndrome (polyneuropathy, organomegaly, endocrinopathy, monoclonal protein, and skin changes), or clinically significant amyloidosis.\n* Known central nervous system involvement with MM.\n* Prior therapy with iberdomide.\n* Other protocol-defined Inclusion/Exclusion criteria apply.","healthyVolunteers":false,"sex":"ALL","minimumAge":"18 Years","stdAges":["ADULT","OLDER_ADULT"]},"contactsLocationsModule":{"centralContacts":[{"name":"BMS Clinical Trials Contact Center www.BMSClinicalTrials.com","role":"CONTACT","phone":"855-907-3286","email":"Clinical.Trials@bms.com"},{"name":"First line of the email MUST contain NCT # and Site #.","role":"CONTACT"}],"overallOfficials":[{"name":"Bristol-Myers Squibb","affiliation":"Bristol-Myers Squibb","role":"STUDY_DIRECTOR"}],"locations":[{"facility":"Local Institution - 035","status":"COMPLETED","city":"Hot Springs","state":"Arkansas","zip":"71913","country":"United States","geoPoint":{"lat":34.5037,"lon":-93.05518}},{"facility":"The Oncology Institute Of Hope And Innovation","status":"RECRUITING","city":"Cerritos","state":"California","zip":"90703-2679","country":"United States","contacts":[{"name":"Amitabha Mazumder, Site 641","role":"CONTACT","phone":"562-693-4477"}],"geoPoint":{"lat":33.85835,"lon":-118.06479}},{"facility":"Local Institution - 683","status":"WITHDRAWN","city":"Corona","state":"California","zip":"92879","country":"United States","geoPoint":{"lat":33.87529,"lon":-117.56644}},{"facility":"Los Angeles Cancer Network - Fountain Valley","status":"RECRUITING","city":"Fountain Valley","state":"California","zip":"92708","country":"United States","contacts":[{"name":"Janet Pan, Site 681","role":"CONTACT","phone":"714-698-0303"}],"geoPoint":{"lat":33.70918,"lon":-117.95367}},{"facility":"USC Norris Comprehensive Cancer Center","status":"RECRUITING","city":"Los Angeles","state":"California","zip":"90033","country":"United States","contacts":[{"name":"Eduardo Fernandez-Hernandez, Site 047","role":"CONTACT","phone":"213-208-1272"}],"geoPoint":{"lat":34.05223,"lon":-118.24368}},{"facility":"USC Norris Comprehensive Cancer Center","status":"RECRUITING","city":"Newport","state":"California","zip":"92663","country":"United States","contacts":[{"name":"Eduardo Fernandez-Hernandez, Site 684","role":"CONTACT","phone":"213-208-1272"}],"geoPoint":{"lat":39.57738,"lon":-123.77474}},{"facility":"Yale University School Of Medicine","status":"RECRUITING","city":"New Haven","state":"Connecticut","zip":"06511","country":"United States","contacts":[{"name":"Terri Parker, Site 033","role":"CONTACT","phone":"475-202-9834"}],"geoPoint":{"lat":41.30815,"lon":-72.92816}},{"facility":"Local Institution - 029","status":"COMPLETED","city":"Fort Myers","state":"Florida","zip":"33901","country":"United States","geoPoint":{"lat":26.62168,"lon":-81.84059}},{"facility":"Local Institution - 049","status":"WITHDRAWN","city":"Jacksonville","state":"Florida","zip":"32207","country":"United States","geoPoint":{"lat":30.33218,"lon":-81.65565}},{"facility":"Ocala Oncology Center","status":"RECRUITING","city":"Ocala","state":"Florida","zip":"34471-6950","country":"United States","contacts":[{"name":"Ketan Doshi, Site 693","role":"CONTACT","phone":"352-732-4938"}],"geoPoint":{"lat":29.1872,"lon":-82.14009}},{"facility":"Local Institution - 028","status":"COMPLETED","city":"Saint Petersburg","state":"Florida","zip":"33705","country":"United States","geoPoint":{"lat":27.77086,"lon":-82.67927}},{"facility":"BRCR Global","status":"RECRUITING","city":"Tamarac","state":"Florida","zip":"33321-2909","country":"United States","contacts":[{"name":"Andrew Schneider, Site 045","role":"CONTACT","phone":"561-447-0614"}],"geoPoint":{"lat":26.21286,"lon":-80.24977}},{"facility":"Local Institution - 034","status":"COMPLETED","city":"West Palm Beach","state":"Florida","zip":"33401","country":"United States","geoPoint":{"lat":26.71534,"lon":-80.05337}},{"facility":"Cleveland Clinic Florida","status":"RECRUITING","city":"Weston","state":"Florida","zip":"33331-3609","country":"United States","contacts":[{"name":"Chakra Chaulagain, Site 685","role":"CONTACT","phone":"954-487-2124"}],"geoPoint":{"lat":26.10037,"lon":-80.39977}},{"facility":"Emory University School of Medicine","status":"RECRUITING","city":"Atlanta","state":"Georgia","zip":"30322","country":"United States","contacts":[{"name":"Sagar Lonial, Site 018","role":"CONTACT","phone":"404-778-1900"}],"geoPoint":{"lat":33.749,"lon":-84.38798}},{"facility":"Alexian Brothers Hospital Network","status":"RECRUITING","city":"Elk Grove Village","state":"Illinois","zip":"60007-3363","country":"United States","contacts":[{"name":"Bruce Bank, Site 640","role":"CONTACT","phone":"888-466-6011"}],"geoPoint":{"lat":42.00392,"lon":-87.97035}},{"facility":"Local Institution - 689","status":"WITHDRAWN","city":"Urbana","state":"Illinois","zip":"61801-2529","country":"United States","geoPoint":{"lat":40.11059,"lon":-88.20727}},{"facility":"Northwest Cancer Center","status":"RECRUITING","city":"Dyer","state":"Indiana","zip":"46311-1596","country":"United States","contacts":[{"name":"Shruti Singh, Site 697","role":"CONTACT","phone":"219-924-8178"}],"geoPoint":{"lat":41.4942,"lon":-87.52171}},{"facility":"Norton Cancer Institute - St. Matthews Campus","status":"RECRUITING","city":"Louisville","state":"Kentucky","zip":"40207","country":"United States","contacts":[{"name":"Don Stevens, Site 040","role":"CONTACT","phone":"502-899-3366"}],"geoPoint":{"lat":38.25424,"lon":-85.75941}},{"facility":"Local Institution - 041","status":"COMPLETED","city":"Alexandria","state":"Louisiana","zip":"71301-3841","country":"United States","geoPoint":{"lat":31.31129,"lon":-92.44514}},{"facility":"Our Lady of the Lake Cancer Institute","status":"RECRUITING","city":"Baton Rouge","state":"Louisiana","zip":"70808-4300","country":"United States","contacts":[{"name":"Marshall Stagg, Site 682","role":"CONTACT","phone":"225-765-3344"}],"geoPoint":{"lat":30.45075,"lon":-91.15455}},{"facility":"Local Institution - 027","status":"COMPLETED","city":"Baton Rouge","state":"Louisiana","zip":"70809-3675","country":"United States","geoPoint":{"lat":30.45075,"lon":-91.15455}},{"facility":"Local Institution - 696","status":"NOT_YET_RECRUITING","city":"New Orleans","state":"Louisiana","zip":"70121-2429","country":"United States","contacts":[{"name":"Site 696","role":"CONTACT"}],"geoPoint":{"lat":29.95465,"lon":-90.07507}},{"facility":"Greater Baltimore Medical Center","status":"RECRUITING","city":"Baltimore","state":"Maryland","zip":"21204-6826","country":"United States","contacts":[{"name":"Zhuoyan Li, Site 698","role":"CONTACT","phone":"443-849-3051"}],"geoPoint":{"lat":39.29038,"lon":-76.61219}},{"facility":"Center For Cancer And Blood Disorders","status":"RECRUITING","city":"Bethesda","state":"Maryland","zip":"20817","country":"United States","contacts":[{"name":"Ralph Boccia, Site 014","role":"CONTACT","phone":"301-571-2016"}],"geoPoint":{"lat":38.98067,"lon":-77.10026}},{"facility":"Maryland Oncology Hematology (Columbia) - USOR","status":"RECRUITING","city":"Columbia","state":"Maryland","zip":"21044-3128","country":"United States","contacts":[{"name":"Mohit Narang, Site 688","role":"CONTACT","phone":"817-837-8660"}],"geoPoint":{"lat":39.24038,"lon":-76.83942}},{"facility":"Dana Farber Cancer Institute","status":"RECRUITING","city":"Boston","state":"Massachusetts","zip":"02215","country":"United States","contacts":[{"name":"Omar Nadeem, Site 010","role":"CONTACT","phone":"617-632-3000"}],"geoPoint":{"lat":42.35843,"lon":-71.05977}},{"facility":"University of Massachusetts Memorial Medical Center","status":"RECRUITING","city":"Worcester","state":"Massachusetts","zip":"01655","country":"United States","contacts":[{"name":"Muthalagu Ramanathan, Site 009","role":"CONTACT","phone":"774-442-3093"}],"geoPoint":{"lat":42.26259,"lon":-71.80229}},{"facility":"Minnesota Oncology Hematology, P.A. - Burnsville","status":"RECRUITING","city":"Burnsville","state":"Minnesota","zip":"55337-6749","country":"United States","contacts":[{"name":"Sandeep Jain, Site 645","role":"CONTACT","phone":"952-892-7190"}],"geoPoint":{"lat":44.76774,"lon":-93.27772}},{"facility":"Local Institution - 694","status":"NOT_YET_RECRUITING","city":"Kansas City","state":"Missouri","zip":"64128-2226","country":"United States","contacts":[{"name":"Site 694","role":"CONTACT"}],"geoPoint":{"lat":39.09973,"lon":-94.57857}},{"facility":"HCA Midwest Health","status":"RECRUITING","city":"Kansas City","state":"Missouri","zip":"64132","country":"United States","contacts":[{"name":"Anis Toumeh, Site 031","role":"CONTACT"}],"geoPoint":{"lat":39.09973,"lon":-94.57857}},{"facility":"Intermountain Health St. Vincent Regional Hospital - Cancer Centers of Montana","status":"RECRUITING","city":"Billings","state":"Montana","zip":"59102-6746","country":"United States","contacts":[{"name":"Patrick Cobb, Site 046","role":"CONTACT","phone":"406-238-6290"}],"geoPoint":{"lat":45.78329,"lon":-108.50069}},{"facility":"Local Institution - 015","status":"COMPLETED","city":"Summit","state":"New Jersey","zip":"07901","country":"United States","geoPoint":{"lat":40.71562,"lon":-74.36468}},{"facility":"Local Institution - 042","status":"WITHDRAWN","city":"Bay Shore","state":"New York","zip":"11706-8418","country":"United States","geoPoint":{"lat":40.7251,"lon":-73.24539}},{"facility":"Manhattan Hematology Oncology Center","status":"RECRUITING","city":"New York","state":"New York","zip":"10016","country":"United States","contacts":[{"name":"Alec Goldenberg, Site 691","role":"CONTACT"}],"geoPoint":{"lat":40.71427,"lon":-74.00597}},{"facility":"Duke University Hospital","status":"RECRUITING","city":"Durham","state":"North Carolina","zip":"27705","country":"United States","contacts":[{"name":"Cristina Gasparetto, Site 039","role":"CONTACT","phone":"919-668-1017"}],"geoPoint":{"lat":35.99403,"lon":-78.89862}},{"facility":"TriHealth, Good Samaritan Hospital","status":"RECRUITING","city":"Cincinnati","state":"Ohio","zip":"45220","country":"United States","contacts":[{"name":"Saulius Girnius, Site 038","role":"CONTACT","phone":"617-429-0988"}],"geoPoint":{"lat":39.12713,"lon":-84.51435}},{"facility":"Local Institution - 644","status":"WITHDRAWN","city":"Cincinnati","state":"Ohio","zip":"45236-2725","country":"United States","geoPoint":{"lat":39.12713,"lon":-84.51435}},{"facility":"Local Institution - 037","status":"COMPLETED","city":"Cleveland","state":"Ohio","zip":"44109","country":"United States","geoPoint":{"lat":41.4995,"lon":-81.69541}},{"facility":"Cleveland Clinic - Taussig Cancer Institute","status":"RECRUITING","city":"Cleveland","state":"Ohio","zip":"44195","country":"United States","contacts":[{"name":"Faiz Anwer, Site 008","role":"CONTACT","phone":"520-694-8900"}],"geoPoint":{"lat":41.4995,"lon":-81.69541}},{"facility":"Ohio Health Corporation","status":"RECRUITING","city":"Columbus","state":"Ohio","zip":"43214","country":"United States","contacts":[{"name":"Yvonne Efebera, Site 036","role":"CONTACT","phone":"216-965-8569"}],"geoPoint":{"lat":39.96118,"lon":-82.99879}},{"facility":"Oklahoma Cancer Specialists and Research Institute","status":"RECRUITING","city":"Tulsa","state":"Oklahoma","zip":"74146-6236","country":"United States","contacts":[{"name":"Caleb Scheckel, Site 680","role":"CONTACT"}],"geoPoint":{"lat":36.15398,"lon":-95.99277}},{"facility":"Oregon Health and Science University","status":"RECRUITING","city":"Portland","state":"Oregon","zip":"97239","country":"United States","contacts":[{"name":"Rebecca Silbermann, Site 043","role":"CONTACT","phone":"503-494-5304"}],"geoPoint":{"lat":45.52345,"lon":-122.67621}},{"facility":"Local Institution - 048","status":"WITHDRAWN","city":"Hershey","state":"Pennsylvania","zip":"17033","country":"United States","geoPoint":{"lat":40.28592,"lon":-76.65025}},{"facility":"Tennessee Oncology","status":"RECRUITING","city":"Chattanooga","state":"Tennessee","zip":"37404","country":"United States","contacts":[{"name":"Bertrand Anz III, Site 030","role":"CONTACT","phone":"423-698-1844"}],"geoPoint":{"lat":35.04563,"lon":-85.30968}},{"facility":"Tennessee Oncology - Nashville","status":"RECRUITING","city":"Nashville","state":"Tennessee","zip":"37203","country":"United States","contacts":[{"name":"Jesus Berdeja, Site 021","role":"CONTACT","phone":"615-329-0570"}],"geoPoint":{"lat":36.16589,"lon":-86.78444}},{"facility":"Texas Oncology-Austin Midtown","status":"RECRUITING","city":"Austin","state":"Texas","zip":"78705-1165","country":"United States","contacts":[{"name":"Jason Melear, Site 687","role":"CONTACT","phone":"512-427-9400"}],"geoPoint":{"lat":30.26715,"lon":-97.74306}},{"facility":"Kelsey Seybold Clinic Berthelsen Main Campus","status":"RECRUITING","city":"Houston","state":"Texas","zip":"77025","country":"United States","contacts":[{"name":"Tri Vu, Site 695","role":"CONTACT","phone":"713-442-1223"}],"geoPoint":{"lat":29.76328,"lon":-95.36327}},{"facility":"Local Institution - 690","status":"NOT_YET_RECRUITING","city":"Houston","state":"Texas","zip":"77030-4211","country":"United States","contacts":[{"name":"Site 690","role":"CONTACT"}],"geoPoint":{"lat":29.76328,"lon":-95.36327}},{"facility":"USOR - Virginia Oncology Associates - Newport News","status":"RECRUITING","city":"Newport News","state":"Virginia","zip":"23606-3069","country":"United States","contacts":[{"name":"Omer Ali, Site 642","role":"CONTACT"}],"geoPoint":{"lat":37.08339,"lon":-76.46965}},{"facility":"Blue Ridge Cancer Care","status":"RECRUITING","city":"Roanoke","state":"Virginia","zip":"24014-2419","country":"United States","contacts":[{"name":"Amanda Gillespie-Twardy, Site 643","role":"CONTACT","phone":"540-982-0237"}],"geoPoint":{"lat":37.27097,"lon":-79.94143}},{"facility":"Local Institution - 646","status":"WITHDRAWN","city":"Vancouver","state":"Washington","zip":"98684-6930","country":"United States","geoPoint":{"lat":45.63873,"lon":-122.66149}},{"facility":"University Of Wisconsin","status":"RECRUITING","city":"Madison","state":"Wisconsin","zip":"53705","country":"United States","contacts":[{"name":"Timothy Schmidt, Site 025","role":"CONTACT"}],"geoPoint":{"lat":43.07305,"lon":-89.40123}},{"facility":"Local Institution - 080","status":"COMPLETED","city":"Ciudad Autanoma De Buenos Aires","state":"Buenos Aires","zip":"C1199ABB","country":"Argentina"},{"facility":"Local Institution - 083","status":"ACTIVE_NOT_RECRUITING","city":"Villa Elisa","state":"Buenos Aires","zip":"B1894","country":"Argentina","geoPoint":{"lat":-32.1632,"lon":-58.40082}},{"facility":"Local Institution - 813","status":"ACTIVE_NOT_RECRUITING","city":"Birtinya","state":"Queensland","zip":"4575","country":"Australia","geoPoint":{"lat":-26.74322,"lon":153.11913}},{"facility":"Local Institution - 812","status":"ACTIVE_NOT_RECRUITING","city":"Douglas","state":"Queensland","zip":"4814","country":"Australia","geoPoint":{"lat":-37.03333,"lon":141.73333}},{"facility":"Local Institution - 803","status":"ACTIVE_NOT_RECRUITING","city":"Adelaide","state":"South Australia","zip":"5000","country":"Australia","geoPoint":{"lat":-34.92866,"lon":138.59863}},{"facility":"Local Institution - 806","status":"ACTIVE_NOT_RECRUITING","city":"Bedford Park","state":"South Australia","zip":"5042","country":"Australia","geoPoint":{"lat":-35.03333,"lon":138.56667}},{"facility":"Local Institution - 802","status":"ACTIVE_NOT_RECRUITING","city":"Clayton","state":"Victoria","zip":"3168","country":"Australia","geoPoint":{"lat":-37.91667,"lon":145.11667}},{"facility":"Local Institution - 809","status":"ACTIVE_NOT_RECRUITING","city":"East Melbourne","state":"Victoria","zip":"3001","country":"Australia","geoPoint":{"lat":-37.81667,"lon":144.9879}},{"facility":"Local Institution - 801","status":"ACTIVE_NOT_RECRUITING","city":"Melbourne","state":"Victoria","zip":"3004","country":"Australia","geoPoint":{"lat":-37.814,"lon":144.96332}},{"facility":"Local Institution - 811","status":"ACTIVE_NOT_RECRUITING","city":"Murdoch","state":"Western Australia","zip":"6150","country":"Australia","geoPoint":{"lat":-32.06987,"lon":115.83757}},{"facility":"Local Institution - 807","status":"ACTIVE_NOT_RECRUITING","city":"West Perth","state":"Western Australia","zip":"6005","country":"Australia","geoPoint":{"lat":-31.94896,"lon":115.84199}},{"facility":"Local Institution - 804","status":"ACTIVE_NOT_RECRUITING","city":"Camperdown","zip":"2050","country":"Australia","geoPoint":{"lat":-33.88965,"lon":151.17642}},{"facility":"Local Institution - 800","status":"ACTIVE_NOT_RECRUITING","city":"Fitzroy","zip":"3065","country":"Australia","geoPoint":{"lat":-37.79839,"lon":144.97833}},{"facility":"Local Institution - 808","status":"ACTIVE_NOT_RECRUITING","city":"Garran","zip":"ACT 2605","country":"Australia","geoPoint":{"lat":-35.34206,"lon":149.10846}},{"facility":"Local Institution - 155","status":"ACTIVE_NOT_RECRUITING","city":"Graz","zip":"73013","country":"Austria","geoPoint":{"lat":47.06667,"lon":15.45}},{"facility":"Local Institution - 154","status":"ACTIVE_NOT_RECRUITING","city":"Linz","zip":"4010","country":"Austria","geoPoint":{"lat":48.30639,"lon":14.28611}},{"facility":"Local Institution - 153","status":"ACTIVE_NOT_RECRUITING","city":"Salzburg","zip":"5020","country":"Austria","geoPoint":{"lat":47.79941,"lon":13.04399}},{"facility":"Local Institution - 156","status":"ACTIVE_NOT_RECRUITING","city":"St Polten","zip":"3100","country":"Austria","geoPoint":{"lat":48.2,"lon":15.63333}},{"facility":"Local Institution - 150","status":"ACTIVE_NOT_RECRUITING","city":"Vienna","zip":"1090","country":"Austria","geoPoint":{"lat":48.20849,"lon":16.37208}},{"facility":"Local Institution - 151","status":"ACTIVE_NOT_RECRUITING","city":"Wien","zip":"1160","country":"Austria","geoPoint":{"lat":48.20849,"lon":16.37208}},{"facility":"Local Institution - 157","status":"WITHDRAWN","city":"Wien","zip":"A-1130","country":"Austria","geoPoint":{"lat":48.20849,"lon":16.37208}},{"facility":"Local Institution - 172","status":"ACTIVE_NOT_RECRUITING","city":"Brugge","zip":"8000","country":"Belgium","geoPoint":{"lat":51.20892,"lon":3.22424}},{"facility":"Local Institution - 174","status":"COMPLETED","city":"Bruxelles","zip":"1200","country":"Belgium","geoPoint":{"lat":50.85045,"lon":4.34878}},{"facility":"Local Institution - 056","status":"ACTIVE_NOT_RECRUITING","city":"Curitiba","state":"Parana","zip":"80530-010","country":"Brazil","geoPoint":{"lat":-25.42778,"lon":-49.27306}},{"facility":"Local Institution - 058","status":"ACTIVE_NOT_RECRUITING","city":"Porto Alegre","state":"RIO Grande DO SUL","zip":"90610-000","country":"Brazil","geoPoint":{"lat":-30.03306,"lon":-51.23}},{"facility":"Local Institution - 050","status":"ACTIVE_NOT_RECRUITING","city":"Porto Alegre","state":"RS","zip":"90460-030","country":"Brazil","geoPoint":{"lat":-30.03306,"lon":-51.23}},{"facility":"Local Institution - 054","status":"ACTIVE_NOT_RECRUITING","city":"Jau","state":"SAO Paulo","zip":"17210-080","country":"Brazil","geoPoint":{"lat":-22.29639,"lon":-48.55778}},{"facility":"Local Institution - 055","status":"ACTIVE_NOT_RECRUITING","city":"Sao Paulo","state":"SP","zip":"05403000","country":"Brazil","geoPoint":{"lat":-23.5475,"lon":-46.63611}},{"facility":"Local Institution - 051","status":"ACTIVE_NOT_RECRUITING","city":"Barretos","state":"SÃ£o Paulo","zip":"14784-400","country":"Brazil","geoPoint":{"lat":-20.55722,"lon":-48.56778}},{"facility":"Local Institution - 053","status":"ACTIVE_NOT_RECRUITING","city":"Rio de Janeiro","zip":"22793-080","country":"Brazil","geoPoint":{"lat":-22.90278,"lon":-43.2075}},{"facility":"Local Institution - 057","status":"ACTIVE_NOT_RECRUITING","city":"Sao Paulo","zip":"01509-900","country":"Brazil","geoPoint":{"lat":-23.5475,"lon":-46.63611}},{"facility":"Local Institution - 052","status":"ACTIVE_NOT_RECRUITING","city":"Sao Paulo","zip":"04537-080","country":"Brazil","geoPoint":{"lat":-23.5475,"lon":-46.63611}},{"facility":"Local Institution - 111","status":"COMPLETED","city":"Calgary","state":"Alberta","zip":"T2N 4N2","country":"Canada","geoPoint":{"lat":51.05011,"lon":-114.08529}},{"facility":"Local Institution - 103","status":"COMPLETED","city":"Edmonton","state":"Alberta","zip":"T6G 1Z2","country":"Canada","geoPoint":{"lat":53.55014,"lon":-113.46871}},{"facility":"Local Institution - 112","status":"ACTIVE_NOT_RECRUITING","city":"Surrey","state":"British Columbia","zip":"V3V 1Z2","country":"Canada","geoPoint":{"lat":49.10635,"lon":-122.82509}},{"facility":"Local Institution - 104","status":"COMPLETED","city":"Saint John","state":"New Brunswick","zip":"E2L 3L6","country":"Canada","geoPoint":{"lat":45.2727,"lon":-66.06769}},{"facility":"Local Institution - 110","status":"ACTIVE_NOT_RECRUITING","city":"St John's","state":"Newfoundland and Labrador","zip":"A1B3V6","country":"Canada","geoPoint":{"lat":47.56494,"lon":-52.70931}},{"facility":"Local Institution - 101","status":"ACTIVE_NOT_RECRUITING","city":"Halifax","state":"Nova Scotia","zip":"B3H 1V7","country":"Canada","geoPoint":{"lat":44.64533,"lon":-63.57239}},{"facility":"Local Institution - 109","status":"COMPLETED","city":"Ottawa","state":"Quebec","zip":"K1H 8L6","country":"Canada","geoPoint":{"lat":45.41117,"lon":-75.69812}},{"facility":"Local Institution - 107","status":"COMPLETED","city":"Saskatoon","state":"Saskatchewan","zip":"S7N-0W8","country":"Canada","geoPoint":{"lat":52.13238,"lon":-106.66892}},{"facility":"Local Institution - 108","status":"ACTIVE_NOT_RECRUITING","city":"Quebec","zip":"G1J 1Z4","country":"Canada","geoPoint":{"lat":46.81228,"lon":-71.21454}},{"facility":"Local Institution - 141","status":"ACTIVE_NOT_RECRUITING","city":"Changsha","state":"Hunan","zip":"410013","country":"China","geoPoint":{"lat":28.19874,"lon":112.97087}},{"facility":"Local Institution - 129","status":"ACTIVE_NOT_RECRUITING","city":"Nanchang","state":"Jiangxi","zip":"330008","country":"China","geoPoint":{"lat":28.68396,"lon":115.85306}},{"facility":"Local Institution - 143","status":"ACTIVE_NOT_RECRUITING","city":"Xian","state":"Shaanxi","zip":"710004","country":"China","geoPoint":{"lat":34.25833,"lon":108.92861}},{"facility":"Local Institution - 142","status":"ACTIVE_NOT_RECRUITING","city":"Shanghai","state":"Shanghai","zip":"200434","country":"China","geoPoint":{"lat":31.22222,"lon":121.45806}},{"facility":"Local Institution - 145","status":"ACTIVE_NOT_RECRUITING","city":"Taiyuan","state":"Shanxi","zip":"030032","country":"China","geoPoint":{"lat":37.86944,"lon":112.56028}},{"facility":"Local Institution - 144","status":"ACTIVE_NOT_RECRUITING","city":"Wenzhou","state":"Zhejiang","zip":"325000","country":"China","geoPoint":{"lat":27.99942,"lon":120.66682}},{"facility":"Local Institution - 140","status":"ACTIVE_NOT_RECRUITING","city":"Beijing","zip":"100071","country":"China","geoPoint":{"lat":39.9075,"lon":116.39723}},{"facility":"Local Institution - 139","status":"COMPLETED","city":"Beijing","zip":"100191","country":"China","geoPoint":{"lat":39.9075,"lon":116.39723}},{"facility":"Local Institution - 138","status":"ACTIVE_NOT_RECRUITING","city":"Beijing","zip":"100730","country":"China","geoPoint":{"lat":39.9075,"lon":116.39723}},{"facility":"Local Institution - 126","status":"ACTIVE_NOT_RECRUITING","city":"Changchun","zip":"130021","country":"China","geoPoint":{"lat":43.88,"lon":125.32278}},{"facility":"Local Institution - 121","status":"ACTIVE_NOT_RECRUITING","city":"Chaoyang District","zip":"100020","country":"China"},{"facility":"Local Institution - 135","status":"ACTIVE_NOT_RECRUITING","city":"Guangzhou","zip":"510030","country":"China","geoPoint":{"lat":23.11667,"lon":113.25}},{"facility":"Local Institution - 136","status":"ACTIVE_NOT_RECRUITING","city":"Guangzhou","zip":"510060","country":"China","geoPoint":{"lat":23.11667,"lon":113.25}},{"facility":"Local Institution - 128","status":"ACTIVE_NOT_RECRUITING","city":"Hangzhou City","zip":"310006","country":"China"},{"facility":"Local Institution - 120","status":"ACTIVE_NOT_RECRUITING","city":"Hangzhou, Zhejiang","zip":"310006","country":"China"},{"facility":"Local Institution - 127","status":"ACTIVE_NOT_RECRUITING","city":"Harbin","zip":"150081","country":"China","geoPoint":{"lat":45.75,"lon":126.65}},{"facility":"Local Institution - 134","status":"ACTIVE_NOT_RECRUITING","city":"Nanjing","zip":"210029","country":"China","geoPoint":{"lat":32.06167,"lon":118.77778}},{"facility":"Local Institution - 132","status":"ACTIVE_NOT_RECRUITING","city":"Shanghai","zip":"200025","country":"China","geoPoint":{"lat":31.22222,"lon":121.45806}},{"facility":"Local Institution - 130","status":"ACTIVE_NOT_RECRUITING","city":"Shanghai","zip":"200032","country":"China","geoPoint":{"lat":31.22222,"lon":121.45806}},{"facility":"Local Institution - 131","status":"ACTIVE_NOT_RECRUITING","city":"Shenyang","zip":"110004","country":"China","geoPoint":{"lat":41.79222,"lon":123.43278}},{"facility":"Local Institution - 124","status":"ACTIVE_NOT_RECRUITING","city":"Suzhu","zip":"215006","country":"China"},{"facility":"Local Institution - 133","status":"ACTIVE_NOT_RECRUITING","city":"Tianjin","zip":"300020","country":"China","geoPoint":{"lat":39.14222,"lon":117.17667}},{"facility":"Local Institution - 137","status":"ACTIVE_NOT_RECRUITING","city":"Wuhan","zip":"430030","country":"China","geoPoint":{"lat":30.58333,"lon":114.26667}},{"facility":"Local Institution - 125","status":"ACTIVE_NOT_RECRUITING","city":"Xian","zip":"710000","country":"China","geoPoint":{"lat":34.25833,"lon":108.92861}},{"facility":"Local Institution - 123","status":"ACTIVE_NOT_RECRUITING","city":"Zhengzhou","zip":"0","country":"China","geoPoint":{"lat":34.75778,"lon":113.64861}},{"facility":"Local Institution - 601","status":"ACTIVE_NOT_RECRUITING","city":"Brno","zip":"625 00","country":"Czechia","geoPoint":{"lat":49.19522,"lon":16.60796}},{"facility":"Local Institution - 600","status":"ACTIVE_NOT_RECRUITING","city":"Ostrava-Poruba","zip":"708 52","country":"Czechia","geoPoint":{"lat":49.83465,"lon":18.28204}},{"facility":"Local Institution - 602","status":"ACTIVE_NOT_RECRUITING","city":"Prague 2","zip":"128 08","country":"Czechia","geoPoint":{"lat":50.08804,"lon":14.42076}},{"facility":"Local Institution - 371","status":"ACTIVE_NOT_RECRUITING","city":"Aalborg","zip":"9000","country":"Denmark","geoPoint":{"lat":57.048,"lon":9.9187}},{"facility":"Local Institution - 370","status":"ACTIVE_NOT_RECRUITING","city":"Odense","zip":"5000","country":"Denmark","geoPoint":{"lat":55.39594,"lon":10.38831}},{"facility":"Local Institution - 372","status":"ACTIVE_NOT_RECRUITING","city":"Roskilde","zip":"4000","country":"Denmark","geoPoint":{"lat":55.64152,"lon":12.08035}},{"facility":"Local Institution - 231","status":"ACTIVE_NOT_RECRUITING","city":"Turku","state":"Varsinais-Suomi","zip":"20521","country":"Finland","geoPoint":{"lat":60.45148,"lon":22.26869}},{"facility":"Local Institution - 230","status":"ACTIVE_NOT_RECRUITING","city":"Helsinki","zip":"290","country":"Finland","geoPoint":{"lat":60.16952,"lon":24.93545}},{"facility":"Local Institution - 232","status":"ACTIVE_NOT_RECRUITING","city":"Oulu","zip":"90220","country":"Finland","geoPoint":{"lat":65.01236,"lon":25.46816}},{"facility":"Local Institution - 463","status":"ACTIVE_NOT_RECRUITING","city":"Argenteuil","zip":"95100","country":"France","geoPoint":{"lat":48.95,"lon":2.25}},{"facility":"Local Institution - 462","status":"ACTIVE_NOT_RECRUITING","city":"La Roche -Sur-Yon - Cedex 9","zip":"85925","country":"France","geoPoint":{"lat":46.66667,"lon":-1.43333}},{"facility":"Local Institution - 451","status":"ACTIVE_NOT_RECRUITING","city":"Lille Cedex","zip":"59037","country":"France","geoPoint":{"lat":50.63297,"lon":3.05858}},{"facility":"Local Institution - 458","status":"ACTIVE_NOT_RECRUITING","city":"Nancy Cedex","zip":"54511","country":"France","geoPoint":{"lat":48.68439,"lon":6.18496}},{"facility":"Local Institution - 454","status":"COMPLETED","city":"Nantes","zip":"44093","country":"France","geoPoint":{"lat":47.21725,"lon":-1.55336}},{"facility":"Local Institution - 452","status":"ACTIVE_NOT_RECRUITING","city":"Paris Cedex","zip":"75475","country":"France","geoPoint":{"lat":48.85341,"lon":2.3488}},{"facility":"Local Institution - 456","status":"ACTIVE_NOT_RECRUITING","city":"Paris","zip":"75013","country":"France","geoPoint":{"lat":48.85341,"lon":2.3488}},{"facility":"Local Institution - 464","status":"ACTIVE_NOT_RECRUITING","city":"Pessac","zip":"33604","country":"France","geoPoint":{"lat":44.81011,"lon":-0.64129}},{"facility":"Local Institution - 465","status":"ACTIVE_NOT_RECRUITING","city":"Rouen","zip":"76038","country":"France","geoPoint":{"lat":49.44313,"lon":1.09932}},{"facility":"Local Institution - 457","status":"ACTIVE_NOT_RECRUITING","city":"Toulouse Cedex 9","zip":"31059","country":"France","geoPoint":{"lat":43.60426,"lon":1.44367}},{"facility":"Local Institution - 308","status":"COMPLETED","city":"Kiel","state":"Schleswig-Holstein","zip":"24105","country":"Germany","geoPoint":{"lat":54.32133,"lon":10.13489}},{"facility":"Local Institution - 301","status":"ACTIVE_NOT_RECRUITING","city":"Frankfurt am Main","zip":"60590","country":"Germany","geoPoint":{"lat":50.11552,"lon":8.68417}},{"facility":"Local Institution - 300","status":"ACTIVE_NOT_RECRUITING","city":"Hamburg","zip":"20246","country":"Germany","geoPoint":{"lat":53.57532,"lon":10.01534}},{"facility":"Local Institution - 302","status":"ACTIVE_NOT_RECRUITING","city":"Hamburg","zip":"22763","country":"Germany","geoPoint":{"lat":53.57532,"lon":10.01534}},{"facility":"Local Institution - 305","status":"ACTIVE_NOT_RECRUITING","city":"Heidelberg","zip":"69120","country":"Germany","geoPoint":{"lat":49.40768,"lon":8.69079}},{"facility":"Local Institution - 304","status":"COMPLETED","city":"Lubeck","zip":"23562","country":"Germany","geoPoint":{"lat":53.86893,"lon":10.68729}},{"facility":"Local Institution - 573","status":"ACTIVE_NOT_RECRUITING","city":"Patras","state":"Achaea","zip":"26054","country":"Greece","geoPoint":{"lat":38.24444,"lon":21.73444}},{"facility":"Local Institution - 574","status":"ACTIVE_NOT_RECRUITING","city":"Patra","state":"Achaia","zip":"264 43","country":"Greece","geoPoint":{"lat":38.24444,"lon":21.73444}},{"facility":"Local Institution - 571","status":"ACTIVE_NOT_RECRUITING","city":"Athens","zip":"115 28","country":"Greece","geoPoint":{"lat":37.97945,"lon":23.71622}},{"facility":"Local Institution - 572","status":"ACTIVE_NOT_RECRUITING","city":"Thessaloniki","zip":"54007","country":"Greece","geoPoint":{"lat":40.64361,"lon":22.93086}},{"facility":"Local Institution - 570","status":"ACTIVE_NOT_RECRUITING","city":"Thessaloniki","zip":"57010","country":"Greece","geoPoint":{"lat":40.64361,"lon":22.93086}},{"facility":"Local Institution - 932","status":"ACTIVE_NOT_RECRUITING","city":"Hyderabad","state":"Andhra Pradesh","zip":"500084","country":"India","geoPoint":{"lat":17.38405,"lon":78.45636}},{"facility":"Local Institution - 930","status":"ACTIVE_NOT_RECRUITING","city":"Bangalore","state":"Karnataka","zip":"560054","country":"India","geoPoint":{"lat":12.97194,"lon":77.59369}},{"facility":"Local Institution - 934","status":"ACTIVE_NOT_RECRUITING","city":"Ernakulam","state":"Kerala","zip":"682041","country":"India","geoPoint":{"lat":9.96714,"lon":76.29036}},{"facility":"Local Institution - 933","status":"ACTIVE_NOT_RECRUITING","city":"Mumbai","state":"Maharashtra","zip":"400036","country":"India","geoPoint":{"lat":19.07283,"lon":72.88261}},{"facility":"Local Institution - 935","status":"ACTIVE_NOT_RECRUITING","city":"Kolkata","state":"West Bengal","zip":"700014","country":"India","geoPoint":{"lat":22.56263,"lon":88.36304}},{"facility":"Local Institution - 931","status":"ACTIVE_NOT_RECRUITING","city":"Pondicherry","zip":"605006","country":"India","geoPoint":{"lat":11.93381,"lon":79.82979}},{"facility":"Local Institution - 752","status":"ACTIVE_NOT_RECRUITING","city":"Cork","zip":"T12 DFK4","country":"Ireland","geoPoint":{"lat":51.89797,"lon":-8.47061}},{"facility":"Local Institution - 750","status":"ACTIVE_NOT_RECRUITING","city":"Dublin 9","zip":"D09 V2N0","country":"Ireland","geoPoint":{"lat":53.33306,"lon":-6.24889}},{"facility":"Local Institution - 751","status":"ACTIVE_NOT_RECRUITING","city":"Galway","zip":"H91 YR71","country":"Ireland","geoPoint":{"lat":53.27194,"lon":-9.04889}},{"facility":"Local Institution - 874","status":"ACTIVE_NOT_RECRUITING","city":"Afula","state":"HaZafon","zip":"18101","country":"Israel","geoPoint":{"lat":32.60907,"lon":35.2892}},{"facility":"Local Institution - 872","status":"ACTIVE_NOT_RECRUITING","city":"Haifa","zip":"35254","country":"Israel","geoPoint":{"lat":32.81841,"lon":34.9885}},{"facility":"Local Institution - 871","status":"ACTIVE_NOT_RECRUITING","city":"Jerusalem","zip":"91120","country":"Israel","geoPoint":{"lat":31.76904,"lon":35.21633}},{"facility":"Local Institution - 870","status":"ACTIVE_NOT_RECRUITING","city":"Tel Aviv","zip":"64239","country":"Israel","geoPoint":{"lat":32.08088,"lon":34.78057}},{"facility":"Local Institution - 873","status":"ACTIVE_NOT_RECRUITING","city":"Tel Hashomer","zip":"52621","country":"Israel","geoPoint":{"lat":32.04195,"lon":34.85623}},{"facility":"Local Institution - 415","status":"ACTIVE_NOT_RECRUITING","city":"Roma","state":"Lazio","zip":"00193","country":"Italy","geoPoint":{"lat":41.89193,"lon":12.51133}},{"facility":"Local Institution - 400","status":"ACTIVE_NOT_RECRUITING","city":"Bologna","zip":"40138","country":"Italy","geoPoint":{"lat":44.49381,"lon":11.33875}},{"facility":"Local Institution - 408","status":"ACTIVE_NOT_RECRUITING","city":"Catania","zip":"95124","country":"Italy","geoPoint":{"lat":37.49223,"lon":15.07041}},{"facility":"Local Institution - 414","status":"ACTIVE_NOT_RECRUITING","city":"Genova","zip":"16132","country":"Italy","geoPoint":{"lat":44.40478,"lon":8.94438}},{"facility":"Local Institution - 404","status":"ACTIVE_NOT_RECRUITING","city":"Milano","zip":"20122","country":"Italy","geoPoint":{"lat":45.46427,"lon":9.18951}},{"facility":"Local Institution - 407","status":"WITHDRAWN","city":"Milano","zip":"20162","country":"Italy","geoPoint":{"lat":45.46427,"lon":9.18951}},{"facility":"Local Institution - 410","status":"ACTIVE_NOT_RECRUITING","city":"Novara","zip":"28100","country":"Italy","geoPoint":{"lat":45.44694,"lon":8.62118}},{"facility":"Local Institution - 412","status":"ACTIVE_NOT_RECRUITING","city":"Pavia","zip":"27100","country":"Italy","geoPoint":{"lat":45.19205,"lon":9.15917}},{"facility":"Local Institution - 402","status":"ACTIVE_NOT_RECRUITING","city":"Pisa","zip":"56126","country":"Italy","geoPoint":{"lat":43.70853,"lon":10.4036}},{"facility":"Local Institution - 405","status":"ACTIVE_NOT_RECRUITING","city":"Reggio Calabria","zip":"89100","country":"Italy","geoPoint":{"lat":38.11047,"lon":15.66129}},{"facility":"Local Institution - 413","status":"WITHDRAWN","city":"Reggio Emilia","zip":"42123","country":"Italy","geoPoint":{"lat":44.69825,"lon":10.63125}},{"facility":"Local Institution - 401","status":"ACTIVE_NOT_RECRUITING","city":"Roma","zip":"00189","country":"Italy","geoPoint":{"lat":41.89193,"lon":12.51133}},{"facility":"Local Institution - 403","status":"ACTIVE_NOT_RECRUITING","city":"San Giovanni Rotondo FG","zip":"71013","country":"Italy"},{"facility":"Local Institution - 409","status":"WITHDRAWN","city":"Terni","zip":"05100","country":"Italy","geoPoint":{"lat":42.56335,"lon":12.64329}},{"facility":"Local Institution - 406","status":"ACTIVE_NOT_RECRUITING","city":"Udine","zip":"33100","country":"Italy","geoPoint":{"lat":46.0693,"lon":13.23715}},{"facility":"Local Institution - 900","status":"ACTIVE_NOT_RECRUITING","city":"Matsuyama","state":"Ehime","zip":"790-8524","country":"Japan","geoPoint":{"lat":33.83916,"lon":132.76574}},{"facility":"Local Institution - 917","status":"ACTIVE_NOT_RECRUITING","city":"Higashi-Ibaraki-gun","state":"Ibaraki","zip":"311-3193","country":"Japan"},{"facility":"Local Institution - 919","status":"ACTIVE_NOT_RECRUITING","city":"Shimotsuga","state":"Tochigi","zip":"321-0293","country":"Japan"},{"facility":"Local Institution - 920","status":"ACTIVE_NOT_RECRUITING","city":"Nerima-ku","state":"Tokyo","zip":"179-0072","country":"Japan"},{"facility":"Local Institution - 918","status":"ACTIVE_NOT_RECRUITING","city":"Shinagawa-ku","state":"Tokyo","zip":"142-8666","country":"Japan","geoPoint":{"lat":33.63627,"lon":133.00572}},{"facility":"Local Institution - 915","status":"ACTIVE_NOT_RECRUITING","city":"Chuo-shi","state":"Yamanashi","zip":"4093898","country":"Japan","geoPoint":{"lat":35.57779,"lon":139.71685}},{"facility":"Local Institution - 912","status":"ACTIVE_NOT_RECRUITING","city":"Aomori","zip":"030-8553","country":"Japan","geoPoint":{"lat":40.81667,"lon":140.73333}},{"facility":"Local Institution - 916","status":"ACTIVE_NOT_RECRUITING","city":"Chiba","zip":"260-8717","country":"Japan","geoPoint":{"lat":35.6,"lon":140.11667}},{"facility":"Local Institution - 911","status":"ACTIVE_NOT_RECRUITING","city":"Fukuoka","zip":"810-8563","country":"Japan","geoPoint":{"lat":33.6,"lon":130.41667}},{"facility":"Local Institution - 903","status":"ACTIVE_NOT_RECRUITING","city":"Kamogawa","zip":"296-8602","country":"Japan","geoPoint":{"lat":35.0969,"lon":140.1003}},{"facility":"Local Institution - 902","status":"ACTIVE_NOT_RECRUITING","city":"Kyoto-City","zip":"602-8566","country":"Japan","geoPoint":{"lat":35.02107,"lon":135.75385}},{"facility":"Local Institution - 910","status":"ACTIVE_NOT_RECRUITING","city":"Nagoya","zip":"464-8681","country":"Japan","geoPoint":{"lat":35.18147,"lon":136.90641}},{"facility":"Local Institution - 901","status":"ACTIVE_NOT_RECRUITING","city":"Nagoya","zip":"467-8602","country":"Japan","geoPoint":{"lat":35.18147,"lon":136.90641}},{"facility":"Local Institution - 905","status":"ACTIVE_NOT_RECRUITING","city":"Okayama","zip":"701-1192","country":"Japan","geoPoint":{"lat":34.65,"lon":133.93333}},{"facility":"Local Institution - 908","status":"ACTIVE_NOT_RECRUITING","city":"Osaka-Sayama","zip":"589-8511","country":"Japan","geoPoint":{"lat":34.69374,"lon":135.50218}},{"facility":"Local Institution - 907","status":"ACTIVE_NOT_RECRUITING","city":"Osaka","zip":"545-8585","country":"Japan","geoPoint":{"lat":34.69374,"lon":135.50218}},{"facility":"Local Institution - 913","status":"ACTIVE_NOT_RECRUITING","city":"Sapporo","zip":"003-0006","country":"Japan","geoPoint":{"lat":43.06667,"lon":141.35}},{"facility":"Local Institution - 914","status":"ACTIVE_NOT_RECRUITING","city":"Sendai","zip":"980-8574","country":"Japan","geoPoint":{"lat":38.26667,"lon":140.86667}},{"facility":"Local Institution - 906","status":"ACTIVE_NOT_RECRUITING","city":"Shibuya-ku","zip":"150-8935","country":"Japan","geoPoint":{"lat":35.469,"lon":140.29807}},{"facility":"Local Institution - 909","status":"ACTIVE_NOT_RECRUITING","city":"Shinagawa-ku, Tokyo","zip":"141-8625","country":"Japan","geoPoint":{"lat":33.63627,"lon":133.00572}},{"facility":"Local Institution - 904","status":"ACTIVE_NOT_RECRUITING","city":"Toyohashi","zip":"441-8570","country":"Japan","geoPoint":{"lat":34.76667,"lon":137.38333}},{"facility":"Local Institution - 974","status":"ACTIVE_NOT_RECRUITING","city":"Daegu","zip":"700-721","country":"Korea, Republic of","geoPoint":{"lat":35.87028,"lon":128.59111}},{"facility":"Local Institution - 973","status":"ACTIVE_NOT_RECRUITING","city":"Gyeonggi-do","zip":"410-769","country":"Korea, Republic of","geoPoint":{"lat":37.58944,"lon":126.76917}},{"facility":"Local Institution - 975","status":"ACTIVE_NOT_RECRUITING","city":"Hwasun-gun","zip":"519-809","country":"Korea, Republic of"},{"facility":"Local Institution - 971","status":"ACTIVE_NOT_RECRUITING","city":"Seoul","zip":"06351","country":"Korea, Republic of","geoPoint":{"lat":37.566,"lon":126.9784}},{"facility":"Local Institution - 976","status":"ACTIVE_NOT_RECRUITING","city":"Seoul","zip":"06591","country":"Korea, Republic of","geoPoint":{"lat":37.566,"lon":126.9784}},{"facility":"Local Institution - 972","status":"ACTIVE_NOT_RECRUITING","city":"Seoul","zip":"120-752","country":"Korea, Republic of","geoPoint":{"lat":37.566,"lon":126.9784}},{"facility":"Local Institution - 970","status":"ACTIVE_NOT_RECRUITING","city":"Seoul","zip":"3080","country":"Korea, Republic of","geoPoint":{"lat":37.566,"lon":126.9784}},{"facility":"Local Institution - 977","status":"ACTIVE_NOT_RECRUITING","city":"Seoul","zip":"5505","country":"Korea, Republic of","geoPoint":{"lat":37.566,"lon":126.9784}},{"facility":"Local Institution - 182","status":"WITHDRAWN","city":"Mexico City","state":"Distrito Federal","zip":"06720","country":"Mexico","geoPoint":{"lat":19.42847,"lon":-99.12766}},{"facility":"Local Institution - 183","status":"ACTIVE_NOT_RECRUITING","city":"Guadalajara","state":"Jalisco","zip":"44600","country":"Mexico","geoPoint":{"lat":20.66682,"lon":-103.39182}},{"facility":"Local Institution - 181","status":"WITHDRAWN","city":"La Raza","zip":"02990","country":"Mexico"},{"facility":"Local Institution - 180","status":"WITHDRAWN","city":"Mexico City","zip":"14080","country":"Mexico","geoPoint":{"lat":19.42847,"lon":-99.12766}},{"facility":"Local Institution - 351","status":"ACTIVE_NOT_RECRUITING","city":"Dordrecht","state":"Zuid-Holland","zip":"3318 AT","country":"Netherlands","geoPoint":{"lat":51.81,"lon":4.67361}},{"facility":"Local Institution - 354","status":"ACTIVE_NOT_RECRUITING","city":"Amsterdam","zip":"1081 HV","country":"Netherlands","geoPoint":{"lat":52.37403,"lon":4.88969}},{"facility":"Local Institution - 352","status":"ACTIVE_NOT_RECRUITING","city":"Den Haag","zip":"2545 CH","country":"Netherlands","geoPoint":{"lat":52.07667,"lon":4.29861}},{"facility":"Local Institution - 202","status":"ACTIVE_NOT_RECRUITING","city":"Bergen","zip":"N-5053","country":"Norway","geoPoint":{"lat":60.39299,"lon":5.32415}},{"facility":"Local Institution - 200","status":"ACTIVE_NOT_RECRUITING","city":"Oslo","zip":"0450","country":"Norway","geoPoint":{"lat":59.91273,"lon":10.74609}},{"facility":"Local Institution - 201","status":"ACTIVE_NOT_RECRUITING","city":"Trondheim","zip":"7030","country":"Norway","geoPoint":{"lat":63.43049,"lon":10.39506}},{"facility":"Local Institution - 631","status":"ACTIVE_NOT_RECRUITING","city":"Bialystok","state":"Podlaskie","zip":"15-276","country":"Poland","geoPoint":{"lat":53.13333,"lon":23.16433}},{"facility":"Local Institution - 633","status":"ACTIVE_NOT_RECRUITING","city":"Krakow","zip":"30-688","country":"Poland","geoPoint":{"lat":50.06143,"lon":19.93658}},{"facility":"Local Institution - 635","status":"ACTIVE_NOT_RECRUITING","city":"Nowy Sacz","zip":"33-300","country":"Poland","geoPoint":{"lat":49.62177,"lon":20.69705}},{"facility":"Local Institution - 634","status":"ACTIVE_NOT_RECRUITING","city":"Poznan","zip":"60-569","country":"Poland","geoPoint":{"lat":52.40692,"lon":16.92993}},{"facility":"Local Institution - 636","status":"ACTIVE_NOT_RECRUITING","city":"Walbrzych","zip":"58-309","country":"Poland","geoPoint":{"lat":50.77141,"lon":16.28432}},{"facility":"Local Institution - 630","status":"ACTIVE_NOT_RECRUITING","city":"Warszawa","zip":"02-781","country":"Poland","geoPoint":{"lat":52.22977,"lon":21.01178}},{"facility":"Local Institution - 545","status":"ACTIVE_NOT_RECRUITING","city":"Coimbra","zip":"4200-072","country":"Portugal","geoPoint":{"lat":40.20564,"lon":-8.41955}},{"facility":"Local Institution - 543","status":"COMPLETED","city":"Lisboa","zip":"1099-023","country":"Portugal","geoPoint":{"lat":38.71667,"lon":-9.13333}},{"facility":"Local Institution - 544","status":"ACTIVE_NOT_RECRUITING","city":"Lisboa","zip":"1400-038","country":"Portugal","geoPoint":{"lat":38.71667,"lon":-9.13333}},{"facility":"Local Institution - 540","status":"ACTIVE_NOT_RECRUITING","city":"Porto","zip":"4200-072","country":"Portugal","geoPoint":{"lat":41.14961,"lon":-8.61099}},{"facility":"Local Institution - 541","status":"COMPLETED","city":"Porto","zip":"4200-319","country":"Portugal","geoPoint":{"lat":41.14961,"lon":-8.61099}},{"facility":"Local Institution - 791","status":"WITHDRAWN","city":"Pretoria","state":"Gauteng","zip":"181","country":"South Africa","geoPoint":{"lat":-25.74486,"lon":28.18783}},{"facility":"Local Institution - 790","status":"WITHDRAWN","city":"Cape Town","state":"Western Cape","zip":"8000","country":"South Africa","geoPoint":{"lat":-33.92584,"lon":18.42322}},{"facility":"Local Institution - 792","status":"WITHDRAWN","city":"Kuils River","state":"Western Cape","zip":"7580","country":"South Africa","geoPoint":{"lat":-33.94208,"lon":18.70663}},{"facility":"Local Institution - 514","status":"ACTIVE_NOT_RECRUITING","city":"Pamplona","state":"Navarra","zip":"31008","country":"Spain","geoPoint":{"lat":42.81687,"lon":-1.64323}},{"facility":"Local Institution - 505","status":"ACTIVE_NOT_RECRUITING","city":"Barcelona","zip":"08025","country":"Spain","geoPoint":{"lat":41.38879,"lon":2.15899}},{"facility":"Local Institution - 502","status":"ACTIVE_NOT_RECRUITING","city":"Barcelona","zip":"08035","country":"Spain","geoPoint":{"lat":41.38879,"lon":2.15899}},{"facility":"Local Institution - 511","status":"ACTIVE_NOT_RECRUITING","city":"Barcelona","zip":"08916","country":"Spain","geoPoint":{"lat":41.38879,"lon":2.15899}},{"facility":"Local Institution - 501","status":"ACTIVE_NOT_RECRUITING","city":"Caceres","zip":"10005","country":"Spain","geoPoint":{"lat":39.47649,"lon":-6.37224}},{"facility":"Local Institution - 509","status":"ACTIVE_NOT_RECRUITING","city":"Cordoba","zip":"14001","country":"Spain","geoPoint":{"lat":37.89155,"lon":-4.77275}},{"facility":"Local Institution - 510","status":"ACTIVE_NOT_RECRUITING","city":"Madrid","zip":"28006","country":"Spain","geoPoint":{"lat":40.4165,"lon":-3.70256}},{"facility":"Local Institution - 516","status":"ACTIVE_NOT_RECRUITING","city":"Madrid","zip":"28027","country":"Spain","geoPoint":{"lat":40.4165,"lon":-3.70256}},{"facility":"Local Institution - 504","status":"ACTIVE_NOT_RECRUITING","city":"Madrid","zip":"28034","country":"Spain","geoPoint":{"lat":40.4165,"lon":-3.70256}},{"facility":"Local Institution - 513","status":"ACTIVE_NOT_RECRUITING","city":"Madrid","zip":"28040","country":"Spain","geoPoint":{"lat":40.4165,"lon":-3.70256}},{"facility":"Local Institution - 503","status":"ACTIVE_NOT_RECRUITING","city":"Malaga","zip":"29010","country":"Spain","geoPoint":{"lat":36.72016,"lon":-4.42034}},{"facility":"Local Institution - 508","status":"ACTIVE_NOT_RECRUITING","city":"Murcia","zip":"30120","country":"Spain","geoPoint":{"lat":37.98704,"lon":-1.13004}},{"facility":"Local Institution - 506","status":"ACTIVE_NOT_RECRUITING","city":"Oviedo","zip":"33011","country":"Spain","geoPoint":{"lat":43.36029,"lon":-5.84476}},{"facility":"Local Institution - 515","status":"ACTIVE_NOT_RECRUITING","city":"Salamanca","zip":"37007","country":"Spain","geoPoint":{"lat":40.96882,"lon":-5.66388}},{"facility":"Local Institution - 500","status":"ACTIVE_NOT_RECRUITING","city":"Santiago de Compostela","zip":"15706","country":"Spain","geoPoint":{"lat":42.88052,"lon":-8.54569}},{"facility":"Local Institution - 512","status":"ACTIVE_NOT_RECRUITING","city":"Valencia","zip":"46026","country":"Spain","geoPoint":{"lat":39.46975,"lon":-0.37739}},{"facility":"Local Institution - 507","status":"ACTIVE_NOT_RECRUITING","city":"Zaragoza","zip":"50009","country":"Spain","geoPoint":{"lat":41.65606,"lon":-0.87734}},{"facility":"Local Institution - 272","status":"ACTIVE_NOT_RECRUITING","city":"Boras","zip":"50182","country":"Sweden","geoPoint":{"lat":57.72101,"lon":12.9401}},{"facility":"Local Institution - 271","status":"ACTIVE_NOT_RECRUITING","city":"Helsingborg","zip":"25437","country":"Sweden","geoPoint":{"lat":56.04673,"lon":12.69437}},{"facility":"Local Institution - 851","status":"ACTIVE_NOT_RECRUITING","city":"Chur","zip":"7000","country":"Switzerland","geoPoint":{"lat":46.84986,"lon":9.53287}},{"facility":"Local Institution - 850","status":"ACTIVE_NOT_RECRUITING","city":"St. Gallen","zip":"CH-9007","country":"Switzerland","geoPoint":{"lat":47.42391,"lon":9.37477}},{"facility":"Local Institution - 955","status":"ACTIVE_NOT_RECRUITING","city":"Niao-Sung Hsiang Kaohsiung County","zip":"83301","country":"Taiwan"},{"facility":"Local Institution - 952","status":"ACTIVE_NOT_RECRUITING","city":"Taichung City","zip":"40447","country":"Taiwan","geoPoint":{"lat":24.1469,"lon":120.6839}},{"facility":"Local Institution - 954","status":"ACTIVE_NOT_RECRUITING","city":"Taichung","zip":"407219","country":"Taiwan","geoPoint":{"lat":24.1469,"lon":120.6839}},{"facility":"Local Institution - 951","status":"ACTIVE_NOT_RECRUITING","city":"Tainan, Taiana","zip":"704","country":"Taiwan"},{"facility":"Local Institution - 956","status":"ACTIVE_NOT_RECRUITING","city":"Taipei, Zhongzheng Dist.","zip":"10002","country":"Taiwan"},{"facility":"Local Institution - 950","status":"COMPLETED","city":"Taipei","zip":"11217","country":"Taiwan","geoPoint":{"lat":25.04776,"lon":121.53185}},{"facility":"Local Institution - 953","status":"ACTIVE_NOT_RECRUITING","city":"Taoyuan City","zip":"33305","country":"Taiwan","geoPoint":{"lat":24.95233,"lon":121.20193}},{"facility":"Local Institution - 778","status":"ACTIVE_NOT_RECRUITING","city":"KavaklÄ±dere","state":"Ankara","zip":"06680","country":"Turkey","geoPoint":{"lat":37.44463,"lon":28.36276}},{"facility":"Local Institution - 776","status":"ACTIVE_NOT_RECRUITING","city":"Yenimahalle","state":"Ankara","zip":"6200","country":"Turkey"},{"facility":"Local Institution - 777","status":"ACTIVE_NOT_RECRUITING","city":"Pendik","state":"Istanbul","zip":"34899","country":"Turkey","geoPoint":{"lat":40.8775,"lon":29.2725}},{"facility":"Local Institution - 771","status":"ACTIVE_NOT_RECRUITING","city":"BalÃ§ova","state":"Izmir","zip":"35340","country":"Turkey","geoPoint":{"lat":38.39201,"lon":27.04258}},{"facility":"Local Institution - 775","status":"ACTIVE_NOT_RECRUITING","city":"Bornova","state":"Izmir","zip":"35100","country":"Turkey","geoPoint":{"lat":38.47921,"lon":27.2399}},{"facility":"Local Institution - 773","status":"ACTIVE_NOT_RECRUITING","city":"Samsun","state":"Kurupelit","zip":"55239","country":"Turkey","geoPoint":{"lat":41.27976,"lon":36.3361}},{"facility":"Local Institution - 770","status":"ACTIVE_NOT_RECRUITING","city":"Ankara","zip":"06100","country":"Turkey","geoPoint":{"lat":39.91987,"lon":32.85427}},{"facility":"Local Institution - 772","status":"ACTIVE_NOT_RECRUITING","city":"Gaziantep","zip":"27310","country":"Turkey","geoPoint":{"lat":37.05944,"lon":37.3825}},{"facility":"Local Institution - 774","status":"ACTIVE_NOT_RECRUITING","city":"Kayseri","zip":"38140","country":"Turkey","geoPoint":{"lat":38.73222,"lon":35.48528}},{"facility":"Local Institution - 702","status":"ACTIVE_NOT_RECRUITING","city":"Nottingham","state":"Nottinghamshire","zip":"NG5 1PB","country":"United Kingdom","geoPoint":{"lat":52.9536,"lon":-1.15047}},{"facility":"Local Institution - 705","status":"ACTIVE_NOT_RECRUITING","city":"Belfast Northern Ireland","zip":"BT9 7AD","country":"United Kingdom"},{"facility":"Local Institution - 700","status":"ACTIVE_NOT_RECRUITING","city":"Birmingham","zip":"B15 2TH","country":"United Kingdom","geoPoint":{"lat":52.48142,"lon":-1.89983}},{"facility":"Local Institution - 707","status":"ACTIVE_NOT_RECRUITING","city":"Canterbury Kent","zip":"CT1 3NG","country":"United Kingdom"},{"facility":"Local Institution - 704","status":"COMPLETED","city":"Lancashire Blackpool","zip":"FY3 8NR","country":"United Kingdom"},{"facility":"Local Institution - 701","status":"ACTIVE_NOT_RECRUITING","city":"London","zip":"NW1 2BU","country":"United Kingdom","geoPoint":{"lat":51.50853,"lon":-0.12574}},{"facility":"Local Institution - 709","status":"ACTIVE_NOT_RECRUITING","city":"London","zip":"SE1 9RT","country":"United Kingdom","geoPoint":{"lat":51.50853,"lon":-0.12574}},{"facility":"Local Institution - 706","status":"ACTIVE_NOT_RECRUITING","city":"Oxford","zip":"OX3 7LE","country":"United Kingdom","geoPoint":{"lat":51.75222,"lon":-1.25596}},{"facility":"Local Institution - 711","status":"ACTIVE_NOT_RECRUITING","city":"Portsmouth","zip":"PO6 3LY","country":"United Kingdom","geoPoint":{"lat":50.79899,"lon":-1.09125}},{"facility":"Local Institution - 713","status":"ACTIVE_NOT_RECRUITING","city":"Sutton","zip":"SM2 5PT","country":"United Kingdom","geoPoint":{"lat":51.35,"lon":-0.2}},{"facility":"Local Institution - 708","status":"ACTIVE_NOT_RECRUITING","city":"Wolverhampton","zip":"WV10 0QP","country":"United Kingdom","geoPoint":{"lat":52.58547,"lon":-2.12296}}]},"referencesModule":{"seeAlsoLinks":[{"label":"BMS Clinical Trial Information","url":"https://www.bms.com/researchers-and-partners/clinical-trials-and-research.html"},{"label":"BMS Clinical Trial Patient Recruiting","url":"https://www.bmsclinicaltrials.com/us/en/clinical-trials/NCT04975997.html"}]},"ipdSharingStatementModule":{"ipdSharing":"YES","description":"Information relating to our policy on data sharing and the process for requesting data can be found at the following link:\n\nhttps://www.celgene.com/research-development/clinical-trials/clinical-trials-data-sharing/","infoTypes":["STUDY_PROTOCOL","SAP","ICF","CSR","ANALYTIC_CODE"],"timeFrame":"See Plan Description","accessCriteria":"See Plan Description","url":"https://www.bms.com/researchers-and-partners/clinical-trials-and-research/disclosure-commitment.html"}},"derivedSection":{"miscInfoModule":{"versionHolder":"2025-07-07","removedCountries":["Russian Federation"]},"conditionBrowseModule":{"meshes":[{"id":"D009101","term":"Multiple Myeloma"},{"id":"D054219","term":"Neoplasms, Plasma Cell"}],"ancestors":[{"id":"D009370","term":"Neoplasms by Histologic Type"},{"id":"D009369","term":"Neoplasms"},{"id":"D020141","term":"Hemostatic Disorders"},{"id":"D014652","term":"Vascular Diseases"},{"id":"D002318","term":"Cardiovascular Diseases"},{"id":"D010265","term":"Paraproteinemias"},{"id":"D001796","term":"Blood Protein Disorders"},{"id":"D006402","term":"Hematologic Diseases"},{"id":"D006474","term":"Hemorrhagic Disorders"},{"id":"D008232","term":"Lymphoproliferative Disorders"},{"id":"D007160","term":"Immunoproliferative Disorders"},{"id":"D007154","term":"Immune System Diseases"}],"browseLeaves":[{"id":"M12058","name":"Multiple Myeloma","asFound":"Multiple Myeloma","relevance":"HIGH"},{"id":"M27588","name":"Neoplasms, Plasma Cell","asFound":"Multiple Myeloma","relevance":"HIGH"},{"id":"M12315","name":"Neoplasms by Histologic Type","relevance":"LOW"},{"id":"M21977","name":"Hemostatic Disorders","relevance":"LOW"},{"id":"M5059","name":"Blood Coagulation Disorders","relevance":"LOW"},{"id":"M17400","name":"Vascular Diseases","relevance":"LOW"},{"id":"M13178","name":"Paraproteinemias","relevance":"LOW"},{"id":"M5077","name":"Blood Protein Disorders","relevance":"LOW"},{"id":"M9490","name":"Hematologic Diseases","relevance":"LOW"},{"id":"M9560","name":"Hemorrhagic Disorders","relevance":"LOW"},{"id":"M11225","name":"Lymphoproliferative Disorders","relevance":"LOW"},{"id":"M10206","name":"Immunoproliferative Disorders","relevance":"LOW"},{"id":"M10200","name":"Immune System Diseases","relevance":"LOW"},{"id":"T3947","name":"Multiple Myeloma","asFound":"Multiple Myeloma","relevance":"HIGH"}],"browseBranches":[{"abbrev":"BC04","name":"Neoplasms"},{"abbrev":"BC14","name":"Heart and Blood Diseases"},{"abbrev":"BC15","name":"Blood and Lymph Conditions"},{"abbrev":"BC20","name":"Immune System Diseases"},{"abbrev":"All","name":"All Conditions"},{"abbrev":"Rare","name":"Rare Diseases"}]},"interventionBrowseModule":{"meshes":[{"id":"D003907","term":"Dexamethasone"},{"id":"C018038","term":"Dexamethasone acetate"},{"id":"D000069286","term":"Bortezomib"},{"id":"C556306","term":"Daratumumab"},{"id":"C101468","term":"BB 1101"},{"id":"D000911","term":"Antibodies, Monoclonal"}],"ancestors":[{"id":"D000893","term":"Anti-Inflammatory Agents"},{"id":"D000932","term":"Antiemetics"},{"id":"D001337","term":"Autonomic Agents"},{"id":"D018373","term":"Peripheral Nervous System Agents"},{"id":"D045505","term":"Physiological Effects of Drugs"},{"id":"D005765","term":"Gastrointestinal Agents"},{"id":"D005938","term":"Glucocorticoids"},{"id":"D006728","term":"Hormones"},{"id":"D006730","term":"Hormones, Hormone Substitutes, and Hormone Antagonists"},{"id":"D018931","term":"Antineoplastic Agents, Hormonal"},{"id":"D000970","term":"Antineoplastic Agents"},{"id":"D011480","term":"Protease Inhibitors"},{"id":"D004791","term":"Enzyme Inhibitors"},{"id":"D045504","term":"Molecular Mechanisms of Pharmacological Action"},{"id":"D007155","term":"Immunologic Factors"}],"browseLeaves":[{"id":"M7102","name":"Dexamethasone","asFound":"Over","relevance":"HIGH"},{"id":"M235549","name":"Dexamethasone acetate","asFound":"Over","relevance":"HIGH"},{"id":"M376","name":"Bortezomib","asFound":"Blood pressure","relevance":"HIGH"},{"id":"M272211","name":"Daratumumab","asFound":"Microbiota","relevance":"HIGH"},{"id":"M199152","name":"BB 1101","asFound":"Over","relevance":"HIGH"},{"id":"M4225","name":"Antibodies","relevance":"LOW"},{"id":"M10184","name":"Immunoglobulins","relevance":"LOW"},{"id":"M4230","name":"Antibodies, Monoclonal","asFound":"Microbiota","relevance":"HIGH"},{"id":"M4217","name":"Anti-Inflammatory Agents","relevance":"LOW"},{"id":"M4251","name":"Antiemetics","relevance":"LOW"},{"id":"M8881","name":"Gastrointestinal Agents","relevance":"LOW"},{"id":"M9047","name":"Glucocorticoids","relevance":"LOW"},{"id":"M9789","name":"Hormones","relevance":"LOW"},{"id":"M9788","name":"Hormone Antagonists","relevance":"LOW"},{"id":"M20966","name":"Antineoplastic Agents, Hormonal","relevance":"LOW"},{"id":"M19609","name":"HIV Protease Inhibitors","relevance":"LOW"},{"id":"M14343","name":"Protease Inhibitors","relevance":"LOW"},{"id":"M7951","name":"Enzyme Inhibitors","relevance":"LOW"},{"id":"M10201","name":"Immunologic Factors","relevance":"LOW"}],"browseBranches":[{"abbrev":"Infl","name":"Anti-Inflammatory Agents"},{"abbrev":"ANeo","name":"Antineoplastic Agents"},{"abbrev":"AnEm","name":"Antiemetics"},{"abbrev":"Gast","name":"Gastrointestinal Agents"},{"abbrev":"All","name":"All Drugs and Chemicals"},{"abbrev":"Infe","name":"Anti-Infective Agents"}]}},"hasResults":false}