{"protocolSection":{"identificationModule":{"nctId":"NCT05827016","orgStudyIdInfo":{"id":"IM048-022"},"secondaryIdInfos":[{"id":"2022-501515-14","type":"EUDRACT_NUMBER"},{"id":"U1111-1280-9492","type":"REGISTRY","domain":"WHO"}],"organization":{"fullName":"Bristol-Myers Squibb","class":"INDUSTRY"},"briefTitle":"A Study to Compare Iberdomide Maintenance Versus Lenalidomide Maintenance Therapy Following Autologous Stem Cell Transplant in Participants With Newly Diagnosed Multiple Myeloma","officialTitle":"A Phase 3, Two-stage, Randomized, Multi-center, Controlled, Open-label Study Comparing Iberdomide Maintenance to Lenalidomide Maintenance Therapy After Autologous Stem Cell Transplantation (ASCT) in Participants With Newly Diagnosed Multiple Myeloma (NDMM) (EXCALIBER-Maintenance)"},"statusModule":{"statusVerifiedDate":"2025-06","overallStatus":"RECRUITING","expandedAccessInfo":{"hasExpandedAccess":false},"startDateStruct":{"date":"2023-06-22","type":"ACTUAL"},"primaryCompletionDateStruct":{"date":"2029-03-15","type":"ESTIMATED"},"completionDateStruct":{"date":"2036-01-01","type":"ESTIMATED"},"studyFirstSubmitDate":"2023-04-11","studyFirstSubmitQcDate":"2023-04-11","studyFirstPostDateStruct":{"date":"2023-04-24","type":"ACTUAL"},"lastUpdateSubmitDate":"2025-06-27","lastUpdatePostDateStruct":{"date":"2025-07-01","type":"ACTUAL"}},"sponsorCollaboratorsModule":{"responsibleParty":{"type":"SPONSOR"},"leadSponsor":{"name":"Bristol-Myers Squibb","class":"INDUSTRY"}},"oversightModule":{"oversightHasDmc":true,"isFdaRegulatedDrug":true,"isFdaRegulatedDevice":false},"descriptionModule":{"briefSummary":"The purpose of this study is to compare the effectiveness of iberdomide maintenance to lenalidomide maintenance therapy after autologous stem cell transplantation (ASCT) in participants with newly diagnosed multiple myeloma (NDMM)."},"conditionsModule":{"conditions":["Multiple Myeloma"],"keywords":["Multiple Myeloma","Iberdomide","CC-220","Lenalidomide","MM","NDMM","Maintenance","Autologous stem cell transplant","ASCT","CELMoD","Cereblon Modulators"]},"designModule":{"studyType":"INTERVENTIONAL","phases":["PHASE3"],"designInfo":{"allocation":"RANDOMIZED","interventionModel":"PARALLEL","primaryPurpose":"TREATMENT","maskingInfo":{"masking":"NONE"}},"enrollmentInfo":{"count":1216,"type":"ESTIMATED"}},"armsInterventionsModule":{"armGroups":[{"label":"Arm A1: Iberdomide Dose 1","type":"EXPERIMENTAL","interventionNames":["Drug: Iberdomide"]},{"label":"Arm A2: Iberdomide Dose 2","type":"EXPERIMENTAL","interventionNames":["Drug: Iberdomide"]},{"label":"Arm A3: Iberdomide Dose 3","type":"EXPERIMENTAL","interventionNames":["Drug: Iberdomide"]},{"label":"Arm B: Lenalidomide","type":"ACTIVE_COMPARATOR","interventionNames":["Drug: Lenalidomide"]}],"interventions":[{"type":"DRUG","name":"Iberdomide","description":"Specified dose on specified days","armGroupLabels":["Arm A1: Iberdomide Dose 1","Arm A2: Iberdomide Dose 2","Arm A3: Iberdomide Dose 3"],"otherNames":["CC-220","BMS-986382"]},{"type":"DRUG","name":"Lenalidomide","description":"Specified dose on specified days","armGroupLabels":["Arm B: Lenalidomide"],"otherNames":["Revlimid®"]}]},"outcomesModule":{"primaryOutcomes":[{"measure":"Progression-free survival (PFS)","timeFrame":"Up to 6 years"}],"secondaryOutcomes":[{"measure":"Achieving minimal residual disease (MRD) negativity in participants with complete response (CR) or better at 12 (± 3) months of maintenance treatment","timeFrame":"Up to 6 years"},{"measure":"Overall Survival","timeFrame":"Up to 12 years"},{"measure":"Recommended iberdomide dose for Stage 2","timeFrame":"Up to 1 year"},{"measure":"Area under the iberdomide plasma concentration-time curve from time zero to tau","timeFrame":"Up to 1 year"},{"measure":"Area under the iberdomide plasma concentration-time curve within a dosing interval AUC (TAU)","timeFrame":"Up to 1 year"},{"measure":"Maximum iberdomide concentration (Cmax)","timeFrame":"Up to 1 year"},{"measure":"Time to maximum iberdomide plasma concentration (Tmax)","timeFrame":"Up to 1 year"},{"measure":"Number of participants with adverse events (AEs)","timeFrame":"Up to 6 years"},{"measure":"Progression-free survival on next line of treatment (PFS2)","timeFrame":"Up to 6 years"},{"measure":"Achieving MRD negativity in participants with CR or better at any time after the date of randomization","timeFrame":"Up to 6 years"},{"measure":"Conversion from MRD positive to MRD negative in participants with CR or better","timeFrame":"Up to 6 years"},{"measure":"Achievement of CR or better and maintaining MRD-negative status in 2 bone marrow aspirate assessments that are a minimum of 1 year apart, without any examination showing MRD positive status in between assessments","timeFrame":"Up to 6 years"},{"measure":"Time to progression (TTP)","timeFrame":"Up to 6 years"},{"measure":"Time to next treatment (TTNT)","timeFrame":"Up to 6 years"},{"measure":"Best response achieved prior to progressive disease (PD)","timeFrame":"Up to 6 years"},{"measure":"Patient-reported health-related quality of life (HRQoL) outcomes and multiple myeloma-related symptoms as measured by the European Organization for Research and Treatment of Cancer [EORTC] Quality of Life C30 questionnaire (QLQ-C30)","timeFrame":"Up to 6 years"},{"measure":"Patient-reported HRQoL outcomes and multiple myeloma-related symptoms as measured by the EORTC Quality of Life Multiple Myeloma Module (QLQ-MY20)","timeFrame":"Up to 6 years"}]},"eligibilityModule":{"eligibilityCriteria":"Inclusion Criteria\n\n* Confirmed diagnosis of symptomatic multiple myeloma (MM).\n* Eastern Cooperative Oncology Group performance status (ECOG) score of 0, 1, or 2.\n* Received 3 to 6 cycles of an induction therapy that includes a proteasome inhibitor (PI) and immunomodulatory (IMiD) \\[eg, bortezomib thalidomide and dexamethasone (VTd), lenalidomide, bortezomib and dexamethasone (RVd)\\] with or without a CD38 monoclonal antibody, daratumumab + bortezomib/thalidomide/dexamethasone \\[D-VTd\\] and daratumumab + bortezomib/ lenalidomide/dexamethasone \\[D-VRd\\]), or VCd / daratumumab + bortezomib/cyclophosphamide/dexamethasone \\[D-VCd\\], and followed by a single or tandem autologous stem cell transplantation (ASCT). Post-stem cell transplant consolidation is permitted.\n* Participants within 12 months (single transplant) or 15 months (tandem transplant) from initiation of induction therapy who achieved at least a partial response (PR) after autologous stem cell transplantation (ASCT) with or without consolidation, according to International Myeloma Working Group (IMWG 2016) criteria.\n\nExclusion Criteria\n\n* Progressive disease or clinical relapse (as defined by IMWG response criteria) following ASCT with or without consolidation or is not responsive to primary therapy.\n* Smoldering myeloma, solitary plasmacytoma or nonsecretory myeloma.\n* Known central nervous system/meningeal involvement of MM.\n* Prior history of malignancies, other than MM, unless the participant has been free of the disease for ≥ 5 years.\n* Other protocol-defined Inclusion/Exclusion criteria apply.","healthyVolunteers":false,"sex":"ALL","minimumAge":"18 Years","stdAges":["ADULT","OLDER_ADULT"]},"contactsLocationsModule":{"centralContacts":[{"name":"BMS Clinical Trials Contact Center www.BMSClinicalTrials.com","role":"CONTACT","phone":"855-907-3286","email":"Clinical.Trials@bms.com"},{"name":"First line of email MUST contain NCT # and Site #.","role":"CONTACT"}],"overallOfficials":[{"name":"Bristol-Myers Squibb","affiliation":"Bristol-Myers Squibb","role":"STUDY_DIRECTOR"}],"locations":[{"facility":"Rocky Mountain Cancer Centers","status":"RECRUITING","city":"Aurora","state":"Colorado","zip":"80012-5405","country":"United States","contacts":[{"name":"Robert Rifkin, Site 0202","role":"CONTACT","phone":"303-388-4876"}],"geoPoint":{"lat":39.72943,"lon":-104.83192}},{"facility":"Mayo Clinic Florida","status":"RECRUITING","city":"Jacksonville","state":"Florida","zip":"32224","country":"United States","contacts":[{"name":"Sikander Ailawadhi, Site 0007","role":"CONTACT","phone":"904-953-2000"}],"geoPoint":{"lat":30.33218,"lon":-81.65565}},{"facility":"Tampa General Hospital","status":"RECRUITING","city":"Tampa","state":"Florida","zip":"33606","country":"United States","contacts":[{"name":"Ivan Borrello, Site 0308","role":"CONTACT","phone":"410-955-4967"}],"geoPoint":{"lat":27.94752,"lon":-82.45843}},{"facility":"H. Lee Moffitt Cancer Center & Research Institute","status":"RECRUITING","city":"Tampa","state":"Florida","zip":"33612-9416","country":"United States","contacts":[{"name":"Melissa Alsina, Site 0192","role":"CONTACT","phone":"813-745-7202"}],"geoPoint":{"lat":27.94752,"lon":-82.45843}},{"facility":"Cleveland Clinic","status":"RECRUITING","city":"Weston","state":"Florida","zip":"33331-3609","country":"United States","contacts":[{"name":"Chakra Chaulagain, Site 0003","role":"CONTACT","phone":"954-487-2124"}],"geoPoint":{"lat":26.10037,"lon":-80.39977}},{"facility":"University Cancer Blood Ctr","status":"RECRUITING","city":"Athens","state":"Georgia","zip":"30607-1465","country":"United States","contacts":[{"name":"Charles Bodine, Site 0019","role":"CONTACT"}],"geoPoint":{"lat":33.96095,"lon":-83.37794}},{"facility":"The Winship Cancer Institute of Emory University","status":"RECRUITING","city":"Atlanta","state":"Georgia","zip":"30322-1013","country":"United States","contacts":[{"name":"Sagar Lonial, Site 0018","role":"CONTACT"}],"geoPoint":{"lat":33.749,"lon":-84.38798}},{"facility":"Augusta University - Georgia Cancer Center","status":"RECRUITING","city":"Augusta","state":"Georgia","zip":"30912","country":"United States","contacts":[{"name":"Amany Keruakous, Site 0021","role":"CONTACT","phone":"706-721-2505"}],"geoPoint":{"lat":33.47097,"lon":-81.97484}},{"facility":"The University of Chicago Medical Center - Duchossois Center for Advanced Medicine","status":"RECRUITING","city":"Chicago","state":"Illinois","zip":"60637-1426","country":"United States","contacts":[{"name":"Benjamin Derman, Site 0237","role":"CONTACT","phone":"847-275-8131"}],"geoPoint":{"lat":41.85003,"lon":-87.65005}},{"facility":"University of Kansas Cancer Center - The Richard and Annette Bloch Cancer Care Pavilion","status":"RECRUITING","city":"Westwood","state":"Kansas","zip":"66205-2003","country":"United States","contacts":[{"name":"Al-Ola Abdallah, Site 0015","role":"CONTACT","phone":"913-588-6078"}],"geoPoint":{"lat":39.04056,"lon":-94.6169}},{"facility":"Maryland Oncology Hematology, PA- Clinton","status":"RECRUITING","city":"Clinton","state":"Maryland","zip":"20735-4230","country":"United States","contacts":[{"name":"Jose Mendoza, Site 0205","role":"CONTACT"}],"geoPoint":{"lat":38.76511,"lon":-76.89831}},{"facility":"UMass Memorial Medical Center","status":"RECRUITING","city":"Worcester","state":"Massachusetts","zip":"01655","country":"United States","contacts":[{"name":"Muthalagu Ramanathan, Site 0279","role":"CONTACT","phone":"774-442-3093"}],"geoPoint":{"lat":42.26259,"lon":-71.80229}},{"facility":"University of Michigan - Rogel Cancer Center","status":"RECRUITING","city":"Ann Arbor","state":"Michigan","zip":"48109-5000","country":"United States","contacts":[{"name":"Matthew Pianko, Site 0001","role":"CONTACT","phone":"734-647-0118"}],"geoPoint":{"lat":42.27756,"lon":-83.74088}},{"facility":"Henry Ford Health System - The Henry Ford Cancer Institute (HFCI) - Detroit","status":"RECRUITING","city":"Detroit","state":"Michigan","zip":"48202-2610","country":"United States","contacts":[{"name":"Philip Kuriakose, Site 0257","role":"CONTACT","phone":"313-916-1901"}],"geoPoint":{"lat":42.33143,"lon":-83.04575}},{"facility":"Cancer & Hematology Centers of Western Michigan (CHCWM)","status":"RECRUITING","city":"Grand Rapids","state":"Michigan","zip":"49503","country":"United States","contacts":[{"name":"Andrew Sochacki, Site 0296","role":"CONTACT","phone":"616-350-3788"}],"geoPoint":{"lat":42.96336,"lon":-85.66809}},{"facility":"Mayo Clinic Cancer Center (MCCC) - Rochester","status":"RECRUITING","city":"Rochester","state":"Minnesota","zip":"55905","country":"United States","contacts":[{"name":"Prashant Kapoor, Site 0303","role":"CONTACT","phone":"507-284-0969"}],"geoPoint":{"lat":44.02163,"lon":-92.4699}},{"facility":"Hattiesburg Clinic - Hematology & Oncology","status":"RECRUITING","city":"Hattiesburg","state":"Mississippi","zip":"39401","country":"United States","contacts":[{"name":"John Hrom, Site 0207","role":"CONTACT","phone":"601-261-1700"}],"geoPoint":{"lat":31.32712,"lon":-89.29034}},{"facility":"Morristown Medical Center","status":"RECRUITING","city":"Morristown","state":"New Jersey","zip":"07960","country":"United States","contacts":[{"name":"Mohamad Cherry, Site 0191","role":"CONTACT","phone":"973-971-7906"}],"geoPoint":{"lat":40.79677,"lon":-74.48154}},{"facility":"Local Institution - 0328","status":"NOT_YET_RECRUITING","city":"Brooklyn","state":"New York","zip":"11220-3313","country":"United States","contacts":[{"name":"Site 0328","role":"CONTACT"}],"geoPoint":{"lat":40.6501,"lon":-73.94958}},{"facility":"Perlmutter Cancer Center at NYU Langone Hematology Oncology Associates-Mineola","status":"RECRUITING","city":"Mineola","state":"New York","zip":"11501","country":"United States","contacts":[{"name":"Gareth Morgan, Site 0288","role":"CONTACT"}],"geoPoint":{"lat":40.74927,"lon":-73.64068}},{"facility":"NYU Langone Health","status":"RECRUITING","city":"New York","state":"New York","zip":"10016-6402","country":"United States","contacts":[{"name":"Gareth Morgan, Site 0180","role":"CONTACT"}],"geoPoint":{"lat":40.71427,"lon":-74.00597}},{"facility":"Columbia University Medical Center - Herbert Irving Pavilion Location","status":"RECRUITING","city":"New York","state":"New York","zip":"10032-3729","country":"United States","contacts":[{"name":"Divaya Bhutani, Site 0020","role":"CONTACT"}],"geoPoint":{"lat":40.71427,"lon":-74.00597}},{"facility":"Clinical Research Alliance","status":"RECRUITING","city":"Westbury","state":"New York","zip":"11590","country":"United States","contacts":[{"name":"James D'Olimpio, Site 0274","role":"CONTACT","phone":"646-872-8630"}],"geoPoint":{"lat":40.75566,"lon":-73.58763}},{"facility":"Novant Health Cancer Institute - Elizabeth","status":"RECRUITING","city":"Charlotte","state":"North Carolina","zip":"28803-2493","country":"United States","contacts":[{"name":"Raymond Thertulien, Site 0005","role":"CONTACT","phone":"646-708-2544"}],"geoPoint":{"lat":35.22709,"lon":-80.84313}},{"facility":"Duke University Hospital","status":"RECRUITING","city":"Durham","state":"North Carolina","zip":"27705-3976","country":"United States","contacts":[{"name":"Cristina Gasparetto, Site 0281","role":"CONTACT","phone":"919-668-1017"}],"geoPoint":{"lat":35.99403,"lon":-78.89862}},{"facility":"Novant Health Cancer Institute Hematology - Forsyth","status":"RECRUITING","city":"Winston-Salem","state":"North Carolina","zip":"27103","country":"United States","contacts":[{"name":"Raymond Thertulien, Site 0286","role":"CONTACT","phone":"646-708-2544"}],"geoPoint":{"lat":36.09986,"lon":-80.24422}},{"facility":"Local Institution - 0322","status":"NOT_YET_RECRUITING","city":"Winston-Salem","state":"North Carolina","zip":"27157","country":"United States","contacts":[{"name":"Site 0322","role":"CONTACT"}],"geoPoint":{"lat":36.09986,"lon":-80.24422}},{"facility":"Oncology Hematology Care, Inc. - Cincinnati - Galbraith Rd","status":"RECRUITING","city":"Cincinnati","state":"Ohio","zip":"45236-2725","country":"United States","contacts":[{"name":"Kruti Patel, Site 0238","role":"CONTACT","phone":"888-961-4156"}],"geoPoint":{"lat":39.12713,"lon":-84.51435}},{"facility":"Cleveland Clinic - Fairview Hospital - Cancer Center (Moll Cancer Center)","status":"RECRUITING","city":"Cleveland","state":"Ohio","zip":"44111","country":"United States","contacts":[{"name":"Sandra Mazzoni, Site 0299","role":"CONTACT","phone":"216-445-2025"}],"geoPoint":{"lat":41.4995,"lon":-81.69541}},{"facility":"Cleveland Clinic","status":"RECRUITING","city":"Cleveland","state":"Ohio","zip":"44195","country":"United States","contacts":[{"name":"Sandra Mazzoni, Site 0002","role":"CONTACT","phone":"216-445-2025"}],"geoPoint":{"lat":41.4995,"lon":-81.69541}},{"facility":"Midwest Oncology Associates - Kansas City","status":"RECRUITING","city":"Kansas","state":"Ohio","zip":"64132","country":"United States","contacts":[{"name":"Anis Toumeh, Site 0017","role":"CONTACT"}],"geoPoint":{"lat":41.24505,"lon":-83.28465}},{"facility":"Cleveland Clinic - Hillcrest Hospital - Hillcrest Cancer Center","status":"RECRUITING","city":"Mayfield Heights","state":"Ohio","zip":"44124","country":"United States","contacts":[{"name":"Sandra Mazzoni, Site 0301","role":"CONTACT","phone":"216-445-2025"}],"geoPoint":{"lat":41.51922,"lon":-81.4579}},{"facility":"Toledo Clinic Cancer Centers","status":"RECRUITING","city":"Toledo","state":"Ohio","zip":"43623","country":"United States","contacts":[{"name":"Ahmad Zarzour, Site 0013","role":"CONTACT","phone":"419-479-5605"}],"geoPoint":{"lat":41.66394,"lon":-83.55521}},{"facility":"Wooster Milltown Specialty and Surgery Center","status":"RECRUITING","city":"Wooster","state":"Ohio","zip":"44691","country":"United States","contacts":[{"name":"Sandra Mazzoni, Site 0300","role":"CONTACT","phone":"216-445-2025"}],"geoPoint":{"lat":40.80517,"lon":-81.93646}},{"facility":"Willamette Valley Cancer Institute","status":"RECRUITING","city":"Eugene","state":"Oregon","zip":"97401","country":"United States","contacts":[{"name":"Christopher Yasenchak, Site 0203","role":"CONTACT","phone":"541-988-7932"}],"geoPoint":{"lat":44.05207,"lon":-123.08675}},{"facility":"Thomas Jefferson University Hospital","status":"RECRUITING","city":"Philadelphia","state":"Pennsylvania","zip":"19107","country":"United States","contacts":[{"name":"Adam Binder, Site 0012","role":"CONTACT"}],"geoPoint":{"lat":39.95233,"lon":-75.16379}},{"facility":"Fox Chase Cancer Center - Jeanes Campus","status":"RECRUITING","city":"Philadelphia","state":"Pennsylvania","zip":"19111-2433","country":"United States","contacts":[{"name":"Asya Varshavsky-Yanovsky, Site 0011","role":"CONTACT","phone":"215-214-3128"}],"geoPoint":{"lat":39.95233,"lon":-75.16379}},{"facility":"University of Pittsburgh - Hillman Cancer Center","status":"RECRUITING","city":"Pittsburgh","state":"Pennsylvania","zip":"15232","country":"United States","contacts":[{"name":"Kathleen Dorritie, Site 0253","role":"CONTACT","phone":"412-647-0864"}],"geoPoint":{"lat":40.44062,"lon":-79.99589}},{"facility":"West Cancer Center","status":"RECRUITING","city":"Germantown","state":"Tennessee","zip":"38138-1762","country":"United States","contacts":[{"name":"Jason Chandler, Site 0294","role":"CONTACT","phone":"901-683-0055"}],"geoPoint":{"lat":35.08676,"lon":-89.81009}},{"facility":"Tennessee Oncology","status":"RECRUITING","city":"Nashville","state":"Tennessee","zip":"37203-1625","country":"United States","contacts":[{"name":"Jesus Berdeja, Site 0004","role":"CONTACT","phone":"615-320-5090"}],"geoPoint":{"lat":36.16589,"lon":-86.78444}},{"facility":"Texas Oncology - Baylor Charles A. Sammons Cancer Center","status":"RECRUITING","city":"Dallas","state":"Texas","zip":"75246","country":"United States","contacts":[{"name":"Houston Holmes, Site 0193","role":"CONTACT","phone":"214-584-3402"}],"geoPoint":{"lat":32.78306,"lon":-96.80667}},{"facility":"UT Southwestern-Harold C. Simmons Cancer Center","status":"RECRUITING","city":"Dallas","state":"Texas","zip":"75390-0001","country":"United States","contacts":[{"name":"Larry Anderson, Site 0009","role":"CONTACT"}],"geoPoint":{"lat":32.78306,"lon":-96.80667}},{"facility":"University of Texas MD Anderson Cancer Center","status":"RECRUITING","city":"Houston","state":"Texas","zip":"77030-4000","country":"United States","contacts":[{"name":"Oren Pasvolsky, Site 0006","role":"CONTACT","phone":"832-728-1403"}],"geoPoint":{"lat":29.76328,"lon":-95.36327}},{"facility":"Local Institution - 0259","status":"WITHDRAWN","city":"Mar del Plata","state":"B","zip":"7600","country":"Argentina","geoPoint":{"lat":-38.00228,"lon":-57.55754}},{"facility":"Hospital Universitario Austral","status":"RECRUITING","city":"Pilar","state":"B","zip":"B1629AHJ","country":"Argentina","contacts":[{"name":"Mariano Berro, Site 0267","role":"CONTACT","phone":"+5491140799721"}],"geoPoint":{"lat":-31.6789,"lon":-63.87964}},{"facility":"Hospital Italiano de Buenos Aires","status":"RECRUITING","city":"Ciudad Autonoma Buenos Aires","state":"Caba","zip":"C1199ABB","country":"Argentina","contacts":[{"name":"Dorotea Fantl, Site 0183","role":"CONTACT","phone":"005491151097180"}],"geoPoint":{"lat":-34.61315,"lon":-58.37723}},{"facility":"\"Centro de Educación Médica e Investigaciones Clínicas \"\"Norberto Quirno\"\"\"","status":"RECRUITING","city":"Ciudad Autonoma Buenos Aires","state":"Caba","zip":"C1430EFA","country":"Argentina","contacts":[{"name":"Patricio Duarte, Site 0227","role":"CONTACT","phone":"01140890483"}],"geoPoint":{"lat":-34.61315,"lon":-58.37723}},{"facility":"Sanatorio Allende","status":"RECRUITING","city":"Córdoba","zip":"X5000JHGQ","country":"Argentina","contacts":[{"name":"Gustavo Jarchum, Site 0182","role":"CONTACT"}],"geoPoint":{"lat":-31.4135,"lon":-64.18105}},{"facility":"Calvary Mater Newcastle","status":"RECRUITING","city":"Waratah","state":"New South Wales","zip":"2298","country":"Australia","contacts":[{"name":"Wojciech Janowski, Site 0244","role":"CONTACT","phone":"+610249433122"}],"geoPoint":{"lat":-32.90667,"lon":151.72647}},{"facility":"Royal Adelaide Hospital","status":"RECRUITING","city":"Adelaide","state":"South Australia","zip":"5000","country":"Australia","contacts":[{"name":"Akash Kalro, Site 0088","role":"CONTACT","phone":"+0870743290"}],"geoPoint":{"lat":-34.92866,"lon":138.59863}},{"facility":"Box Hill Hospital","status":"RECRUITING","city":"Box Hill","state":"Victoria","zip":"3128","country":"Australia","contacts":[{"name":"Olga Motorna, Site 0220","role":"CONTACT","phone":"+61 3 9094 9516"}],"geoPoint":{"lat":-37.81887,"lon":145.12545}},{"facility":"Monash Health","status":"RECRUITING","city":"Clayton","state":"Victoria","zip":"3800","country":"Australia","contacts":[{"name":"Michael Low, Site 0078","role":"CONTACT","phone":"0412853153"}],"geoPoint":{"lat":-37.91667,"lon":145.11667}},{"facility":"Ordensklinikum Linz Elisabethinen","status":"RECRUITING","city":"Linz","zip":"4020","country":"Austria","contacts":[{"name":"Irene Strassl, Site 0058","role":"CONTACT","phone":"+004373276764411"}],"geoPoint":{"lat":48.30639,"lon":14.28611}},{"facility":"Universitätsklinikum St. Pölten","status":"RECRUITING","city":"St. Pölten","zip":"3100","country":"Austria","contacts":[{"name":"Petra Pichler, Site 0034","role":"CONTACT","phone":"+00432742900422181"}],"geoPoint":{"lat":48.2,"lon":15.63333}},{"facility":"Medizinische Universitaet Wien - Universitaetsklinik fuer Augenheilkunde und Optometrie","status":"RECRUITING","city":"Vienna","zip":"1090","country":"Austria","contacts":[{"name":"Maria-Theresa Krauth, Site 0056","role":"CONTACT","phone":"004314040044100"}],"geoPoint":{"lat":48.20849,"lon":16.37208}},{"facility":"Hanusch-Krankenhaus","status":"RECRUITING","city":"Vienna","zip":"1140","country":"Austria","contacts":[{"name":"Michael Fillitz, Site 0275","role":"CONTACT","phone":"+4319102185500"}],"geoPoint":{"lat":48.20849,"lon":16.37208}},{"facility":"Grand Hopital de Charleroi - Les Viviers","status":"RECRUITING","city":"Charleroi","state":"WHT","zip":"6060","country":"Belgium","contacts":[{"name":"Geraldine Verstraete, Site 0035","role":"CONTACT","phone":"003271104260"}],"geoPoint":{"lat":50.41136,"lon":4.44448}},{"facility":"AZ Groeninge - Campus Kennedylaan","status":"RECRUITING","city":"Kortrijk","zip":"8500","country":"Belgium","contacts":[{"name":"Koen Maes, Site 0048","role":"CONTACT","phone":"+32056234305"}],"geoPoint":{"lat":50.82803,"lon":3.26487}},{"facility":"Local Institution - 0245","status":"NOT_YET_RECRUITING","city":"Curitiba","state":"PR","zip":"80520-174","country":"Brazil","contacts":[{"name":"Site 0245","role":"CONTACT"}],"geoPoint":{"lat":-25.42778,"lon":-49.27306}},{"facility":"Local Institution - 0214","status":"NOT_YET_RECRUITING","city":"Niterói","state":"RJ","zip":"24020-096","country":"Brazil","contacts":[{"name":"Site 0214","role":"CONTACT"}],"geoPoint":{"lat":-22.88333,"lon":-43.10361}},{"facility":"Local Institution - 0082","status":"NOT_YET_RECRUITING","city":"Rio de Janeiro","state":"RJ","zip":"20230-130","country":"Brazil","contacts":[{"name":"Site 0082","role":"CONTACT"}],"geoPoint":{"lat":-22.90278,"lon":-43.2075}},{"facility":"Local Institution - 0081","status":"NOT_YET_RECRUITING","city":"Ribeirão Preto","state":"SP","zip":"14051-140","country":"Brazil","contacts":[{"name":"Site 0081","role":"CONTACT"}],"geoPoint":{"lat":-21.1775,"lon":-47.81028}},{"facility":"Local Institution - 0277","status":"NOT_YET_RECRUITING","city":"Sao Paulo","state":"SP","zip":"04537-080","country":"Brazil","contacts":[{"name":"Site 0277","role":"CONTACT"}],"geoPoint":{"lat":-23.5475,"lon":-46.63611}},{"facility":"Local Institution - 0194","status":"NOT_YET_RECRUITING","city":"São Paulo","state":"SP","zip":"05403-000","country":"Brazil","contacts":[{"name":"Site 0194","role":"CONTACT"}],"geoPoint":{"lat":-23.5475,"lon":-46.63611}},{"facility":"Local Institution - 0241","status":"NOT_YET_RECRUITING","city":"São Paulo","state":"SP","zip":"08270-070","country":"Brazil","contacts":[{"name":"Site 0241","role":"CONTACT"}],"geoPoint":{"lat":-23.5475,"lon":-46.63611}},{"facility":"Local Institution - 0190","status":"NOT_YET_RECRUITING","city":"Barretos","zip":"14784-400","country":"Brazil","contacts":[{"name":"Site 0190","role":"CONTACT"}],"geoPoint":{"lat":-20.55722,"lon":-48.56778}},{"facility":"Local Institution - 0083","status":"NOT_YET_RECRUITING","city":"Porto Alegre","zip":"90880-480","country":"Brazil","contacts":[{"name":"Site 0083","role":"CONTACT"}],"geoPoint":{"lat":-30.03306,"lon":-51.23}},{"facility":"Local Institution - 0096","status":"NOT_YET_RECRUITING","city":"Rio de Janeiro","zip":"21941-913","country":"Brazil","contacts":[{"name":"Site 0096","role":"CONTACT"}],"geoPoint":{"lat":-22.90278,"lon":-43.2075}},{"facility":"Local Institution - 0098","status":"NOT_YET_RECRUITING","city":"Salvador","zip":"40110-150","country":"Brazil","contacts":[{"name":"Site 0098","role":"CONTACT"}],"geoPoint":{"lat":-12.97111,"lon":-38.51083}},{"facility":"Cross Cancer Institute","status":"RECRUITING","city":"Edmonton","state":"Alberta","zip":"T6G 1Z2","country":"Canada","contacts":[{"name":"Irwindeep Sandhu, Site 0270","role":"CONTACT","phone":"7804071993"}],"geoPoint":{"lat":53.55014,"lon":-113.46871}},{"facility":"The Ottawa Hospital - General Campus","status":"RECRUITING","city":"Ottawa","state":"Ontario","zip":"K1H 8L6","country":"Canada","contacts":[{"name":"Arleigh McCurdy, Site 0208","role":"CONTACT","phone":"613-915-0411"}],"geoPoint":{"lat":45.41117,"lon":-75.69812}},{"facility":"Jewish General Hospital","status":"RECRUITING","city":"Montreal","state":"Quebec","zip":"H3T 1E2","country":"Canada","contacts":[{"name":"Rayan Kaedbey, Site 0307","role":"CONTACT","phone":"514-340-8222x28658"}],"geoPoint":{"lat":45.50884,"lon":-73.58781}},{"facility":"CHUQ - The Hôtel-Dieu de Québec","status":"RECRUITING","city":"Quebec","country":"Canada","contacts":[{"name":"Marc Lalancette, Site 0210","role":"CONTACT","phone":"4186915225"}],"geoPoint":{"lat":46.81228,"lon":-71.21454}},{"facility":"Fundación Arturo López Pérez","status":"RECRUITING","city":"Santiago","zip":"7500691","country":"Chile","contacts":[{"name":"Raimundo Gazitua Pepper, Site 0186","role":"CONTACT","phone":"+56984290128"}],"geoPoint":{"lat":-33.45694,"lon":-70.64827}},{"facility":"Local Institution - 0258","status":"ACTIVE_NOT_RECRUITING","city":"Temuco","zip":"4800827","country":"Chile","geoPoint":{"lat":-38.73965,"lon":-72.59842}},{"facility":"Clinica Alemana - Vitacura","status":"RECRUITING","city":"Vitacura","zip":"7650567","country":"Chile","contacts":[{"name":"Javiera Donoso, Site 0099","role":"CONTACT","phone":"56999402396"}],"geoPoint":{"lat":-33.39227,"lon":-70.58275}},{"facility":"Anhui Provincial Hospital","status":"RECRUITING","city":"Hefei","state":"AH","zip":"230001","country":"China","contacts":[{"name":"Yongsheng Han, Site 0196","role":"CONTACT"}],"geoPoint":{"lat":31.86389,"lon":117.28083}},{"facility":"Local Institution - 0326","status":"NOT_YET_RECRUITING","city":"Beijing","state":"Beijing","zip":"100038","country":"China","contacts":[{"name":"Site 0326","role":"CONTACT"}],"geoPoint":{"lat":39.9075,"lon":116.39723}},{"facility":"The Fifth Medical Center of People's Liberation Army General Hospital","status":"RECRUITING","city":"Beijing","state":"Beijing","zip":"100071","country":"China","contacts":[{"name":"Wenrong Huang, Site 0229","role":"CONTACT","phone":"+86 15010955827"}],"geoPoint":{"lat":39.9075,"lon":116.39723}},{"facility":"The First Affiliated Hospital of Chongqing Medical University","status":"RECRUITING","city":"Chongqing","state":"Chongqing","zip":"400016","country":"China","contacts":[{"name":"Hongbin Zhang, Site 0242","role":"CONTACT","phone":"13883110505"}],"geoPoint":{"lat":29.56278,"lon":106.55278}},{"facility":"Local Institution - 0321","status":"NOT_YET_RECRUITING","city":"Chongqing","state":"CQ","zip":"400030","country":"China","contacts":[{"name":"Site 0321","role":"CONTACT"}],"geoPoint":{"lat":29.56278,"lon":106.55278}},{"facility":"Guangdong Provincial People's Hospital","status":"RECRUITING","city":"Guangzhou Shi","state":"Guangdong","zip":"510080","country":"China","contacts":[{"name":"Xin Du, Site 0261","role":"CONTACT","phone":"8613826271560"}]},{"facility":"Nanfang Hospital of Southern Medical University","status":"RECRUITING","city":"Guangzhou","state":"Guangdong","zip":"510515","country":"China","contacts":[{"name":"Xiaolei Wei, Site 0304","role":"CONTACT","phone":"13826407312"}],"geoPoint":{"lat":23.11667,"lon":113.25}},{"facility":"Shenzhen Second People's Hospital","status":"RECRUITING","city":"Shenzhen","state":"Guangdong","zip":"518028","country":"China","contacts":[{"name":"Xin Du, Site 0256","role":"CONTACT","phone":"13602523722"}],"geoPoint":{"lat":22.54554,"lon":114.0683}},{"facility":"Henan Cancer Hospital","status":"RECRUITING","city":"Zhengzhou City","state":"Henan","zip":"450003","country":"China","contacts":[{"name":"Baijun Fang, Site 0246","role":"CONTACT","phone":"13526607830"}]},{"facility":"The Third Xiangya Hospital of Central South University","status":"RECRUITING","city":"Changsha","state":"Hunan","zip":"410013","country":"China","contacts":[{"name":"Xin Li, Site 0282","role":"CONTACT","phone":"8613808418932"}],"geoPoint":{"lat":28.19874,"lon":112.97087}},{"facility":"Xiangya Hospital, Central South University","status":"RECRUITING","city":"Changsha","state":"Hunan","zip":"410013","country":"China","contacts":[{"name":"yanjuan He, Site 0262","role":"CONTACT","phone":"15973130688"}],"geoPoint":{"lat":28.19874,"lon":112.97087}},{"facility":"Nanjing Drum Tower Hospital - The Comprehensive Cancer Center","status":"RECRUITING","city":"Nanjing","state":"Jiangsu","zip":"210008","country":"China","contacts":[{"name":"Bing Chen, Site 0266","role":"CONTACT","phone":"8613951806490"}],"geoPoint":{"lat":32.06167,"lon":118.77778}},{"facility":"The Affiliated Hospital of Xuzhou Medical University","status":"RECRUITING","city":"Xuzhou","state":"Jiangsu","zip":"221000","country":"China","contacts":[{"name":"Zhenyu Li, Site 0239","role":"CONTACT","phone":"+8615950688971"}],"geoPoint":{"lat":34.18045,"lon":117.15707}},{"facility":"The First Affiliated Hospital of Nanchang University - Donghu District","status":"RECRUITING","city":"Nanchang","state":"Jiangxi","zip":"330200","country":"China","contacts":[{"name":"Fei Li, Site 0263","role":"CONTACT"}],"geoPoint":{"lat":28.68396,"lon":115.85306}},{"facility":"The First Hospital of Jilin University","status":"RECRUITING","city":"Changchun","state":"Jilin","zip":"130021","country":"China","contacts":[{"name":"sujun gao, Site 0091","role":"CONTACT","phone":"+86 15843073208"}],"geoPoint":{"lat":43.88,"lon":125.32278}},{"facility":"Local Institution - 0094","status":"ACTIVE_NOT_RECRUITING","city":"Shenyang","state":"Liaoning","zip":"110022","country":"China","geoPoint":{"lat":41.79222,"lon":123.43278}},{"facility":"The First Affiliated Hospital of the Air Force Medical University","status":"RECRUITING","city":"Xi'an City","state":"Shaanxi","zip":"710032","country":"China","contacts":[{"name":"Guangxun Gao, Site 0265","role":"CONTACT","phone":"+8613991907320"}]},{"facility":"Local Institution - 0318","status":"NOT_YET_RECRUITING","city":"Xi'an","state":"Shaanxi","zip":"710061","country":"China","contacts":[{"name":"Site 0318","role":"CONTACT"}],"geoPoint":{"lat":34.25833,"lon":108.92861}},{"facility":"Qilu Hospital of Shandong University","status":"RECRUITING","city":"Jinan","state":"Shandong","zip":"250012","country":"China","contacts":[{"name":"Ming Hou, Site 0240","role":"CONTACT","phone":"8613791122627"}],"geoPoint":{"lat":36.66833,"lon":116.99722}},{"facility":"Local Institution - 0271","status":"NOT_YET_RECRUITING","city":"Shanghai","state":"Shanghai","zip":"200003","country":"China","contacts":[{"name":"Site 0271","role":"CONTACT"}],"geoPoint":{"lat":31.22222,"lon":121.45806}},{"facility":"Local Institution - 0319","status":"NOT_YET_RECRUITING","city":"Shanghai","state":"Shanghai","zip":"200434","country":"China","contacts":[{"name":"Site 0319","role":"CONTACT"}],"geoPoint":{"lat":31.22222,"lon":121.45806}},{"facility":"Tianjin Medical University Cancer Institute and Hospital","status":"RECRUITING","city":"Tianjin","state":"Tianjin","zip":"300060","country":"China","contacts":[{"name":"Yafei Wang, Site 0249","role":"CONTACT","phone":"+8602260177666"}],"geoPoint":{"lat":39.14222,"lon":117.17667}},{"facility":"The First Affiliated Hospital - Zhejiang University School of Medicine","status":"RECRUITING","city":"Hangzhou","state":"Zhejiang","zip":"310003","country":"China","contacts":[{"name":"Haitao Meng, Site 0243","role":"CONTACT","phone":"13989823604"}],"geoPoint":{"lat":30.29365,"lon":120.16142}},{"facility":"Local Institution - 0320","status":"NOT_YET_RECRUITING","city":"Ningbo","state":"Zhejiang","zip":"315010","country":"China","contacts":[{"name":"Site 0320","role":"CONTACT"}],"geoPoint":{"lat":29.87819,"lon":121.54945}},{"facility":"Beijing Chaoyang Hospital, Capital Medical University","status":"RECRUITING","city":"Beijing","zip":"100020","country":"China","contacts":[{"name":"Wen Gao, Site 0100","role":"CONTACT"}],"geoPoint":{"lat":39.9075,"lon":116.39723}},{"facility":"Peking University People's Hospital","status":"RECRUITING","city":"Beijing","zip":"100044","country":"China","contacts":[{"name":"Jin Lu, Site 0216","role":"CONTACT","phone":"861088314422"}],"geoPoint":{"lat":39.9075,"lon":116.39723}},{"facility":"The Second Xiangya Hospital of Central South University","status":"RECRUITING","city":"Changsha","zip":"400011","country":"China","contacts":[{"name":"hongling peng, Site 0234","role":"CONTACT","phone":"13975806137"}],"geoPoint":{"lat":28.19874,"lon":112.97087}},{"facility":"Fujian Medical University Union Hospital","status":"RECRUITING","city":"Fuzhou","zip":"350001","country":"China","contacts":[{"name":"Rong Zhan, Site 0273","role":"CONTACT","phone":"8613705080893"}],"geoPoint":{"lat":26.06139,"lon":119.30611}},{"facility":"Sun Yat-sen University Cancer Center","status":"RECRUITING","city":"Guangzhou","zip":"511363","country":"China","contacts":[{"name":"Zhongjun Xia, Site 0079","role":"CONTACT","phone":"8613602713223"}],"geoPoint":{"lat":23.11667,"lon":113.25}},{"facility":"Shandong Provincial Hospital","status":"RECRUITING","city":"Jinan","zip":"250021","country":"China","contacts":[{"name":"Xiangxiang Zhou, Site 0212","role":"CONTACT","phone":"8615866695595"}],"geoPoint":{"lat":36.66833,"lon":116.99722}},{"facility":"Jiangsu Province Hospital","status":"RECRUITING","city":"Nanjing","zip":"210029","country":"China","contacts":[{"name":"Lijuan Chen, Site 0231","role":"CONTACT","phone":"+8615850521836"}],"geoPoint":{"lat":32.06167,"lon":118.77778}},{"facility":"Qingdao Municipal Hospital","status":"RECRUITING","city":"Qingdao","zip":"266071","country":"China","contacts":[{"name":"Yuping Zhong, Site 0077","role":"CONTACT","phone":"+8613501098223"}],"geoPoint":{"lat":36.06488,"lon":120.38042}},{"facility":"Ruijin Hospital Affiliated to The Shanghai Jiao Tong University Medical School","status":"RECRUITING","city":"Shanghai","zip":"200025","country":"China","contacts":[{"name":"Jianqing Mi, Site 0223","role":"CONTACT"}],"geoPoint":{"lat":31.22222,"lon":121.45806}},{"facility":"The First Affiliated Hospital of Soochow University","status":"RECRUITING","city":"Suzhou Shi","zip":"215006","country":"China","contacts":[{"name":"Chengcheng Fu, Site 0305","role":"CONTACT"}]},{"facility":"Wenzhou Medical University - The First Affiliated Hospital","status":"RECRUITING","city":"Wenzhou Shi","zip":"325000","country":"China","contacts":[{"name":"Songfu Jiang, Site 0087","role":"CONTACT","phone":"+8615305770033"}]},{"facility":"Union Hospital, Tongji Medical College, Huazhong University of Science and Technology","status":"RECRUITING","city":"Wuhan Shi","zip":"430022","country":"China","contacts":[{"name":"Yu Hu, Site 0248","role":"CONTACT","phone":"027-85726685"}]},{"facility":"Tongji Hospital, Tongji Medical College of Huazhong University of Science and Technology","status":"RECRUITING","city":"Wuhan","zip":"430030","country":"China","contacts":[{"name":"Chunrui Li, Site 0084","role":"CONTACT","phone":"+8602783662680"}],"geoPoint":{"lat":30.58333,"lon":114.26667}},{"facility":"Local Institution - 0302","status":"NOT_YET_RECRUITING","city":"Monteria","state":"COR","zip":"230002","country":"Colombia","contacts":[{"name":"Site 0302","role":"CONTACT"}],"geoPoint":{"lat":8.74798,"lon":-75.88143}},{"facility":"Instituto Nacional de Cancerología - Bogota","status":"RECRUITING","city":"Bogota","zip":"110111","country":"Colombia","contacts":[{"name":"Juan Alejandro Ospina Idarraga, Site 0217","role":"CONTACT","phone":"+573104296085"}],"geoPoint":{"lat":4.60971,"lon":-74.08175}},{"facility":"Fundacion Centro de Tratamiento e Investigacion sobre Cancer Luis Carlos Sarmiento Angulo - CTIC","status":"RECRUITING","city":"Bogota","zip":"110131","country":"Colombia","contacts":[{"name":"Virginia Abello, Site 0211","role":"CONTACT","phone":"+57573153455399"}],"geoPoint":{"lat":4.60971,"lon":-74.08175}},{"facility":"Fundacion Oftalmologica de Santander - FOSCAL","status":"RECRUITING","city":"Floridablanca","zip":"681004","country":"Colombia","contacts":[{"name":"Claudia Sossa, Site 0101","role":"CONTACT","phone":"+05776399658"}],"geoPoint":{"lat":7.06222,"lon":-73.08644}},{"facility":"Hospital Pablo Tobon Uribe","status":"RECRUITING","city":"Medellin","zip":"050034","country":"Colombia","contacts":[{"name":"Kenny Galvez, Site 0179","role":"CONTACT","phone":"5731489056030000"}],"geoPoint":{"lat":6.25184,"lon":-75.56359}},{"facility":"Sociedad de Oncologia y Hematologia del Cesar S.A.S","status":"RECRUITING","city":"Valledupar","zip":"200001","country":"Colombia","contacts":[{"name":"Carmen Rosales Oliveros, Site 0093","role":"CONTACT","phone":"+573112620177"}],"geoPoint":{"lat":10.46314,"lon":-73.25322}},{"facility":"Fakultní Nemocnice Brno","status":"RECRUITING","city":"Brno","zip":"625 00","country":"Czechia","contacts":[{"name":"Ludek Pour, Site 0036","role":"CONTACT","phone":"+420532233551"}],"geoPoint":{"lat":49.19522,"lon":16.60796}},{"facility":"Fakultní Nemocnice Olomouc","status":"RECRUITING","city":"Olomouc","zip":"779 00","country":"Czechia","contacts":[{"name":"Tomas Pika, Site 0206","role":"CONTACT","phone":"+420588445351"}],"geoPoint":{"lat":49.59552,"lon":17.25175}},{"facility":"Všeobecná fakultní nemocnice v Praze","status":"RECRUITING","city":"Prague 2","zip":"128 08","country":"Czechia","contacts":[{"name":"Ivan Spicka, Site 0069","role":"CONTACT","phone":"420224966326"}],"geoPoint":{"lat":50.08804,"lon":14.42076}},{"facility":"Fakultní nemocnice Královské Vinohrady","status":"RECRUITING","city":"Prague","zip":"100 34","country":"Czechia","contacts":[{"name":"Petr Pavlicek, Site 0215","role":"CONTACT","phone":"+420267163188"}],"geoPoint":{"lat":50.08804,"lon":14.42076}},{"facility":"Odense Universitetshospital","status":"RECRUITING","city":"Odense","zip":"5000","country":"Denmark","contacts":[{"name":"Jakub Krejcik, Site 0028","role":"CONTACT","phone":"+4540337294"}],"geoPoint":{"lat":55.39594,"lon":10.38831}},{"facility":"Helsingin Yliopistollinen Sairaala (HUS) - Syopakeskus (Comprehensive Cancer Center)","status":"RECRUITING","city":"Helsinki","zip":"00290","country":"Finland","contacts":[{"name":"Sini Luoma, Site 0276","role":"CONTACT","phone":"+358504390325"}],"geoPoint":{"lat":60.16952,"lon":24.93545}},{"facility":"Kuopio University Hospital","status":"RECRUITING","city":"Kuopio","zip":"70211","country":"Finland","contacts":[{"name":"Anu Partanen, Site 0201","role":"CONTACT"}],"geoPoint":{"lat":62.89238,"lon":27.67703}},{"facility":"CHU Hôpital Sud","status":"RECRUITING","city":"Amiens Cedex 1","zip":"80000","country":"France","contacts":[{"name":"Lydia Montes, Site 0030","role":"CONTACT","phone":"+0322455914"}],"geoPoint":{"lat":49.9,"lon":2.3}},{"facility":"Institut d'Hématologie de Basse-Normandie (IHBN)","status":"RECRUITING","city":"Caen","zip":"14033","country":"France","contacts":[{"name":"Margaret Macro, Site 0055","role":"CONTACT","phone":"+33231272539 000000"}],"geoPoint":{"lat":49.18585,"lon":-0.35912}},{"facility":"CHU Hôpital Henri Mondor","status":"RECRUITING","city":"Creteil","zip":"94000","country":"France","contacts":[{"name":"Karim Belhadj, Site 0050","role":"CONTACT","phone":"+33149812163"}],"geoPoint":{"lat":48.78333,"lon":2.46667}},{"facility":"Centre Hospitalier Départemental Vendée - Hôpital de la Roche-sur-Yon","status":"RECRUITING","city":"La Roche Sur Yon","zip":"85000","country":"France","contacts":[{"name":"mourad Tiab, Site 0236","role":"CONTACT","phone":"02 51 44 61 73"}],"geoPoint":{"lat":46.66667,"lon":-1.43333}},{"facility":"Centre Hospitalier Régional Universitaire de Lille (CHRU) - Hôpital Claude Huriez","status":"RECRUITING","city":"Lille","zip":"59037","country":"France","contacts":[{"name":"Salomon Manier, Site 0054","role":"CONTACT","phone":"33320444292"}],"geoPoint":{"lat":50.63297,"lon":3.05858}},{"facility":"CHU Limoges - Hôpital Dupuytren","status":"RECRUITING","city":"Limoges","zip":"87042","country":"France","contacts":[{"name":"Murielle Roussel, Site 0221","role":"CONTACT","phone":"+33555056651"}],"geoPoint":{"lat":45.83153,"lon":1.25781}},{"facility":"Centre Hospitalier Universitaire de Nantes (CHU de Nantes) - Hotel-Dieu","status":"RECRUITING","city":"Nantes","zip":"44093","country":"France","contacts":[{"name":"Cyrille Touzeau, Site 0272","role":"CONTACT","phone":"33240083271"}],"geoPoint":{"lat":47.21725,"lon":-1.55336}},{"facility":"Hôpital Saint-Antoine","status":"RECRUITING","city":"Paris","zip":"75012","country":"France","contacts":[{"name":"Mohamad Mohty, Site 0219","role":"CONTACT","phone":"33149282620"}],"geoPoint":{"lat":48.85341,"lon":2.3488}},{"facility":"Hopital Pitie-Salpetriere","status":"RECRUITING","city":"Paris","zip":"75013","country":"France","contacts":[{"name":"Laurent Garderet, Site 0228","role":"CONTACT","phone":"+33148282624"}],"geoPoint":{"lat":48.85341,"lon":2.3488}},{"facility":"Institut Universitaire du Cancer de Toulouse - Oncopole","status":"RECRUITING","city":"Toulouse","zip":"31059","country":"France","contacts":[{"name":"Aurore Perrot, Site 0051","role":"CONTACT","phone":"0531156184"}],"geoPoint":{"lat":43.60426,"lon":1.44367}},{"facility":"Local Institution - 0314","status":"NOT_YET_RECRUITING","city":"Cottbus","state":"BB","zip":"03048","country":"Germany","contacts":[{"name":"Site 0314","role":"CONTACT"}],"geoPoint":{"lat":51.75769,"lon":14.32888}},{"facility":"Charite-Universitaetsmedizin Berlin - Campus Benjamin Franklin (CBF)","status":"RECRUITING","city":"Berlin","state":"BE","zip":"12203","country":"Germany","contacts":[{"name":"Jana Riederer, Site 0037","role":"CONTACT","phone":"0931 201 26762"}],"geoPoint":{"lat":52.52437,"lon":13.41053}},{"facility":"Universitätsklinikum Ulm","status":"RECRUITING","city":"Ulm","state":"BW","zip":"89081","country":"Germany","contacts":[{"name":"Miriam Kull, Site 0092","role":"CONTACT","phone":"073150045540"}],"geoPoint":{"lat":48.39841,"lon":9.99155}},{"facility":"Local Institution - 0324","status":"NOT_YET_RECRUITING","city":"Augsburg","state":"BY","zip":"86156","country":"Germany","contacts":[{"name":"Site 0324","role":"CONTACT"}],"geoPoint":{"lat":48.37154,"lon":10.89851}},{"facility":"Local Institution - 0312","status":"NOT_YET_RECRUITING","city":"Bayreuth","state":"BY","zip":"95445","country":"Germany","contacts":[{"name":"Site 0312","role":"CONTACT"}],"geoPoint":{"lat":49.94782,"lon":11.57893}},{"facility":"Universitaetsklinikum Erlangen - Medizinische Klinik 5","status":"RECRUITING","city":"Erlangen","state":"BY","zip":"91054","country":"Germany","contacts":[{"name":"Barbara Ferstl, Site 0298","role":"CONTACT","phone":"+49913108533409"}],"geoPoint":{"lat":49.59099,"lon":11.00783}},{"facility":"Local Institution - 0311","status":"NOT_YET_RECRUITING","city":"Muenchen","state":"BY","zip":"81377","country":"Germany","contacts":[{"name":"Site 0311","role":"CONTACT"}],"geoPoint":{"lat":51.60698,"lon":13.31243}},{"facility":"Local Institution - 0315","status":"NOT_YET_RECRUITING","city":"Hamburg","state":"HH","zip":"22763","country":"Germany","contacts":[{"name":"Site 0315","role":"CONTACT"}],"geoPoint":{"lat":53.57532,"lon":10.01534}},{"facility":"Local Institution - 0313","status":"WITHDRAWN","city":"Hildesheim","state":"NI","zip":"31134","country":"Germany","geoPoint":{"lat":52.15077,"lon":9.95112}},{"facility":"Local Institution - 0316","status":"NOT_YET_RECRUITING","city":"Chemnitz","state":"SN","zip":"09116","country":"Germany","contacts":[{"name":"Site 0316","role":"CONTACT"}],"geoPoint":{"lat":50.8357,"lon":12.92922}},{"facility":"Universitätsklinikum Freiburg","status":"RECRUITING","city":"Freiburg","zip":"79106","country":"Germany","contacts":[{"name":"Monika Engelhardt, Site 0045","role":"CONTACT","phone":"+4976127033180"}],"geoPoint":{"lat":47.9959,"lon":7.85222}},{"facility":"Local Institution - 0310","status":"NOT_YET_RECRUITING","city":"Gottingen","zip":"37075","country":"Germany","contacts":[{"name":"Site 0310","role":"CONTACT"}],"geoPoint":{"lat":51.53443,"lon":9.93228}},{"facility":"Universitätsklinikum Hamburg-Eppendorf (UKE)","status":"RECRUITING","city":"Hamburg","zip":"20246","country":"Germany","contacts":[{"name":"Katja Weisel, Site 0297","role":"CONTACT","phone":"4970712989200"}],"geoPoint":{"lat":53.57532,"lon":10.01534}},{"facility":"St. Barbara-Klinik Hamm-Heessen GmbH","status":"RECRUITING","city":"Hamm","zip":"59073","country":"Germany","contacts":[{"name":"Heinz Duerk, Site 0026","role":"CONTACT","phone":"4923816811535"}],"geoPoint":{"lat":51.68033,"lon":7.82089}},{"facility":"Universitätsklinikum Jena","status":"RECRUITING","city":"Jena","zip":"07747","country":"Germany","contacts":[{"name":"Olaposi Yomade, Site 0038","role":"CONTACT","phone":"+4936419324577"}],"geoPoint":{"lat":50.92878,"lon":11.5899}},{"facility":"Local Institution - 0323","status":"NOT_YET_RECRUITING","city":"Marburg","zip":"35033","country":"Germany","contacts":[{"name":"Site 0323","role":"CONTACT"}],"geoPoint":{"lat":50.80904,"lon":8.77069}},{"facility":"Universitätsklinikum Tübingen","status":"RECRUITING","city":"Tübingen","zip":"72076","country":"Germany","contacts":[{"name":"Britta Besemer, Site 0040","role":"CONTACT","phone":"4970712982711"}],"geoPoint":{"lat":48.52266,"lon":9.05222}},{"facility":"\"General Hospital of Thessaloniki \"\"G. Papanikolaou\"\"\"","status":"RECRUITING","city":"Thessaloniki","state":"B","zip":"570 10","country":"Greece","contacts":[{"name":"Ioanna Sakellari, Site 0209","role":"CONTACT"}],"geoPoint":{"lat":40.64361,"lon":22.93086}},{"facility":"University of Patras - Rio Regional University Hospital","status":"RECRUITING","city":"Rio","state":"G","zip":"265 04","country":"Greece","contacts":[{"name":"Alexandros Spyridonidis, Site 0097","role":"CONTACT","phone":"306977448977"}],"geoPoint":{"lat":38.29558,"lon":21.78504}},{"facility":"Evangelismos General Hospital of Athens","status":"RECRUITING","city":"Athina","state":"I","zip":"106 76","country":"Greece","contacts":[{"name":"Sosana Delimpasi, Site 0185","role":"CONTACT","phone":"+306977204193 000 00"}]},{"facility":"Alexandra General Hospital of Athens","status":"RECRUITING","city":"Athens","zip":"115 28","country":"Greece","contacts":[{"name":"Meletios Dimopoulos, Site 0233","role":"CONTACT","phone":"+302107488941"}],"geoPoint":{"lat":37.97945,"lon":23.71622}},{"facility":"University of Thessaly- General University Hospital of Larissa","status":"RECRUITING","city":"Larisa","zip":"411 10","country":"Greece","contacts":[{"name":"George Vasilopoulos, Site 0290","role":"CONTACT","phone":"+306949207498"}],"geoPoint":{"lat":39.63689,"lon":22.41761}},{"facility":"Theageneio Cancer Hospital of Thessaloniki","status":"RECRUITING","city":"Thessaloniki","zip":"546 39","country":"Greece","contacts":[{"name":"Eirini Katodritou, Site 0063","role":"CONTACT"}],"geoPoint":{"lat":40.64361,"lon":22.93086}},{"facility":"Queen Mary Hospital","status":"RECRUITING","city":"Hong Kong","state":"HK","zip":"999077","country":"Hong Kong","contacts":[{"name":"Yok Lam Kwong, Site 0250","role":"CONTACT","phone":"85222555859"}],"geoPoint":{"lat":22.27832,"lon":114.17469}},{"facility":"Debreceni Egyetem Klinikai Központ III. sz. Belgyógyászati Klinika","status":"RECRUITING","city":"Debrecen","state":"HB","zip":"4032","country":"Hungary","contacts":[{"name":"Arpad Illes, Site 0062","role":"CONTACT","phone":"+36309454801"}],"geoPoint":{"lat":47.53333,"lon":21.63333}},{"facility":"Postgraduate Institute of Medical Education & Research (PGIMER)","status":"RECRUITING","city":"Chandigarh","state":"CH","zip":"160012","country":"India","contacts":[{"name":"Pankaj Malhotra, Site 0128","role":"CONTACT","phone":"911722756680"}],"geoPoint":{"lat":30.73629,"lon":76.7884}},{"facility":"HCG Cancer Center - Kalinga Rao Road","status":"RECRUITING","city":"Bangalore","state":"Karnataka","zip":"560027","country":"India","contacts":[{"name":"Satheesh Thungappa, Site 0110","role":"CONTACT","phone":"+919242698750"}],"geoPoint":{"lat":12.97194,"lon":77.59369}},{"facility":"Aster Medcity","status":"RECRUITING","city":"Cochin","state":"KL","zip":"68202","country":"India","contacts":[{"name":"Deepak Charles, Site 0109","role":"CONTACT","phone":"+9447233902"}],"geoPoint":{"lat":9.93988,"lon":76.26022}},{"facility":"Dr. Bafnas Star Superspecaility Clinic and Hospital","status":"RECRUITING","city":"Kolhapur","state":"MH","zip":"416005","country":"India","contacts":[{"name":"Varun Bafna, Site 0200","role":"CONTACT","phone":"9075971726"}],"geoPoint":{"lat":16.69563,"lon":74.23167}},{"facility":"Alexis Multispeciality Hospital","status":"RECRUITING","city":"Nagpur","state":"MH","zip":"440030","country":"India","contacts":[{"name":"Amol Shank Dongre, Site 0152","role":"CONTACT","phone":"+9823311569"}],"geoPoint":{"lat":21.14631,"lon":79.08491}},{"facility":"Deenanath Mangeshkar Hospital & Research Center","status":"RECRUITING","city":"Pune","state":"MH","zip":"411 004","country":"India","contacts":[{"name":"Sameer Melinkeri, Site 0123","role":"CONTACT","phone":"9766249644"}],"geoPoint":{"lat":18.51957,"lon":73.85535}},{"facility":"Sahyadri Speciality Hospital Deccan Gymkhana","status":"RECRUITING","city":"Pune","state":"MH","zip":"411004","country":"India","contacts":[{"name":"Shashikant Apte, Site 0142","role":"CONTACT","phone":"+919822404983"}],"geoPoint":{"lat":18.51957,"lon":73.85535}},{"facility":"Sparsh Hospitals & Critical Care","status":"RECRUITING","city":"Bhubaneswar","state":"Odisha","zip":"751007","country":"India","contacts":[{"name":"Ghanashyam Biswas, Site 0124","role":"CONTACT","phone":"+919937500878"}],"geoPoint":{"lat":20.27241,"lon":85.83385}},{"facility":"Tata Medical Center","status":"RECRUITING","city":"Kolkata","state":"WB","zip":"700 020","country":"India","contacts":[{"name":"Jeevan Kumar, Site 0125","role":"CONTACT","phone":"+91-9007016755"}],"geoPoint":{"lat":22.56263,"lon":88.36304}},{"facility":"Local Institution - 0135","status":"NOT_YET_RECRUITING","city":"Navi Mumbai","zip":"410 210","country":"India","contacts":[{"name":"Site 0135","role":"CONTACT"}],"geoPoint":{"lat":19.03681,"lon":73.01582}},{"facility":"Assuta Medical Center","status":"RECRUITING","city":"Ashdod","zip":"7747629","country":"Israel","contacts":[{"name":"Merav Leiba, Site 0057","role":"CONTACT","phone":"972-586669161"}],"geoPoint":{"lat":31.79211,"lon":34.64967}},{"facility":"Assaf Harofeh Medical Center","status":"RECRUITING","city":"Beer Ya'Aqov","zip":"70300","country":"Israel","contacts":[{"name":"Katrin Herzog-Tzarfati, Site 0137","role":"CONTACT","phone":"+97289779768"}],"geoPoint":{"lat":31.93864,"lon":34.83749}},{"facility":"Hillel Yaffe Medical Center","status":"RECRUITING","city":"Hadera","zip":"38100","country":"Israel","contacts":[{"name":"Orit Sofer, Site 0027","role":"CONTACT","phone":"+972506246776"}],"geoPoint":{"lat":32.44192,"lon":34.9039}},{"facility":"Rambam Medical Center","status":"RECRUITING","city":"Haifa","zip":"3109601","country":"Israel","contacts":[{"name":"Noa Lavi, Site 0047","role":"CONTACT","phone":"97248542541"}],"geoPoint":{"lat":32.81841,"lon":34.9885}},{"facility":"Shaare Zedek Medical Center","status":"RECRUITING","city":"Jerusalem","zip":"91031","country":"Israel","contacts":[{"name":"Chezi Ganzel, Site 0075","role":"CONTACT","phone":"+972533342046"}],"geoPoint":{"lat":31.76904,"lon":35.21633}},{"facility":"Hadassah University Medical Center","status":"RECRUITING","city":"Jerusalem","zip":"9112001","country":"Israel","contacts":[{"name":"Moshe Gatt, Site 0060","role":"CONTACT","phone":"97226779268"}],"geoPoint":{"lat":31.76904,"lon":35.21633}},{"facility":"Rabin Medical Center - Davidoff Center","status":"RECRUITING","city":"Petah Tikva","zip":"49100","country":"Israel","contacts":[{"name":"Iuliana Vaxman, Site 0108","role":"CONTACT","phone":"972547994003"}],"geoPoint":{"lat":32.08707,"lon":34.88747}},{"facility":"The Chaim Sheba Medical Center","status":"RECRUITING","city":"Ramat Gan","zip":"52621","country":"Israel","contacts":[{"name":"Hila Magen-Nativ, Site 0131","role":"CONTACT","phone":"+97235302342"}],"geoPoint":{"lat":32.08227,"lon":34.81065}},{"facility":"Local Institution - 0136","status":"WITHDRAWN","city":"Tel Aviv-Yafo","zip":"64239","country":"Israel","geoPoint":{"lat":32.08088,"lon":34.78057}},{"facility":"Azienda Ospedaliero Universitaria Policlinico G. Rodolico San Marco - Ospedale San Marco","status":"RECRUITING","city":"Catania","state":"CT","zip":"95123","country":"Italy","contacts":[{"name":"Francesco Di Raimondo, Site 0053","role":"CONTACT","phone":"+0390957436261"}],"geoPoint":{"lat":37.49223,"lon":15.07041}},{"facility":"Azienda Ospedaliero-Universitaria Careggi","status":"RECRUITING","city":"Firenze","state":"FI","zip":"50134","country":"Italy","contacts":[{"name":"Elisabetta Antonioli, Site 0306","role":"CONTACT","phone":"+39055794111"}],"geoPoint":{"lat":43.77925,"lon":11.24626}},{"facility":"Ospedale Policlinico San Martino","status":"RECRUITING","city":"Genova","state":"GE","zip":"16132","country":"Italy","contacts":[{"name":"Michele Cea, Site 0115","role":"CONTACT"}],"geoPoint":{"lat":44.40478,"lon":8.94438}},{"facility":"Fondazione IRCCS Cà Granda Ospedale Maggiore Policlinico","status":"RECRUITING","city":"Milano","state":"MI","zip":"20122","country":"Italy","contacts":[{"name":"Loredana Pettine, Site 0188","role":"CONTACT","phone":"+390255033477"}],"geoPoint":{"lat":45.46427,"lon":9.18951}},{"facility":"ASST Grande Ospedale Metropolitano Niguarda","status":"RECRUITING","city":"Milano","state":"MI","zip":"20162","country":"Italy","contacts":[{"name":"Anna Cafro, Site 0071","role":"CONTACT","phone":"+0264442668"}],"geoPoint":{"lat":45.46427,"lon":9.18951}},{"facility":"Azienda Ospedaliero Universitaria Pisana - Ospedale Santa Chiara","status":"RECRUITING","city":"Pisa","state":"PI","zip":"56127","country":"Italy","contacts":[{"name":"Gabriele Buda, Site 0139","role":"CONTACT","phone":"050993025"}],"geoPoint":{"lat":43.70853,"lon":10.4036}},{"facility":"Fondazione Policlinico Universitario Agostino Gemelli","status":"RECRUITING","city":"Roma","state":"RM","zip":"00168","country":"Italy","contacts":[{"name":"valerio de stefano, Site 0046","role":"CONTACT","phone":"+39 0630154206"}],"geoPoint":{"lat":41.89193,"lon":12.51133}},{"facility":"Azienda Ospedaliera Universitaria Citta della Salute e della Scienza di Torino - Ospedale Molinette","status":"RECRUITING","city":"Torino","state":"TO","zip":"10126","country":"Italy","contacts":[{"name":"Francesca Maria Gay, Site 0140","role":"CONTACT","phone":"+390116334279"}],"geoPoint":{"lat":45.07049,"lon":7.68682}},{"facility":"\"Azienda Ospedaliera Universitaria \"\"Federico II\"\"\"","status":"RECRUITING","city":"Naples","zip":"80131","country":"Italy","contacts":[{"name":"Fabrizio Pane, Site 0074","role":"CONTACT","phone":"+390817462037"}],"geoPoint":{"lat":40.85216,"lon":14.26811}},{"facility":"Fondazione IRCCS Policlinico San Matteo","status":"RECRUITING","city":"Pavia","zip":"27100","country":"Italy","contacts":[{"name":"Silvia Mangiacavalli, Site 0278","role":"CONTACT","phone":"+003903822501308"}],"geoPoint":{"lat":45.19205,"lon":9.15917}},{"facility":"Policlinico Umberto I","status":"RECRUITING","city":"Rome","zip":"00161","country":"Italy","contacts":[{"name":"Maurizio Martelli, Site 0065","role":"CONTACT","phone":"3906857951"}],"geoPoint":{"lat":41.89193,"lon":12.51133}},{"facility":"National Hospital Organization (NHO) - Shibukawa Medical Center","status":"RECRUITING","city":"Shibukawa-shi","state":"Gunma","zip":"3770280","country":"Japan","contacts":[{"name":"Akio Saito, Site 0106","role":"CONTACT","phone":"+81279231010"}],"geoPoint":{"lat":36.48333,"lon":139.0}},{"facility":"Shonan Kamakura General Hospital","status":"RECRUITING","city":"Kamakura-Shi","state":"Kanagawa","zip":"2478533","country":"Japan","contacts":[{"name":"Tomiteru Togano, Site 0197","role":"CONTACT","phone":"+81-467-46-1717"}],"geoPoint":{"lat":35.30889,"lon":139.55028}},{"facility":"Kumamoto University Hospital","status":"RECRUITING","city":"Kumamoto-shi","state":"Kumamoto","zip":"860-8556","country":"Japan","contacts":[{"name":"Yawara Kawano, Site 0198","role":"CONTACT","phone":"+81-96-373-5156"}],"geoPoint":{"lat":32.80589,"lon":130.69182}},{"facility":"Chiba University Hospital","status":"RECRUITING","city":"Chiba-shi","zip":"260-8677","country":"Japan","contacts":[{"name":"Emiko Sakaida, Site 0141","role":"CONTACT","phone":"+81432227171"}],"geoPoint":{"lat":35.6,"lon":140.11667}},{"facility":"Gifu Municipal Hospital","status":"RECRUITING","city":"Gifu-Shi","zip":"500-8513","country":"Japan","contacts":[{"name":"Senji Kasahara, Site 0118","role":"CONTACT","phone":"+0582511101"}],"geoPoint":{"lat":35.42291,"lon":136.76039}},{"facility":"Local Institution - 0133","status":"NOT_YET_RECRUITING","city":"Higashiibaraki-Gun","zip":"311-3193","country":"Japan","contacts":[{"name":"Site 0133","role":"CONTACT"}]},{"facility":"Hiroshima Red Cross Hospital & Atomic-Bomb Survivors Hospital","status":"RECRUITING","city":"Hiroshima-shi","zip":"730-8619","country":"Japan","contacts":[{"name":"Mitsuhiro Itagaki, Site 0112","role":"CONTACT","phone":"+81-82-241-3111"}],"geoPoint":{"lat":34.4,"lon":132.45}},{"facility":"Tokai University Hospital IRB","status":"RECRUITING","city":"Isehara-shi","zip":"259-1193","country":"Japan","contacts":[{"name":"Yoshiaki Ogawa, Site 0199","role":"CONTACT"}],"geoPoint":{"lat":35.39932,"lon":139.31019}},{"facility":"Kagoshima University Hospital","status":"RECRUITING","city":"Kagoshima-Shi","zip":"890-8520","country":"Japan","contacts":[{"name":"Kenji Ishitsuka, Site 0111","role":"CONTACT","phone":"+81992755945"}],"geoPoint":{"lat":31.56667,"lon":130.55}},{"facility":"Kanazawa University Hospital","status":"RECRUITING","city":"Kanazawa-shi","zip":"920-8641","country":"Japan","contacts":[{"name":"Takeshi Yoroidaka, Site 0144","role":"CONTACT","phone":"0762652000"}],"geoPoint":{"lat":36.6,"lon":136.61667}},{"facility":"Local Institution - 0134","status":"NOT_YET_RECRUITING","city":"Kobe-Shi","zip":"650-0047","country":"Japan","contacts":[{"name":"Site 0134","role":"CONTACT"}],"geoPoint":{"lat":34.6913,"lon":135.183}},{"facility":"The Cancer Institute Hospital of Japanese Foundation for Cancer Research (JFCR)","status":"RECRUITING","city":"Koto-Ku","zip":"135-8550","country":"Japan","contacts":[{"name":"Dai Maruyama, Site 0122","role":"CONTACT","phone":"+81-3-3520-0111"}],"geoPoint":{"lat":35.66667,"lon":139.81718}},{"facility":"Gunma University Hospital","status":"RECRUITING","city":"Maebashi-Shi","zip":"371-8511","country":"Japan","contacts":[{"name":"Hiroshi Handa, Site 0121","role":"CONTACT","phone":"+81272208741"}],"geoPoint":{"lat":36.4,"lon":139.08333}},{"facility":"The Jikei University Hospital","status":"RECRUITING","city":"Minato-Ku","zip":"105-8471","country":"Japan","contacts":[{"name":"Shingo Yano, Site 0150","role":"CONTACT","phone":"81-3-3433-1111"}],"geoPoint":{"lat":34.2152,"lon":135.1501}},{"facility":"The Japanese Red Cross Nagasaki Genbaku Hospital","status":"RECRUITING","city":"Nagasaki-Shi","zip":"852-8511","country":"Japan","contacts":[{"name":"Jun Taguchi, Site 0104","role":"CONTACT","phone":"+81-95-847-1511"}],"geoPoint":{"lat":32.75,"lon":129.88333}},{"facility":"Nagoya City University Hospital","status":"RECRUITING","city":"Nagoya-Shi","zip":"467-8602","country":"Japan","contacts":[{"name":"Shinsuke Iida, Site 0143","role":"CONTACT","phone":"81528515511"}],"geoPoint":{"lat":35.18147,"lon":136.90641}},{"facility":"Kindai University Hospital","status":"RECRUITING","city":"Osakasayama-Shi","zip":"589-8511","country":"Japan","contacts":[{"name":"Hirokazu Tanaka, Site 0268","role":"CONTACT","phone":"81723660221"}],"geoPoint":{"lat":34.69374,"lon":135.50218}},{"facility":"Jichi Medical University Saitama Medical Center","status":"RECRUITING","city":"Saitama-shi","zip":"330-8503","country":"Japan","contacts":[{"name":"Nozomu Yoshino, Site 0148","role":"CONTACT","phone":"+81285587353"}],"geoPoint":{"lat":35.90807,"lon":139.65657}},{"facility":"Sapporo Hokuyu Hospital","status":"RECRUITING","city":"Sapporo-shi","zip":"003-0006","country":"Japan","contacts":[{"name":"Shuichi Ota, Site 0105","role":"CONTACT"}],"geoPoint":{"lat":43.06667,"lon":141.35}},{"facility":"National Hospital Organization Sendai Medical Center","status":"RECRUITING","city":"Sendai-shi","zip":"983-8520","country":"Japan","contacts":[{"name":"Tohru Izumi, Site 0132","role":"CONTACT","phone":"+810222931111"}],"geoPoint":{"lat":38.26667,"lon":140.86667}},{"facility":"Japanese Red Cross Medical Center","status":"RECRUITING","city":"Shibuya-ku","zip":"150-8935","country":"Japan","contacts":[{"name":"Tadao Ishida, Site 0116","role":"CONTACT","phone":"8133400104"}],"geoPoint":{"lat":35.469,"lon":140.29807}},{"facility":"Shizuoka Cancer Center","status":"RECRUITING","city":"Sunto-gun","zip":"411-8777","country":"Japan","contacts":[{"name":"Takashi Ikeda, Site 0130","role":"CONTACT","phone":"055-989-5222"}]},{"facility":"Pusan National University Hospital","status":"RECRUITING","city":"Busan","zip":"49241","country":"Korea, Republic of","contacts":[{"name":"Ho-Jin Shin, Site 0145","role":"CONTACT","phone":"821089371258"}],"geoPoint":{"lat":35.10278,"lon":129.04028}},{"facility":"National Cancer Center","status":"RECRUITING","city":"Goyang-si","zip":"410-769","country":"Korea, Republic of","contacts":[{"name":"Hyeon-Seok Eom, Site 0113","role":"CONTACT","phone":"+82319201505"}],"geoPoint":{"lat":37.65639,"lon":126.835}},{"facility":"Seoul National University Bundang Hospital","status":"RECRUITING","city":"Seongnam-si, Gyeonggi-do","zip":"13620","country":"Korea, Republic of","contacts":[{"name":"Ji Yun Lee, Site 0293","role":"CONTACT","phone":"+82234103459"}]},{"facility":"Yonsei University Health System, Severance Hospital","status":"RECRUITING","city":"Seoul","zip":"03722","country":"Korea, Republic of","contacts":[{"name":"JinSeok Kim, Site 0295","role":"CONTACT","phone":"+82222281972"}],"geoPoint":{"lat":37.566,"lon":126.9784}},{"facility":"Samsung Medical Center","status":"RECRUITING","city":"Seoul","zip":"06351","country":"Korea, Republic of","contacts":[{"name":"Kihyun Kim, Site 0114","role":"CONTACT","phone":"+821099333456"}],"geoPoint":{"lat":37.566,"lon":126.9784}},{"facility":"Ulsan University Hospital (UUH)","status":"RECRUITING","city":"Ulsan","zip":"44033","country":"Korea, Republic of","contacts":[{"name":"Jae-Cheol Jo, Site 0225","role":"CONTACT","phone":"82522508632"}],"geoPoint":{"lat":35.53722,"lon":129.31667}},{"facility":"Local Institution - 0127","status":"WITHDRAWN","city":"Mexico","state":"CMX","zip":"14080","country":"Mexico","geoPoint":{"lat":19.42847,"lon":-99.12766}},{"facility":"Local Institution - 0146","status":"NOT_YET_RECRUITING","city":"Toluca De Lerdo","state":"MEX","zip":"50090","country":"Mexico","contacts":[{"name":"Site 0146","role":"CONTACT"}],"geoPoint":{"lat":19.28786,"lon":-99.65324}},{"facility":"Local Institution - 0283","status":"NOT_YET_RECRUITING","city":"Monterrey","state":"NL","zip":"64460","country":"Mexico","contacts":[{"name":"Site 0283","role":"CONTACT"}],"geoPoint":{"lat":25.67507,"lon":-100.31847}},{"facility":"Local Institution - 0107","status":"NOT_YET_RECRUITING","city":"Mexico city","zip":"04100","country":"Mexico","contacts":[{"name":"Site 0107","role":"CONTACT"}],"geoPoint":{"lat":19.42847,"lon":-99.12766}},{"facility":"VU University Medical Center","status":"RECRUITING","city":"Amsterdam","state":"NH","zip":"1081 HV","country":"Netherlands","contacts":[{"name":"Niels Van de Donk, Site 0129","role":"CONTACT","phone":"+310204444444"}],"geoPoint":{"lat":52.37403,"lon":4.88969}},{"facility":"Local Institution - 0325","status":"ACTIVE_NOT_RECRUITING","city":"Almere","zip":"1315 RA","country":"Netherlands","geoPoint":{"lat":52.37535,"lon":5.25295}},{"facility":"Albert Schweitzer Hospital - Locatie Dordwijk","status":"RECRUITING","city":"Dordrecht","zip":"3300 AK","country":"Netherlands","contacts":[{"name":"Mark-David Levin, Site 0070","role":"CONTACT","phone":"0031 0786523377"}],"geoPoint":{"lat":51.81,"lon":4.67361}},{"facility":"Szpital Uniwersytecki Nr. 2 im Dr. Jana Biziela w Bydgoszczy","status":"RECRUITING","city":"Bydgoszcz","state":"KP","zip":"85-168","country":"Poland","contacts":[{"name":"Jaroslaw Czyz, Site 0149","role":"CONTACT","phone":"508508810"}],"geoPoint":{"lat":53.1235,"lon":18.00762}},{"facility":"Wojewódzkie Wielospecjalistyczne Centrum Onkologii i Traumatologii im. M. Kopernika w Łodzi","status":"RECRUITING","city":"Lodz","state":"LD","zip":"93-510","country":"Poland","contacts":[{"name":"Agnieszka Wierzbowska, Site 0059","role":"CONTACT","phone":"+426895407"}],"geoPoint":{"lat":51.75,"lon":19.46667}},{"facility":"Uniwersyteckie Centrum Kliniczne","status":"RECRUITING","city":"Gdansk","state":"PM","zip":"80-211","country":"Poland","contacts":[{"name":"Agata Tyczynska, Site 0195","role":"CONTACT","phone":"501348850"}],"geoPoint":{"lat":54.35205,"lon":18.64637}},{"facility":"Local Institution - 0327","status":"NOT_YET_RECRUITING","city":"Bydgoszcz","zip":"85-048","country":"Poland","contacts":[{"name":"Site 0327","role":"CONTACT"}],"geoPoint":{"lat":53.1235,"lon":18.00762}},{"facility":"Maria Sklodowska-Curie Memorial Cancer Center and Institute of Oncology Gliwice Branch","status":"RECRUITING","city":"Gliwice","zip":"44-102","country":"Poland","contacts":[{"name":"Sebastian Giebel, Site 0252","role":"CONTACT","phone":"48322788523"}],"geoPoint":{"lat":50.29761,"lon":18.67658}},{"facility":"Pratia Onkologia Katowice","status":"RECRUITING","city":"Katowice","zip":"40-519","country":"Poland","contacts":[{"name":"Sebastian Grosicki, Site 0039","role":"CONTACT","phone":"+48600388282"}],"geoPoint":{"lat":50.25841,"lon":19.02754}},{"facility":"Office of Dr n. Med. Wojciech Legiec","status":"RECRUITING","city":"Lublin","zip":"20-134","country":"Poland","contacts":[{"name":"Wojciech Legiec, Site 0044","role":"CONTACT","phone":"48502074194"}],"geoPoint":{"lat":51.25,"lon":22.56667}},{"facility":"Narodowy Instytut Onkologii im. Marii Sklodowskiej-Curie - Panstwowy Instytut Badawczy","status":"RECRUITING","city":"Warsaw","zip":"02-781","country":"Poland","contacts":[{"name":"Joanna Romejko-Jarosinska, Site 0119","role":"CONTACT","phone":"48225462448"}],"geoPoint":{"lat":52.22977,"lon":21.01178}},{"facility":"Unidade Local de Saude Braga","status":"RECRUITING","city":"Braga","zip":"4710-243","country":"Portugal","contacts":[{"name":"Herlander Marques, Site 0023","role":"CONTACT","phone":"+00351253027249"}],"geoPoint":{"lat":41.55032,"lon":-8.42005}},{"facility":"Unidade Local de Saude de Coimbra, EPE - Hospitais da Universidade de Coimbra","status":"RECRUITING","city":"Coimbra","zip":"3000-075","country":"Portugal","contacts":[{"name":"Catarina Isabel Batista Geraldes dos Santos, Site 0151","role":"CONTACT","phone":"+351239400430"}],"geoPoint":{"lat":40.20564,"lon":-8.41955}},{"facility":"Instituto Português Oncologia do Porto Francisco Gentil, EPE","status":"RECRUITING","city":"Porto","zip":"4200-072","country":"Portugal","contacts":[{"name":"Catarina Campos Costa Moreira, Site 0126","role":"CONTACT","phone":"+3512250840007110"}],"geoPoint":{"lat":41.14961,"lon":-8.61099}},{"facility":"Institutul Clinic Fundeni","status":"RECRUITING","city":"Bucureşti","state":"B","zip":"022328","country":"Romania","contacts":[{"name":"Sorina Badelita, Site 0117","role":"CONTACT","phone":"40724238956"}],"geoPoint":{"lat":44.42802,"lon":26.09665}},{"facility":"Spitalul Clinic Municipal Filantropia Craiova","status":"RECRUITING","city":"Craiova","state":"Dolj","zip":"200143","country":"Romania","contacts":[{"name":"Luminita Ocroteala, Site 0043","role":"CONTACT","phone":"0040735439439"}],"geoPoint":{"lat":44.31667,"lon":23.8}},{"facility":"Institutul Regional de Oncologie Iași","status":"RECRUITING","city":"Iasi","state":"IS","zip":"700483","country":"Romania","contacts":[{"name":"Catalin-Doru Danaila, Site 0224","role":"CONTACT","phone":"+400722565781"}],"geoPoint":{"lat":47.16667,"lon":27.6}},{"facility":"\"Institutul Oncologic \"\"Prof. Dr. Ion Chiricuţă\"\" Cluj Napoca\"","status":"RECRUITING","city":"Cluj-Napoca","state":"Jud. Cluj","zip":"400015","country":"Romania","contacts":[{"name":"ANCA VASILACHE, Site 0064","role":"CONTACT","phone":"0040745522984"}],"geoPoint":{"lat":46.76667,"lon":23.6}},{"facility":"\"Institutul Oncologic \"\"Prof. Dr. Ion Chiricuţă\"\" Cluj Napoca\"","status":"RECRUITING","city":"Cluj-Napoca","zip":"400015","country":"Romania","contacts":[{"name":"Ioana Rus, Site 0072","role":"CONTACT","phone":"0040741416198"}],"geoPoint":{"lat":46.76667,"lon":23.6}},{"facility":"National University Hospital (S) Pte Ltd","status":"RECRUITING","city":"Singapore","zip":"119074","country":"Singapore","contacts":[{"name":"Wee Joo Chng, Site 0138","role":"CONTACT","phone":"6567724612"}],"geoPoint":{"lat":1.28967,"lon":103.85007}},{"facility":"Singapore General Hospital","status":"RECRUITING","city":"Singapore","zip":"169608","country":"Singapore","contacts":[{"name":"Yunxin Chen, Site 0187","role":"CONTACT","phone":"63214925"}],"geoPoint":{"lat":1.28967,"lon":103.85007}},{"facility":"Hospital Universitario Central de Asturias","status":"RECRUITING","city":"Oviedo","state":"Asturias","zip":"33011","country":"Spain","contacts":[{"name":"Angel Ramirez Payer, Site 0166","role":"CONTACT"}],"geoPoint":{"lat":43.36029,"lon":-5.84476}},{"facility":"Hospital Clínic de Barcelona","status":"RECRUITING","city":"Barcelona","state":"B","zip":"08036","country":"Spain","contacts":[{"name":"Laura Rosinol, Site 0226","role":"CONTACT","phone":"+34932275428"}],"geoPoint":{"lat":41.38879,"lon":2.15899}},{"facility":"Hospital San Pedro de Alcántara","status":"RECRUITING","city":"Cáceres","state":"CC","zip":"10003","country":"Spain","contacts":[{"name":"Sara Caceres Hernandez, Site 0169","role":"CONTACT","phone":"+34648009294"}],"geoPoint":{"lat":39.47649,"lon":-6.37224}},{"facility":"Hospital Universitario de Gran Canaria Doctor Negrín","status":"RECRUITING","city":"Las Palmas de Gran Canaria","state":"Las Palmas","zip":"35019","country":"Spain","contacts":[{"name":"Alexia Teresa Suarez Cabrera, Site 0172","role":"CONTACT"}],"geoPoint":{"lat":28.09973,"lon":-15.41343}},{"facility":"Hospital Universitario Virgen Arrixaca","status":"RECRUITING","city":"Murcia","state":"MU","zip":"30120","country":"Spain","contacts":[{"name":"Valentin Cabanas-Perianes, Site 0155","role":"CONTACT","phone":"+0034608785428"}],"geoPoint":{"lat":37.98704,"lon":-1.13004}},{"facility":"Hospital Universitari i Politècnic La Fe","status":"RECRUITING","city":"Valencia","state":"VC","zip":"46026","country":"Spain","contacts":[{"name":"Javier DE LA RUBIA COMOS, Site 0174","role":"CONTACT","phone":"+34661028232"}],"geoPoint":{"lat":39.46975,"lon":-0.37739}},{"facility":"Hospital Universitari Germans Trias i Pujol","status":"RECRUITING","city":"Badalona","zip":"08916","country":"Spain","contacts":[{"name":"Albert Oriol-Rocafiguera, Site 0232","role":"CONTACT"}],"geoPoint":{"lat":41.45004,"lon":2.24741}},{"facility":"Clínica Universidad de Navarra -Madrid","status":"RECRUITING","city":"Madrid","zip":"28022","country":"Spain","contacts":[{"name":"Paula Rodriguez Otero, Site 0317","role":"CONTACT","phone":"+0034948254000 0 000"}],"geoPoint":{"lat":40.4165,"lon":-3.70256}},{"facility":"Hospital Universitari Son Espases","status":"RECRUITING","city":"Palma de Mallorca","zip":"07120","country":"Spain","contacts":[{"name":"Antonia Sampol Mayol, Site 0164","role":"CONTACT","phone":"34871206268"}],"geoPoint":{"lat":39.56939,"lon":2.65024}},{"facility":"Clínica Universidad de Navarra","status":"RECRUITING","city":"Pamplona","zip":"31008","country":"Spain","contacts":[{"name":"Paula Rodriguez, Site 0163","role":"CONTACT","phone":"+0034948255400"}],"geoPoint":{"lat":42.81687,"lon":-1.64323}},{"facility":"Local Institution - 0171","status":"WITHDRAWN","city":"Luleå","state":"BD","zip":"971 80","country":"Sweden","geoPoint":{"lat":65.58415,"lon":22.15465}},{"facility":"Södra Älvsborgs Sjukhus","status":"RECRUITING","city":"Borås","zip":"501 82","country":"Sweden","contacts":[{"name":"Ulf-Henrik Mellqvist, Site 0230","role":"CONTACT","phone":"+46336161034"}],"geoPoint":{"lat":57.72101,"lon":12.9401}},{"facility":"Vastra Goetalandsregionen - Uddevalla Sjukhus (US)","status":"RECRUITING","city":"Uddevalla","zip":"451 51","country":"Sweden","contacts":[{"name":"Dorota Knut-Bojanowska, Site 0291","role":"CONTACT","phone":"+46104354701"}],"geoPoint":{"lat":58.34784,"lon":11.9424}},{"facility":"Local Institution - 0168","status":"WITHDRAWN","city":"Aarau 1","zip":"5001","country":"Switzerland","geoPoint":{"lat":47.39254,"lon":8.04422}},{"facility":"Chang Gung Medical Foundation - Kaohsiung Branch","status":"RECRUITING","city":"Kao-Hsiung","zip":"83301","country":"Taiwan","contacts":[{"name":"Ming-Chun Ma, Site 0153","role":"CONTACT","phone":"+886773171233267"}]},{"facility":"E-DA Cancer Hospital","status":"RECRUITING","city":"Kaohsiung","zip":"82445","country":"Taiwan","contacts":[{"name":"Sung-Nan Pei, Site 0175","role":"CONTACT"}],"geoPoint":{"lat":22.61626,"lon":120.31333}},{"facility":"Far Eastern Memorial Hospital","status":"RECRUITING","city":"New Taipei City","zip":"220","country":"Taiwan","contacts":[{"name":"Yuan-Bin Yu, Site 0159","role":"CONTACT","phone":"+886228757529 0 000"}],"geoPoint":{"lat":25.01111,"lon":121.44583}},{"facility":"National Cheng Kung University Hospital","status":"RECRUITING","city":"Tainan","zip":"704","country":"Taiwan","contacts":[{"name":"Tsai-Yun Chen, Site 0165","role":"CONTACT","phone":"886936257940"}],"geoPoint":{"lat":22.99083,"lon":120.21333}},{"facility":"National Taiwan University Hospital","status":"RECRUITING","city":"Taipei","zip":"10002","country":"Taiwan","contacts":[{"name":"Shang-Yi Huang, Site 0292","role":"CONTACT","phone":"+886-2-23123456ext63"}],"geoPoint":{"lat":25.04776,"lon":121.53185}},{"facility":"Chang Gung Memorial Hospital","status":"RECRUITING","city":"Taoyuan","zip":"333","country":"Taiwan","contacts":[{"name":"Tung-Liang Lin, Site 0289","role":"CONTACT","phone":"+886975368103"}],"geoPoint":{"lat":24.95233,"lon":121.20193}},{"facility":"Ankara Bilkent City Hospital","status":"RECRUITING","city":"Ankara","zip":"06230","country":"Turkey","contacts":[{"name":"Guldane Cengiz Seval, Site 0167","role":"CONTACT","phone":"905326472564"}],"geoPoint":{"lat":39.91987,"lon":32.85427}},{"facility":"Liv Hospital Ankara","status":"RECRUITING","city":"Cankaya","zip":"06680","country":"Turkey","contacts":[{"name":"Meral Beksac, Site 0287","role":"CONTACT","phone":"00905326347027"}],"geoPoint":{"lat":39.9179,"lon":32.86268}},{"facility":"Trakya Üniversitesi Tıp Fakültesi","status":"RECRUITING","city":"Edirne","zip":"22030","country":"Turkey","contacts":[{"name":"Ahmet Muzaffer Demir, Site 0052","role":"CONTACT","phone":"+905335544797"}],"geoPoint":{"lat":41.67719,"lon":26.55597}},{"facility":"Local Institution - 0068","status":"WITHDRAWN","city":"Istanbul","zip":"34214","country":"Turkey","geoPoint":{"lat":41.01384,"lon":28.94966}},{"facility":"T.C. Istanbul Bilim Universitesi - lstanbul Florence Nightingale Hastanesi","status":"RECRUITING","city":"Istanbul","zip":"34381","country":"Turkey","contacts":[{"name":"Omur Gokmen Sevindik, Site 0309","role":"CONTACT","phone":"+05437870708"}],"geoPoint":{"lat":41.01384,"lon":28.94966}},{"facility":"Ege Universitesi Tip Fakultesi Hastanesi (Ege University Medical Faculty Hospital)","status":"RECRUITING","city":"Izmir","zip":"35100","country":"Turkey","contacts":[{"name":"Filiz Vural, Site 0158","role":"CONTACT"}],"geoPoint":{"lat":38.41273,"lon":27.13838}},{"facility":"Local Institution - 0073","status":"NOT_YET_RECRUITING","city":"Izmir","zip":"35575","country":"Turkey","contacts":[{"name":"Site 0073","role":"CONTACT"}],"geoPoint":{"lat":38.41273,"lon":27.13838}},{"facility":"Erciyes Üniversitesi Tıp Fakültesi","status":"RECRUITING","city":"Kayseri","zip":"38039","country":"Turkey","contacts":[{"name":"Gulsah akyol, Site 0024","role":"CONTACT","phone":"+905056376776"}],"geoPoint":{"lat":38.73222,"lon":35.48528}},{"facility":"Dr. Abdurrahman Yurtaslan Ankara Onkoloji Eğitim ve Araştırma Hastanesi","status":"RECRUITING","city":"Yenimahalle","zip":"06200","country":"Turkey","contacts":[{"name":"Fevzi Altuntas, Site 0032","role":"CONTACT","phone":"903123360909-7215"}]},{"facility":"NHS Grampian - Aberdeen Royal Infirmary","status":"RECRUITING","city":"Aberdeen","state":"ABD","zip":"AB25 2ZN","country":"United Kingdom","contacts":[{"name":"Stephanie Stone, Site 0173","role":"CONTACT","phone":"+4401224553394"}],"geoPoint":{"lat":57.14369,"lon":-2.09814}},{"facility":"GenesisCare -Windosr","status":"RECRUITING","city":"Windsor","state":"Berkshire","zip":"SL4 3HD","country":"United Kingdom","contacts":[{"name":"Pratap Neelakantan, Site 0161","role":"CONTACT"}],"geoPoint":{"lat":51.48333,"lon":-0.6}},{"facility":"University Hospitals of Derby and Burton NHS Foundation Trust - Royal Derby Hospital","status":"RECRUITING","city":"Derby","state":"DBY","zip":"DE22 3NE","country":"United Kingdom","contacts":[{"name":"Firas Al-Kaisi, Site 0156","role":"CONTACT","phone":"01332787971"}],"geoPoint":{"lat":52.92277,"lon":-1.47663}},{"facility":"University Hospitals Dorset NHS Foundation Trust (UHD) - Royal Bournemouth Hospital (RBH)","status":"RECRUITING","city":"Bournemouth","state":"DOR","zip":"BH7 7DW","country":"United Kingdom","contacts":[{"name":"Rachel Hall, Site 0162","role":"CONTACT","phone":"+4403000194790"}],"geoPoint":{"lat":50.72048,"lon":-1.8795}},{"facility":"Portsmouth Hospitals NHS Trust - Queen Alexandra Hospital","status":"RECRUITING","city":"Portsmouth","state":"HAM","zip":"PO6 3LY","country":"United Kingdom","contacts":[{"name":"Edward Belsham, Site 0284","role":"CONTACT","phone":"+4402392286311"}],"geoPoint":{"lat":50.79899,"lon":-1.09125}},{"facility":"University Hospitals of North Midlands NHS Trust (UHNM) - Royal Stoke University Hospital","status":"RECRUITING","city":"Stoke-on-Trent","state":"Staffordshire","zip":"ST4 6QG","country":"United Kingdom","contacts":[{"name":"Kamaraj Karunanithi, Site 0154","role":"CONTACT","phone":"+447971085953"}],"geoPoint":{"lat":53.00415,"lon":-2.18538}},{"facility":"NHS Lothian - Western General Hospital","status":"RECRUITING","city":"Edinburgh","zip":"EH4 2XU","country":"United Kingdom","contacts":[{"name":"Neill Storrar, Site 0160","role":"CONTACT","phone":"01315372595"}],"geoPoint":{"lat":55.95206,"lon":-3.19648}},{"facility":"Barts Health NHS Trust - St Bartholomew's Hospital","status":"RECRUITING","city":"London","zip":"W1G 6AF","country":"United Kingdom","contacts":[{"name":"Simon Hallam, Site 0025","role":"CONTACT","phone":"+02034655351"}],"geoPoint":{"lat":51.50853,"lon":-0.12574}},{"facility":"GenesisCare-Oxford","status":"RECRUITING","city":"Oxford","zip":"OX4 6LB","country":"United Kingdom","contacts":[{"name":"Karthik Ramasamy, Site 0029","role":"CONTACT","phone":"+441865235882"}],"geoPoint":{"lat":51.75222,"lon":-1.25596}}]},"referencesModule":{"seeAlsoLinks":[{"label":"BMS Clinical Trial Information","url":"https://www.bms.com/researchers-and-partners/clinical-trials-and-research.html"},{"label":"BMS Clinical Trial Patient Recruiting","url":"https://www.bmsclinicaltrials.com/us/en/clinical-trials/NCT05827016.html"}]},"ipdSharingStatementModule":{"ipdSharing":"YES","description":"BMS will provide access to individual anonymized participant data upon request from qualified researchers, and subject to certain criteria.\n\nAdditional information regarding Bristol Myer Squibb's data sharing policy and process can be found at:\n\nhttps://www.bms.com/researchers-and-partners/clinical-trials-and-research/disclosurecommitment.html","infoTypes":["STUDY_PROTOCOL","SAP","CSR"],"timeFrame":"See Plan Description","accessCriteria":"See Plan Description","url":"https://www.bms.com/researchers-and-partners/clinical-trials-and-research/disclosure-commitment.html"}},"derivedSection":{"miscInfoModule":{"versionHolder":"2025-07-07","removedCountries":["Iceland","Swaziland"]},"conditionBrowseModule":{"meshes":[{"id":"D009101","term":"Multiple Myeloma"},{"id":"D054219","term":"Neoplasms, Plasma Cell"}],"ancestors":[{"id":"D009370","term":"Neoplasms by Histologic Type"},{"id":"D009369","term":"Neoplasms"},{"id":"D020141","term":"Hemostatic Disorders"},{"id":"D014652","term":"Vascular Diseases"},{"id":"D002318","term":"Cardiovascular Diseases"},{"id":"D010265","term":"Paraproteinemias"},{"id":"D001796","term":"Blood Protein Disorders"},{"id":"D006402","term":"Hematologic Diseases"},{"id":"D006474","term":"Hemorrhagic Disorders"},{"id":"D008232","term":"Lymphoproliferative Disorders"},{"id":"D007160","term":"Immunoproliferative Disorders"},{"id":"D007154","term":"Immune System Diseases"}],"browseLeaves":[{"id":"M12058","name":"Multiple Myeloma","asFound":"Multiple Myeloma","relevance":"HIGH"},{"id":"M27588","name":"Neoplasms, Plasma Cell","asFound":"Multiple Myeloma","relevance":"HIGH"},{"id":"M12315","name":"Neoplasms by Histologic Type","relevance":"LOW"},{"id":"M21977","name":"Hemostatic Disorders","relevance":"LOW"},{"id":"M5059","name":"Blood Coagulation Disorders","relevance":"LOW"},{"id":"M17400","name":"Vascular Diseases","relevance":"LOW"},{"id":"M13178","name":"Paraproteinemias","relevance":"LOW"},{"id":"M5077","name":"Blood Protein Disorders","relevance":"LOW"},{"id":"M9490","name":"Hematologic Diseases","relevance":"LOW"},{"id":"M9560","name":"Hemorrhagic Disorders","relevance":"LOW"},{"id":"M11225","name":"Lymphoproliferative Disorders","relevance":"LOW"},{"id":"M10206","name":"Immunoproliferative Disorders","relevance":"LOW"},{"id":"M10200","name":"Immune System Diseases","relevance":"LOW"},{"id":"T3947","name":"Multiple Myeloma","asFound":"Multiple Myeloma","relevance":"HIGH"}],"browseBranches":[{"abbrev":"BC04","name":"Neoplasms"},{"abbrev":"BC14","name":"Heart and Blood Diseases"},{"abbrev":"BC15","name":"Blood and Lymph Conditions"},{"abbrev":"BC20","name":"Immune System Diseases"},{"abbrev":"All","name":"All Conditions"},{"abbrev":"Rare","name":"Rare Diseases"}]},"interventionBrowseModule":{"meshes":[{"id":"D000077269","term":"Lenalidomide"}],"ancestors":[{"id":"D007155","term":"Immunologic Factors"},{"id":"D045505","term":"Physiological Effects of Drugs"},{"id":"D020533","term":"Angiogenesis Inhibitors"},{"id":"D043924","term":"Angiogenesis Modulating Agents"},{"id":"D006133","term":"Growth Substances"},{"id":"D006131","term":"Growth Inhibitors"},{"id":"D000970","term":"Antineoplastic Agents"}],"browseLeaves":[{"id":"M1725","name":"Lenalidomide","asFound":"Counseling","relevance":"HIGH"},{"id":"M10201","name":"Immunologic Factors","relevance":"LOW"},{"id":"M22318","name":"Angiogenesis Inhibitors","relevance":"LOW"},{"id":"M9231","name":"Growth Inhibitors","relevance":"LOW"}],"browseBranches":[{"abbrev":"ANeo","name":"Antineoplastic Agents"},{"abbrev":"All","name":"All Drugs and Chemicals"}]}},"hasResults":false}