{"protocolSection":{"identificationModule":{"nctId":"NCT06140836","orgStudyIdInfo":{"id":"CA127-1030"},"secondaryIdInfos":[{"id":"U1111-1292-0487","type":"REGISTRY","domain":"WHO"}],"organization":{"fullName":"Bristol-Myers Squibb","class":"INDUSTRY"},"briefTitle":"A Study of Repotrectinib Versus Crizotinib in Participants With Locally Advanced or Metastatic Tyrosine Kinase Inhibitor (TKI)-naïve ROS1-positive Non-Small Cell Lung Cancer (NSCLC) (TRIDENT-3)","officialTitle":"Randomized, Open-label, Multicenter, Phase 3 Trial of Repotrectinib Versus Crizotinib in Participants With Locally Advanced or Metastatic Tyrosine Kinase Inhibitor (TKI)-naïve ROS1-positive Non-Small Cell Lung Cancer (NSCLC) (TRIDENT-3)"},"statusModule":{"statusVerifiedDate":"2025-05","overallStatus":"RECRUITING","expandedAccessInfo":{"hasExpandedAccess":true,"nctId":"NCT05926232","statusForNctId":"AVAILABLE"},"startDateStruct":{"date":"2023-12-21","type":"ACTUAL"},"primaryCompletionDateStruct":{"date":"2027-06-03","type":"ESTIMATED"},"completionDateStruct":{"date":"2027-06-03","type":"ESTIMATED"},"studyFirstSubmitDate":"2023-11-15","studyFirstSubmitQcDate":"2023-11-15","studyFirstPostDateStruct":{"date":"2023-11-20","type":"ACTUAL"},"lastUpdateSubmitDate":"2025-05-15","lastUpdatePostDateStruct":{"date":"2025-05-18","type":"ACTUAL"}},"sponsorCollaboratorsModule":{"responsibleParty":{"type":"SPONSOR"},"leadSponsor":{"name":"Bristol-Myers Squibb","class":"INDUSTRY"},"collaborators":[{"name":"Zai Lab (Shanghai) Co., Ltd.","class":"INDUSTRY"}]},"oversightModule":{"oversightHasDmc":true,"isFdaRegulatedDrug":true,"isFdaRegulatedDevice":false},"descriptionModule":{"briefSummary":"The purpose of this study is to evaluate the efficacy and safety of repotrectinib and crizotinib in participants with locally advanced or metastatic TKI-naïve ROS1-positive non-small cell lung cancer (NSCLC)."},"conditionsModule":{"conditions":["Carcinoma, Non-Small-Cell Lung"],"keywords":["TKI-naïve","ROS1","NSCLC","ROS1-positive non-small cell lung cancer"]},"designModule":{"studyType":"INTERVENTIONAL","phases":["PHASE3"],"designInfo":{"allocation":"RANDOMIZED","interventionModel":"PARALLEL","primaryPurpose":"TREATMENT","maskingInfo":{"masking":"NONE"}},"enrollmentInfo":{"count":190,"type":"ESTIMATED"}},"armsInterventionsModule":{"armGroups":[{"label":"Arm A","type":"EXPERIMENTAL","interventionNames":["Drug: Repotrectinib"]},{"label":"Arm B","type":"ACTIVE_COMPARATOR","interventionNames":["Drug: Crizotinib"]}],"interventions":[{"type":"DRUG","name":"Repotrectinib","description":"Specified dose on specified days","armGroupLabels":["Arm A"],"otherNames":["BMS-986472"]},{"type":"DRUG","name":"Crizotinib","description":"Specified dose on specified days","armGroupLabels":["Arm B"],"otherNames":["Xalkori"]}]},"outcomesModule":{"primaryOutcomes":[{"measure":"Progression-free Survival (PFS) as per Blinded Independent Central Review (BICR) according to Response Evaluation Criteria in Solid Tumors (RECIST) v1.1","timeFrame":"Up to approximately 41 months"}],"secondaryOutcomes":[{"measure":"Overall Survival (OS)","timeFrame":"Up to approximately 41 months"},{"measure":"Overall Response Rate (ORR) as per BICR according to RECIST v1.1","timeFrame":"Up to approximately 41 months"},{"measure":"ORR as per Investigator according to RECIST v1.1","timeFrame":"Up to approximately 41 months"},{"measure":"Duration of Response (DOR) as per BICR according to RECIST v1.1","timeFrame":"Up to approximately 41 months"},{"measure":"DOR as per Investigator according to RECIST v1.1","timeFrame":"Up to approximately 41 months"},{"measure":"Time to Response (TTR) as per BICR according to RECIST v1.1","timeFrame":"Up to approximately 41 months"},{"measure":"TTR as per Investigator according to RECIST v1.1","timeFrame":"Up to approximately 41 months"},{"measure":"PFS as per Investigator according to RECIST v1.1","timeFrame":"Up to approximately 41 months"},{"measure":"Time to intracranial progressions as per BICR according to RECIST v1.1","timeFrame":"Up to approximately 41 months"},{"measure":"Number of participants with Adverse Events (AEs), Serious AEs (SAEs), AEs leading to study intervention discontinuation, and drug-related AEs","timeFrame":"Up to 30 days after last dose"},{"measure":"Number of deaths","timeFrame":"Up to 30 days after last dose"},{"measure":"Number of participants without at least a 3-point change in the Non-Small Cell Lung Cancer-Symptom Assessment Questionnaire (NSCLC-SAQ) total score","timeFrame":"Up to 30 days after last dose"}]},"eligibilityModule":{"eligibilityCriteria":"Inclusion Criteria:\n\n* Participant has histologically or cytologically confirmed diagnosis of locally advanced or metastatic NSCLC\n* Participant has a ROS1 gene rearrangement/fusion as detected by a local test.\n* At least 1 measurable lesion according to RECIST v1.1, as assessed by the investigator.\n* Participants must not be exposed previously with TKIs that demonstrated activities in ROS1-positive NSCLC\n* Up to 1 prior line of systemic treatment for NSCLC is permitted\n* ECOG Performance Status ≤ 2\n\nExclusion Criteria:\n\n* Symptomatic brain metastases or symptomatic leptomeningeal involvement.\n* History of previous cancer requiring therapy within the previous 2 years, except for NSCLC under study, squamous cell or basal-cell carcinoma of the skin, or any in situ carcinoma that has been completely resected.\n* Known tumor targetable co-mutations or rearrangements\n* Clinically significant cardiovascular disease (either active or within 6 months prior to enrollment)\n\nNote: Other protocol-defined inclusion/exclusion criteria apply","healthyVolunteers":false,"sex":"ALL","minimumAge":"18 Years","stdAges":["ADULT","OLDER_ADULT"]},"contactsLocationsModule":{"centralContacts":[{"name":"BMS Clinical Trials Contact Center www.BMSClinicalTrials.com","role":"CONTACT","phone":"855-907-3286","email":"Clinical.Trials@bms.com"},{"name":"First line of the email MUST contain the NCT# and Site #.","role":"CONTACT"}],"overallOfficials":[{"name":"Bristol-Myers Squibb","affiliation":"Bristol-Myers Squibb","role":"STUDY_DIRECTOR"}],"locations":[{"facility":"Local Institution - 0136","status":"WITHDRAWN","city":"Augusta","state":"Georgia","zip":"30912","country":"United States","geoPoint":{"lat":33.47097,"lon":-81.97484}},{"facility":"Local Institution - 0221","status":"NOT_YET_RECRUITING","city":"Des Moines","state":"Iowa","zip":"50309","country":"United States","contacts":[{"name":"Site 0221","role":"CONTACT"}],"geoPoint":{"lat":41.60054,"lon":-93.60911}},{"facility":"Massachusetts General Hospital","status":"RECRUITING","city":"Boston","state":"Massachusetts","zip":"02114","country":"United States","contacts":[{"name":"Jessica Lin, Site 0075","role":"CONTACT","phone":"617-724-4000"}],"geoPoint":{"lat":42.35843,"lon":-71.05977}},{"facility":"Beth Israel Deaconess Medical Center","status":"RECRUITING","city":"Boston","state":"Massachusetts","zip":"02215","country":"United States","contacts":[{"name":"Daniel Costa, Site 0201","role":"CONTACT","phone":"617-667-9236"}],"geoPoint":{"lat":42.35843,"lon":-71.05977}},{"facility":"Local Institution - 0217","status":"WITHDRAWN","city":"Brooklyn","state":"New York","zip":"11220","country":"United States","geoPoint":{"lat":40.6501,"lon":-73.94958}},{"facility":"Perlmutter Cancer Center at NYU Langone Hospital - Long Island","status":"RECRUITING","city":"Mineola","state":"New York","zip":"11501","country":"United States","contacts":[{"name":"Vamsidhar Velcheti, Site 0210","role":"CONTACT","phone":"216-903-4153"}],"geoPoint":{"lat":40.74927,"lon":-73.64068}},{"facility":"Laura and Isaac Perlmutter Cancer Center","status":"RECRUITING","city":"New York","state":"New York","zip":"10016","country":"United States","contacts":[{"name":"Vamsidhar Velcheti, Site 0134","role":"CONTACT","phone":"216-903-4153"}],"geoPoint":{"lat":40.71427,"lon":-74.00597}},{"facility":"SUNY Upstate Medical University","status":"RECRUITING","city":"Syracuse","state":"New York","zip":"13210","country":"United States","contacts":[{"name":"Stephen Graziano, Site 0127","role":"CONTACT","phone":"315-464-4848"}],"geoPoint":{"lat":43.04812,"lon":-76.14742}},{"facility":"Local Institution - 0214","status":"NOT_YET_RECRUITING","city":"Tacoma","state":"Washington","zip":"98405","country":"United States","contacts":[{"name":"Site 0214","role":"CONTACT"}],"geoPoint":{"lat":47.25288,"lon":-122.44429}},{"facility":"Local Institution - 0061","status":"WITHDRAWN","city":"Milwaukee","state":"Wisconsin","zip":"53226","country":"United States","geoPoint":{"lat":43.0389,"lon":-87.90647}},{"facility":"Hospital Británico de Buenos Aires","status":"RECRUITING","city":"Ciudad autónoma de Buenos Aires","state":"Buenos Aires","zip":"1280","country":"Argentina","contacts":[{"name":"Karina Vera, Site 0092","role":"CONTACT","phone":"1121571056"}],"geoPoint":{"lat":-34.61315,"lon":-58.37723}},{"facility":"Instituto Alexander Fleming","status":"RECRUITING","city":"Ciudad Autónoma de Buenos Aires","state":"Buenos Aires","zip":"C1426ANZ","country":"Argentina","contacts":[{"name":"Carmen Pupareli, Site 0090","role":"CONTACT","phone":"+541138850425"}],"geoPoint":{"lat":-34.61315,"lon":-58.37723}},{"facility":"Hospital Italiano de Buenos Aires","status":"RECRUITING","city":"ABB","state":"Ciudad Autónoma De Buenos Aires","zip":"C1199ABB","country":"Argentina","contacts":[{"name":"Lorena Lupinacci, Site 0091","role":"CONTACT","phone":"5411495902008159"}]},{"facility":"Centro de Educación Médica e Investigaciones clínicas \"Dr. Norberto Quirno\" (CEMIC)","status":"RECRUITING","city":"Buenos Aires","zip":"1431","country":"Argentina","contacts":[{"name":"Vanina Wainsztein, Site 0106","role":"CONTACT","phone":"5491149809013"}],"geoPoint":{"lat":-34.61315,"lon":-58.37723}},{"facility":"Instituto de Oncología Angel H. Roffo","status":"RECRUITING","city":"Buenos Aires","zip":"C1417DTB","country":"Argentina","contacts":[{"name":"Monica Castro, Site 0207","role":"CONTACT","phone":"+5491141689984"}],"geoPoint":{"lat":-34.61315,"lon":-58.37723}},{"facility":"Instituto Oncológico de Córdoba","status":"RECRUITING","city":"Córdoba","zip":"5000","country":"Argentina","contacts":[{"name":"Martin Richardet, Site 0093","role":"CONTACT","phone":"5493516165267"}],"geoPoint":{"lat":-31.4135,"lon":-64.18105}},{"facility":"Klinik Floridsdorf","status":"RECRUITING","city":"Wien","zip":"1210","country":"Austria","contacts":[{"name":"Maximilian Hochmair, Site 0041","role":"CONTACT","phone":"+4312770072212"}],"geoPoint":{"lat":48.20849,"lon":16.37208}},{"facility":"Hospital Luxemburgo","status":"RECRUITING","city":"Belo Horizonte","state":"Minas Gerais","zip":"30380-490","country":"Brazil","contacts":[{"name":"Ellias Lima, Site 0073","role":"CONTACT","phone":"31988032851"}],"geoPoint":{"lat":-19.92083,"lon":-43.93778}},{"facility":"Centro Gaucho Integrado De Oncologia, Hematologia, Ensino E Pesquisa","status":"RECRUITING","city":"Porto Alegre","state":"Rio Grande Do Sul","zip":"90110-270","country":"Brazil","contacts":[{"name":"Alan Azambuja, Site 0033","role":"CONTACT","phone":"555133789927"}],"geoPoint":{"lat":-30.03306,"lon":-51.23}},{"facility":"Hospital São Lucas da PUCRS","status":"RECRUITING","city":"Porto Alegre","state":"Rio Grande Do Sul","zip":"90610-000","country":"Brazil","contacts":[{"name":"Ana Caroline Gelatti, Site 0034","role":"CONTACT","phone":"(51)3320-3039"}],"geoPoint":{"lat":-30.03306,"lon":-51.23}},{"facility":"Fundação Pio XII - Hospital de Câncer de Barretos","status":"RECRUITING","city":"Barretos","state":"São Paulo","zip":"14784400","country":"Brazil","contacts":[{"name":"Flavio Augusto Ferreria Da Silva, Site 0029","role":"CONTACT","phone":"551733216637"}],"geoPoint":{"lat":-20.55722,"lon":-48.56778}},{"facility":"Hospital Sírio Libanês","status":"RECRUITING","city":"Sao Paulo","state":"São Paulo","zip":"01308-060","country":"Brazil","contacts":[{"name":"Guilherme Harada, Site 0209","role":"CONTACT","phone":"+5511999300892"}],"geoPoint":{"lat":-23.5475,"lon":-46.63611}},{"facility":"Hospital Paulistano","status":"RECRUITING","city":"Sao Paulo","state":"São Paulo","zip":"01321-001","country":"Brazil","contacts":[{"name":"Mariana Monteiro, Site 0147","role":"CONTACT","phone":"+5511944716385"}],"geoPoint":{"lat":-23.5475,"lon":-46.63611}},{"facility":"Fundação Faculdade Regional de Medicina de São José do Rio Preto","status":"RECRUITING","city":"São José do Rio Preto","state":"São Paulo","zip":"15090000","country":"Brazil","contacts":[{"name":"BRUNO CEZAR UCHÔA JÚNIOR, Site 0037","role":"CONTACT","phone":"11997722237"}],"geoPoint":{"lat":-20.81972,"lon":-49.37944}},{"facility":"Hospital São Lucas de Copacabana","status":"RECRUITING","city":"Rio de Janeiro","zip":"22061-080","country":"Brazil","contacts":[{"name":"Luiz Henrique Araujo, Site 0098","role":"CONTACT","phone":"552132076585"}],"geoPoint":{"lat":-22.90278,"lon":-43.2075}},{"facility":"Centro de Tratamento de Tumores Botafogo para Oncoclinicas Rio de Janeiro SA","status":"RECRUITING","city":"Rio de Janeiro","zip":"22250-905","country":"Brazil","contacts":[{"name":"Tatiane Montella, Site 0108","role":"CONTACT","phone":"5521993954317"}],"geoPoint":{"lat":-22.90278,"lon":-43.2075}},{"facility":"Instituto D'Or de Pesquisa e Ensino (IDOR)","status":"RECRUITING","city":"São Paulo","zip":"01401-002","country":"Brazil","contacts":[{"name":"Milena Perez Mak, Site 0032","role":"CONTACT","phone":"551138932632"}],"geoPoint":{"lat":-23.5475,"lon":-46.63611}},{"facility":"Sociedade Beneficente Israelita Brasileira Hospital Albert Einstein","status":"RECRUITING","city":"São Paulo","zip":"05652-900","country":"Brazil","contacts":[{"name":"Fernando Moura Silva, Site 0114","role":"CONTACT","phone":"551121511127"}],"geoPoint":{"lat":-23.5475,"lon":-46.63611}},{"facility":"Local Institution - 0002","status":"COMPLETED","city":"Toronto","state":"Ontario","zip":"M5G 2M9","country":"Canada","geoPoint":{"lat":43.70011,"lon":-79.4163}},{"facility":"Local Institution - 0123","status":"COMPLETED","city":"Trois-Rivières","state":"Quebec","zip":"G8Z 3R9","country":"Canada","geoPoint":{"lat":46.34515,"lon":-72.5477}},{"facility":"Fundacion Arturo Lopez Perez (FALP)","status":"RECRUITING","city":"Santiago","state":"Región Metropolitana De Santiago","zip":"7500921","country":"Chile","contacts":[{"name":"Christian Caglevic, Site 0094","role":"CONTACT","phone":"56224457254"}],"geoPoint":{"lat":-33.45694,"lon":-70.64827}},{"facility":"Oncocentro Apys","status":"RECRUITING","city":"Viña del Mar","state":"Valparaíso","zip":"2520598","country":"Chile","contacts":[{"name":"Alejandro Acevedo, Site 0096","role":"CONTACT","phone":"+56992369820"}],"geoPoint":{"lat":-33.02457,"lon":-71.55183}},{"facility":"Beijing Cancer hospital","status":"RECRUITING","city":"Beijing","state":"Beijing","zip":"100142","country":"China","contacts":[{"name":"Jian Fang, Site 0168","role":"CONTACT","phone":"13701224460"}],"geoPoint":{"lat":39.9075,"lon":116.39723}},{"facility":"Army Medical Center of PLA","status":"RECRUITING","city":"Chongqing","state":"Chongqing","zip":"400042","country":"China","contacts":[{"name":"Yong He, Site 0185","role":"CONTACT","phone":"13908338998"}],"geoPoint":{"lat":29.56278,"lon":106.55278}},{"facility":"Local Institution - 0192","status":"WITHDRAWN","city":"Fuzhou","state":"Fujian","zip":"350000","country":"China","geoPoint":{"lat":26.06139,"lon":119.30611}},{"facility":"The First Affiliated hospital of Xiamen University","status":"RECRUITING","city":"Xiamen","state":"Fujian","zip":"361003","country":"China","contacts":[{"name":"Feng Ye, Site 0169","role":"CONTACT","phone":"13860458889"}],"geoPoint":{"lat":24.47979,"lon":118.08187}},{"facility":"The First Affiliated Hospital of Guangzhou Medical University","status":"RECRUITING","city":"Guangzhou","state":"Guangdong","zip":"510120","country":"China","contacts":[{"name":"Chengzhi Zhou, Site 0180","role":"CONTACT","phone":"13560351176"}],"geoPoint":{"lat":23.11667,"lon":113.25}},{"facility":"The First Affiliated Hospital of Guangxi Medical University","status":"RECRUITING","city":"Nanning","state":"Guangxi","zip":"530000","country":"China","contacts":[{"name":"Qitao Yu, Site 0194","role":"CONTACT","phone":"13878106696"}],"geoPoint":{"lat":22.81667,"lon":108.31667}},{"facility":"Affiliated Cancer Hospital of Harbin Medical University","status":"RECRUITING","city":"Harbin","state":"Heilongjiang","zip":"150000","country":"China","contacts":[{"name":"Yan Yu, Site 0171","role":"CONTACT","phone":"13904505825"}],"geoPoint":{"lat":45.75,"lon":126.65}},{"facility":"Henan Cancer Hospital","status":"RECRUITING","city":"Zhengzhou","state":"Henan","zip":"450003","country":"China","contacts":[{"name":"Xiufeng Hu, Site 0166","role":"CONTACT","phone":"18339920984"}],"geoPoint":{"lat":34.75778,"lon":113.64861}},{"facility":"Hubei Cancer Hospital","status":"RECRUITING","city":"Wuhan Shi","state":"Hubei","zip":"430079","country":"China","contacts":[{"name":"Bin Yang, Site 0181","role":"CONTACT","phone":"8613407192282"}]},{"facility":"Local Institution - 0203","status":"WITHDRAWN","city":"Wuhan","state":"Hubei","zip":"430022","country":"China","geoPoint":{"lat":30.58333,"lon":114.26667}},{"facility":"Hunan Province People'S Hospital","status":"RECRUITING","city":"Changsha","state":"Hunan","zip":"410000","country":"China","contacts":[{"name":"Furen Zeng, Site 0184","role":"CONTACT","phone":"13874854668"}],"geoPoint":{"lat":28.19874,"lon":112.97087}},{"facility":"Local Institution - 0165","status":"WITHDRAWN","city":"Changsha","state":"Hunan","zip":"410013","country":"China","geoPoint":{"lat":28.19874,"lon":112.97087}},{"facility":"Jiangsu Province Hospital Of Chinese Medicine","status":"RECRUITING","city":"Nanjing","state":"Jiangsu","zip":"210029","country":"China","contacts":[{"name":"Qian Wang, Site 0193","role":"CONTACT","phone":"13813989395"}],"geoPoint":{"lat":32.06167,"lon":118.77778}},{"facility":"The First Affiliated Hospital of Nanchang University","status":"RECRUITING","city":"Nanchang","state":"Jiangxi","zip":"330006","country":"China","contacts":[{"name":"Longhua Sun, Site 0202","role":"CONTACT","phone":"13698091288"}],"geoPoint":{"lat":28.68396,"lon":115.85306}},{"facility":"Jilin Cancer Hospital","status":"RECRUITING","city":"Changchun","state":"Jilin","zip":"130012","country":"China","contacts":[{"name":"Ying Cheng, Site 0178","role":"CONTACT","phone":"8613943012851"}],"geoPoint":{"lat":43.88,"lon":125.32278}},{"facility":"The First Affiliated Hospital of Xi'an Jiaotong University","status":"RECRUITING","city":"Xi'an","state":"Shaanxi","zip":"710061","country":"China","contacts":[{"name":"Yu Yao, Site 0183","role":"CONTACT","phone":"8613572101611"}],"geoPoint":{"lat":34.25833,"lon":108.92861}},{"facility":"Shandong Cancer Hospital","status":"RECRUITING","city":"Jinan","state":"Shandong","zip":"250000","country":"China","contacts":[{"name":"Wei Huang, Site 0186","role":"CONTACT","phone":"+13181713436"}],"geoPoint":{"lat":36.66833,"lon":116.99722}},{"facility":"Local Institution - 0205","status":"WITHDRAWN","city":"Linyi","state":"Shandong","zip":"276027","country":"China","geoPoint":{"lat":35.06306,"lon":118.34278}},{"facility":"Shanghai Chest Hospital","status":"RECRUITING","city":"Shanghai","state":"Shanghai","zip":"200030","country":"China","contacts":[{"name":"Ziming Li, Site 0164","role":"CONTACT","phone":"8613764590226"}],"geoPoint":{"lat":31.22222,"lon":121.45806}},{"facility":"Fudan University Shanghai Cancer Center","status":"RECRUITING","city":"Shanghai","state":"Shanghai","zip":"200032","country":"China","contacts":[{"name":"Jialei Wang, Site 0179","role":"CONTACT","phone":"8613501623469"}],"geoPoint":{"lat":31.22222,"lon":121.45806}},{"facility":"Local Institution - 0170","status":"WITHDRAWN","city":"Chengdu","state":"Sichuan","zip":"610041","country":"China","geoPoint":{"lat":30.66667,"lon":104.06667}},{"facility":"West China Hospital, Sichuan University","status":"RECRUITING","city":"Chengdu","state":"Sichuan","zip":"610044","country":"China","contacts":[{"name":"Yalun Li, Site 0177","role":"CONTACT","phone":"18628250623"}],"geoPoint":{"lat":30.66667,"lon":104.06667}},{"facility":"Local Institution - 0204","status":"WITHDRAWN","city":"Kunming","state":"Yunnan","zip":"650106","country":"China","geoPoint":{"lat":25.03889,"lon":102.71833}},{"facility":"Local Institution - 0206","status":"WITHDRAWN","city":"Hangzhou","state":"Zhejiang","zip":"310003","country":"China","geoPoint":{"lat":30.29365,"lon":120.16142}},{"facility":"Zhejiang Cancer Hospital","status":"RECRUITING","city":"Hangzhou","state":"Zhejiang","zip":"310022","country":"China","contacts":[{"name":"Xinmin Yu, Site 0175","role":"CONTACT","phone":"8613705718617"}],"geoPoint":{"lat":30.29365,"lon":120.16142}},{"facility":"Nouvel Hôpital Civil (NHC)","status":"RECRUITING","city":"Strasbourg","state":"Alsace","zip":"67091","country":"France","contacts":[{"name":"Celine Mascaux, Site 0059","role":"CONTACT","phone":"0033369550644"}],"geoPoint":{"lat":48.58392,"lon":7.74553}},{"facility":"CHU Bordeaux Haut-Leveque","status":"RECRUITING","city":"Pessac","state":"Aquitaine","zip":"33600","country":"France","contacts":[{"name":"Remi Veillon, Site 0055","role":"CONTACT","phone":"33557656338"}],"geoPoint":{"lat":44.81011,"lon":-0.64129}},{"facility":"Centre Georges François Leclerc","status":"RECRUITING","city":"Dijon","state":"Côte-d'Or","zip":"21079","country":"France","contacts":[{"name":"Aurelie Lagrange, Site 0109","role":"CONTACT","phone":"33380737528"}],"geoPoint":{"lat":47.31667,"lon":5.01667}},{"facility":"CHU Charles Nicolle","status":"RECRUITING","city":"Rouen","state":"Haute-Normandie","zip":"76031","country":"France","contacts":[{"name":"Florian Guisier, Site 0057","role":"CONTACT","phone":"33232888247"}],"geoPoint":{"lat":49.44313,"lon":1.09932}},{"facility":"Chu Grenoble Alpes","status":"RECRUITING","city":"La Tronche","state":"Isère","zip":"38700","country":"France","contacts":[{"name":"Denis Moro-Sibilot, Site 0058","role":"CONTACT","phone":"33476765467"}],"geoPoint":{"lat":45.20429,"lon":5.73645}},{"facility":"Hôpital Nord Guillaume-et-René-Laennec / CHU de Nantes","status":"RECRUITING","city":"Saint-Herblain","state":"Loire-Atlantique","zip":"44800","country":"France","contacts":[{"name":"Elvire Pons-Tostivint, Site 0189","role":"CONTACT","phone":"+33676133810"}],"geoPoint":{"lat":47.21765,"lon":-1.64841}},{"facility":"Centre Hospitalier Lyon Sud","status":"RECRUITING","city":"Pierre-Bénite","state":"Rhône","zip":"69310","country":"France","contacts":[{"name":"Sebastien Couraud, Site 0060","role":"CONTACT","phone":"33478865924"}],"geoPoint":{"lat":45.7009,"lon":4.82511}},{"facility":"Hopitaux Universitaires Paris Centre-Hopital Cochin","status":"RECRUITING","city":"Paris","zip":"75014","country":"France","contacts":[{"name":"Marie Wislez, Site 0056","role":"CONTACT","phone":"33158413091"}],"geoPoint":{"lat":48.85341,"lon":2.3488}},{"facility":"Klinikum Esslingen","status":"RECRUITING","city":"Esslingen","state":"Baden-Württemberg","zip":"73730","country":"Germany","contacts":[{"name":"Martin Faehling, Site 0124","role":"CONTACT","phone":"+4971131032402"}],"geoPoint":{"lat":48.73961,"lon":9.30473}},{"facility":"Klinikum Würzburg Mitte","status":"RECRUITING","city":"Wuerzburg","state":"Bayern","zip":"97074","country":"Germany","contacts":[{"name":"Jens Kern, Site 0105","role":"CONTACT","phone":"+00499317912814"}],"geoPoint":{"lat":49.79391,"lon":9.95121}},{"facility":"Pius Hospital Oldenburg","status":"RECRUITING","city":"Oldenburg","state":"Niedersachsen","zip":"26121","country":"Germany","contacts":[{"name":"Frank Griesinger, Site 0074","role":"CONTACT","phone":"494412291611"}],"geoPoint":{"lat":53.14118,"lon":8.21467}},{"facility":"Evangelische Lungenklinik Berlin","status":"RECRUITING","city":"Berlin","zip":"13125","country":"Germany","contacts":[{"name":"Christian Grohe, Site 0078","role":"CONTACT","phone":"+493094802112"}],"geoPoint":{"lat":52.52437,"lon":13.41053}},{"facility":"Universitaetsklinikum Carl Gustav Carus Dresden","status":"RECRUITING","city":"Dresden","zip":"01307","country":"Germany","contacts":[{"name":"Martin Wermke, Site 0035","role":"CONTACT","phone":"+493514587566"}],"geoPoint":{"lat":51.05089,"lon":13.73832}},{"facility":"Asklepios Klinik Gauting GmbH","status":"RECRUITING","city":"Gauting","zip":"82131","country":"Germany","contacts":[{"name":"Niels Reinmuth, Site 0131","role":"CONTACT","phone":"004989857914001"}],"geoPoint":{"lat":48.06919,"lon":11.37703}},{"facility":"Lungenfachklinik Immenhausen","status":"RECRUITING","city":"Immenhausen","zip":"34376","country":"Germany","contacts":[{"name":"Achim Rittmeyer, Site 0071","role":"CONTACT","phone":"4956735011573"}],"geoPoint":{"lat":51.42763,"lon":9.48017}},{"facility":"Universitaetsklinikum Koeln","status":"RECRUITING","city":"Köln","zip":"50937","country":"Germany","contacts":[{"name":"Juergen Wolf, Site 0079","role":"CONTACT","phone":"+4922147889050"}],"geoPoint":{"lat":50.93333,"lon":6.95}},{"facility":"Marienhaus Klinikum Mainz","status":"RECRUITING","city":"Mainz","zip":"55131","country":"Germany","contacts":[{"name":"Michael Kreuter, Site 0199","role":"CONTACT","phone":"49(0)6131177271"}],"geoPoint":{"lat":49.98419,"lon":8.2791}},{"facility":"University Hospital of Patras","status":"RECRUITING","city":"Patras","state":"Achaḯa","zip":"26504","country":"Greece","contacts":[{"name":"Angelos Koutras, Site 0154","role":"CONTACT","phone":"306973801212"}],"geoPoint":{"lat":38.24444,"lon":21.73444}},{"facility":"Thoracic General Hospital of Athens \"I Sotiria\"","status":"RECRUITING","city":"Athens","state":"Attikí","zip":"115 27","country":"Greece","contacts":[{"name":"Konstantinos Syrigos, Site 0153","role":"CONTACT","phone":"+302107700220"}],"geoPoint":{"lat":37.97945,"lon":23.71622}},{"facility":"Attikon General University Hospital","status":"RECRUITING","city":"Chaidari","state":"Attikí","zip":"124 62","country":"Greece","contacts":[{"name":"Amanda Psyrri, Site 0155","role":"CONTACT","phone":"2105832549"}],"geoPoint":{"lat":38.01135,"lon":23.66597}},{"facility":"\"Theagenio\" Cancer Hospital of Thessaloniki","status":"RECRUITING","city":"Thessaloniki","state":"Kentrikí Makedonía","zip":"540 07","country":"Greece","contacts":[{"name":"Pavlos Papakotoulas, Site 0156","role":"CONTACT","phone":"+30-2310-898606"}],"geoPoint":{"lat":40.64361,"lon":22.93086}},{"facility":"Országos Korányi Pulmonológiai Intézet","status":"RECRUITING","city":"Budapest","zip":"1121","country":"Hungary","contacts":[{"name":"Gyula Ostoros, Site 0135","role":"CONTACT","phone":"3613913213"}],"geoPoint":{"lat":47.49801,"lon":19.03991}},{"facility":"All India Institute of Medical Sciences","status":"RECRUITING","city":"New Delhi","state":"Delhi","zip":"110029","country":"India","contacts":[{"name":"Prabhat Malik, Site 0218","role":"CONTACT","phone":"911129575232"}],"geoPoint":{"lat":28.63576,"lon":77.22445}},{"facility":"Rajiv Gandhi Cancer Institute And Research Centre","status":"RECRUITING","city":"New Delhi","state":"Delhi","zip":"110085","country":"India","contacts":[{"name":"Ullas Batra, Site 0076","role":"CONTACT","phone":"919711080001"}],"geoPoint":{"lat":28.63576,"lon":77.22445}},{"facility":"Hemato Oncology Clinic","status":"RECRUITING","city":"Ahmedabad","state":"Gujarat","zip":"380054","country":"India","contacts":[{"name":"Chirag Desai, Site 0102","role":"CONTACT","phone":"919824047561"}],"geoPoint":{"lat":23.02579,"lon":72.58727}},{"facility":"HCG Aastha Cancer Centre","status":"RECRUITING","city":"Ahmedabad","state":"Gujarat","zip":"380060","country":"India","contacts":[{"name":"KSHITIJ DOMADIA, Site 0118","role":"CONTACT","phone":"9427740225"}],"geoPoint":{"lat":23.02579,"lon":72.58727}},{"facility":"Local Institution - 0117","status":"NOT_YET_RECRUITING","city":"Gurgaon","state":"Haryana","zip":"122002","country":"India","contacts":[{"name":"Site 0117","role":"CONTACT"}],"geoPoint":{"lat":28.4601,"lon":77.02635}},{"facility":"Artemis hospital","status":"RECRUITING","city":"Gurugram","state":"Haryana","zip":"122001","country":"India","contacts":[{"name":"Priya Tiwari, Site 0044","role":"CONTACT","phone":"8377828241"}]},{"facility":"Manipal Hospitals","status":"RECRUITING","city":"Bengaluru","state":"Karnataka","zip":"560017","country":"India","contacts":[{"name":"Amit Rauthan, Site 0082","role":"CONTACT","phone":"918025023407"}],"geoPoint":{"lat":12.97194,"lon":77.59369}},{"facility":"Local Institution - 0219","status":"NOT_YET_RECRUITING","city":"Thiruvananthapuram","state":"Kerala","zip":"695011","country":"India","contacts":[{"name":"Site 0219","role":"CONTACT"}],"geoPoint":{"lat":8.4855,"lon":76.94924}},{"facility":"Local Institution - 0065","status":"NOT_YET_RECRUITING","city":"Mumbai","state":"Maharashtra","zip":"400004","country":"India","contacts":[{"name":"Site 0065","role":"CONTACT"}],"geoPoint":{"lat":19.07283,"lon":72.88261}},{"facility":"Local Institution - 0048","status":"NOT_YET_RECRUITING","city":"Mumbai","state":"Maharashtra","zip":"400012","country":"India","contacts":[{"name":"Site 0048","role":"CONTACT"}],"geoPoint":{"lat":19.07283,"lon":72.88261}},{"facility":"Grant Medical Foundation - Ruby Hall Clinic","status":"RECRUITING","city":"Pune","state":"Maharashtra","zip":"411001","country":"India","contacts":[{"name":"Minish Jain, Site 0045","role":"CONTACT","phone":"9823133390"}],"geoPoint":{"lat":18.51957,"lon":73.85535}},{"facility":"Sahyadri Super Speciality Hospital","status":"RECRUITING","city":"Pune","state":"Maharashtra","zip":"411004","country":"India","contacts":[{"name":"Tushar Patil, Site 0049","role":"CONTACT","phone":"+919552522556"}],"geoPoint":{"lat":18.51957,"lon":73.85535}},{"facility":"Local Institution - 0220","status":"NOT_YET_RECRUITING","city":"Hyderabad","state":"Telangana","zip":"500082","country":"India","contacts":[{"name":"Site 0220","role":"CONTACT"}],"geoPoint":{"lat":17.38405,"lon":78.45636}},{"facility":"Cro-Irccs","status":"RECRUITING","city":"Aviano","state":"Friuli-Venezia Giulia","zip":"33081","country":"Italy","contacts":[{"name":"Alessandra Bearz, Site 0151","role":"CONTACT","phone":"390434659294"}],"geoPoint":{"lat":46.07056,"lon":12.59472}},{"facility":"Fondazione IRCCS Istituto Nazionale dei Tumori","status":"RECRUITING","city":"Milan","state":"Lombardia","zip":"20133","country":"Italy","contacts":[{"name":"Arsela Prelaj, Site 0152","role":"CONTACT","phone":"+390223903829"}],"geoPoint":{"lat":45.46427,"lon":9.18951}},{"facility":"Fondazione IRCCS San Gerardo dei Tintori","status":"RECRUITING","city":"Monza","state":"Lombardia","zip":"20900","country":"Italy","contacts":[{"name":"Diego Cortinovis, Site 0149","role":"CONTACT","phone":"390392333683"}],"geoPoint":{"lat":45.58005,"lon":9.27246}},{"facility":"A.O.R.N. Ospedale dei Colli - Monaldi V.","status":"RECRUITING","city":"Naples","state":"Napoli","zip":"80131","country":"Italy","contacts":[{"name":"Danilo Rocco, Site 0150","role":"CONTACT","phone":"390817064300"}],"geoPoint":{"lat":40.85216,"lon":14.26811}},{"facility":"Istituto Nazionale Tumori Regina Elena","status":"RECRUITING","city":"Rome","state":"Roma","zip":"00144","country":"Italy","contacts":[{"name":"Lorenza Landi, Site 0148","role":"CONTACT","phone":"+390652665075"}],"geoPoint":{"lat":41.89193,"lon":12.51133}},{"facility":"Nagoya University Hospital","status":"RECRUITING","city":"Nagoya","state":"Aichi","zip":"466-8560","country":"Japan","contacts":[{"name":"Junji Koyama, Site 0190","role":"CONTACT","phone":"81527412111"}],"geoPoint":{"lat":35.18147,"lon":136.90641}},{"facility":"National Cancer Center Hospital East","status":"RECRUITING","city":"Kashiwa","state":"Chiba","zip":"277-8577","country":"Japan","contacts":[{"name":"Koichi Goto, Site 0132","role":"CONTACT","phone":"81471331111"}],"geoPoint":{"lat":35.86224,"lon":139.97732}},{"facility":"National Hospital Organization Shikoku Cancer Center","status":"RECRUITING","city":"Matsuyama","state":"Ehime","zip":"791-0280","country":"Japan","contacts":[{"name":"Takashi Ninomiya, Site 0174","role":"CONTACT","phone":"+81899991111"}],"geoPoint":{"lat":33.83916,"lon":132.76574}},{"facility":"Hokkaido University Hospital","status":"RECRUITING","city":"Sapporo","state":"Hokkaido","zip":"060-8648","country":"Japan","contacts":[{"name":"Jun Sakakibara, Site 0163","role":"CONTACT","phone":"+81-11-716-1161"}],"geoPoint":{"lat":43.06667,"lon":141.35}},{"facility":"Kanagawa cancer center","status":"RECRUITING","city":"Yokohama","state":"Kanagawa","zip":"2418515","country":"Japan","contacts":[{"name":"Seigo Katakura, Site 0173","role":"CONTACT","phone":"0455202222"}],"geoPoint":{"lat":35.43333,"lon":139.65}},{"facility":"Sendai Kosei Hospital","status":"RECRUITING","city":"Sendai","state":"Miyagi","zip":"9800873","country":"Japan","contacts":[{"name":"Shunichi Sugawara, Site 0172","role":"CONTACT","phone":"81227288000"}],"geoPoint":{"lat":38.26667,"lon":140.86667}},{"facility":"Tokyo Metropolitan Komagome Hospital","status":"RECRUITING","city":"Bunkyo ku","state":"Tokyo","zip":"113-8677","country":"Japan","contacts":[{"name":"Yukio Hosomi, Site 0198","role":"CONTACT","phone":"81338232101"}],"geoPoint":{"lat":35.37517,"lon":139.92991}},{"facility":"Tottori University Hospital","status":"RECRUITING","city":"Yonago","state":"Tottori","zip":"683-8504","country":"Japan","contacts":[{"name":"Masahiro Kodani, Site 0159","role":"CONTACT","phone":"0859386292"}],"geoPoint":{"lat":35.43333,"lon":133.33333}},{"facility":"National Hospital Organization Kyushu Cancer Center","status":"RECRUITING","city":"Fukuoka","zip":"811-1395","country":"Japan","contacts":[{"name":"Masafumi Yamaguchi, Site 0195","role":"CONTACT","phone":"81925413231"}],"geoPoint":{"lat":33.6,"lon":130.41667}},{"facility":"Osaka City General Hospital","status":"RECRUITING","city":"Osaka","zip":"534-0021","country":"Japan","contacts":[{"name":"Haruko Daga, Site 0160","role":"CONTACT","phone":"81669293269"}],"geoPoint":{"lat":34.69374,"lon":135.50218}},{"facility":"Osaka International Cancer Institute","status":"RECRUITING","city":"Osaka","zip":"541-8567","country":"Japan","contacts":[{"name":"Kazumi Nishino, Site 0167","role":"CONTACT","phone":"81669721181"}],"geoPoint":{"lat":34.69374,"lon":135.50218}},{"facility":"Tokyo Metropolitan Police Hospital","status":"RECRUITING","city":"Tokyo","zip":"164-8541","country":"Japan","contacts":[{"name":"Hiromi Aono, Site 0208","role":"CONTACT","phone":"03-5343-5611"}],"geoPoint":{"lat":35.6895,"lon":139.69171}},{"facility":"Chungbuk National University Hospital","status":"RECRUITING","city":"Cheongju-si","state":"Chungcheongbuk-do [Chungbuk]","zip":"28644","country":"Korea, Republic of","contacts":[{"name":"Ki Hyeong Lee, Site 0062","role":"CONTACT","phone":"82432696015"}],"geoPoint":{"lat":36.63722,"lon":127.48972}},{"facility":"Seoul National University Bundang Hospital","status":"RECRUITING","city":"Seongnam","state":"Kyǒnggi-do","zip":"13620","country":"Korea, Republic of","contacts":[{"name":"Yu Jung Kim, Site 0081","role":"CONTACT","phone":"+82-31-787-7041"}],"geoPoint":{"lat":37.43861,"lon":127.13778}},{"facility":"Severance Hospital, Yonsei University Health System","status":"RECRUITING","city":"Seoul","state":"Seoul-teukbyeolsi [Seoul]","zip":"03722","country":"Korea, Republic of","contacts":[{"name":"Byoung Chul Cho, Site 0064","role":"CONTACT","phone":"82222288126"}],"geoPoint":{"lat":37.566,"lon":126.9784}},{"facility":"Asan Medical Center","status":"RECRUITING","city":"Seoul","state":"Seoul-teukbyeolsi [Seoul]","zip":"05505","country":"Korea, Republic of","contacts":[{"name":"Sang-We Kim, Site 0070","role":"CONTACT","phone":"82230103215"}],"geoPoint":{"lat":37.566,"lon":126.9784}},{"facility":"Samsung Medical Center","status":"RECRUITING","city":"Seoul","state":"Seoul-teukbyeolsi [Seoul]","zip":"06351","country":"Korea, Republic of","contacts":[{"name":"Myung-Ju Ahn, Site 0063","role":"CONTACT","phone":"82234103438"}],"geoPoint":{"lat":37.566,"lon":126.9784}},{"facility":"Local Institution - 0223","status":"NOT_YET_RECRUITING","city":"Kuala Lumpur","state":"Wilayah Persekutuan Kuala Lumpur","zip":"50586","country":"Malaysia","contacts":[{"name":"Site 0223","role":"CONTACT"}],"geoPoint":{"lat":3.1412,"lon":101.68653}},{"facility":"Local Institution - 0237","status":"WITHDRAWN","city":"Kuala Lumpur","state":"Wilayah Persekutuan Kuala Lumpur","zip":"50586","country":"Malaysia","geoPoint":{"lat":3.1412,"lon":101.68653}},{"facility":"Local Institution - 0222","status":"NOT_YET_RECRUITING","city":"Lembah Pantai","state":"Wilayah Persekutuan Kuala Lumpur","zip":"59100","country":"Malaysia","contacts":[{"name":"Site 0222","role":"CONTACT"}]},{"facility":"Local Institution - 0226","status":"WITHDRAWN","city":"Lembah Pantai","state":"Wilayah Persekutuan Kuala Lumpur","zip":"59100","country":"Malaysia"},{"facility":"Local Institution - 0224","status":"NOT_YET_RECRUITING","city":"Putrajaya","state":"Wilayah Persekutuan Kuala Lumpur","zip":"62250","country":"Malaysia","contacts":[{"name":"Site 0224","role":"CONTACT"}],"geoPoint":{"lat":2.93527,"lon":101.69112}},{"facility":"Amsterdam UMC, locatie VUmc","status":"RECRUITING","city":"Amsterdam","state":"Noord-Holland","zip":"1081 HV","country":"Netherlands","contacts":[{"name":"Sayed Hashemi, Site 0216","role":"CONTACT","phone":"0641292051"}],"geoPoint":{"lat":52.37403,"lon":4.88969}},{"facility":"Local Institution - 0215","status":"WITHDRAWN","city":"Groningen","zip":"9713 GZ","country":"Netherlands","geoPoint":{"lat":53.21917,"lon":6.56667}},{"facility":"Instytut Genetyki i Immunologii GENIM","status":"RECRUITING","city":"Lublin","state":"Lubelskie","zip":"20-609","country":"Poland","contacts":[{"name":"Izabela Chmielewska, Site 0187","role":"CONTACT","phone":"+504051512"}],"geoPoint":{"lat":51.25,"lon":22.56667}},{"facility":"Warmińsko - Mazurskie Centrum Chorób Płuc w Olsztynie","status":"RECRUITING","city":"Olsztyn","state":"Warmińsko-mazurskie","zip":"10-357","country":"Poland","contacts":[{"name":"Jaroslaw Kolb-Sielecki, Site 0196","role":"CONTACT","phone":"48895322978"}],"geoPoint":{"lat":53.77995,"lon":20.49416}},{"facility":"SC Memorial Healthcare International SRL","status":"RECRUITING","city":"Bucharest","state":"București","zip":"013812","country":"Romania","contacts":[{"name":"Ingrid Iordan, Site 0030","role":"CONTACT","phone":"40721298677"}],"geoPoint":{"lat":44.43225,"lon":26.10626}},{"facility":"Institutul Oncologic Bucuresti","status":"RECRUITING","city":"Bucharest","state":"București","zip":"022328","country":"Romania","contacts":[{"name":"Aurelia Alexandru, Site 0066","role":"CONTACT","phone":"40723289606"}],"geoPoint":{"lat":44.43225,"lon":26.10626}},{"facility":"Centrul de Oncologie \"Sfântul Nectarie\"","status":"RECRUITING","city":"Craiova","state":"Dolj","zip":"200746","country":"Romania","contacts":[{"name":"Michael Schenker, Site 0031","role":"CONTACT","phone":"40727774974"}],"geoPoint":{"lat":44.31667,"lon":23.8}},{"facility":"Institutul Oncologic Cluj","status":"RECRUITING","city":"Cluj","zip":"400015","country":"Romania","contacts":[{"name":"Tudor Ciuleanu, Site 0122","role":"CONTACT","phone":"40745646368"}],"geoPoint":{"lat":46.76667,"lon":23.6}},{"facility":"S.C. Centrul de Oncologie Euroclinic S.R.L.","status":"RECRUITING","city":"Iași","zip":"700106","country":"Romania","contacts":[{"name":"Constantin Volovat, Site 0067","role":"CONTACT","phone":"40746110096"}],"geoPoint":{"lat":47.16667,"lon":27.6}},{"facility":"CHUAC-Hospital Teresa Herrera","status":"RECRUITING","city":"A Coruña","state":"A Coruña [La Coruña]","zip":"15006","country":"Spain","contacts":[{"name":"Maria Garcia Campelo, Site 0141","role":"CONTACT","phone":"34981178353"}],"geoPoint":{"lat":43.37135,"lon":-8.396}},{"facility":"CHUS - Hospital Clinico Universitario","status":"RECRUITING","city":"Santiago de Compostela","state":"A Coruña [La Coruña]","zip":"15706","country":"Spain","contacts":[{"name":"Jorge Garcia Gonzalez, Site 0138","role":"CONTACT","phone":"34981950511"}],"geoPoint":{"lat":42.88052,"lon":-8.54569}},{"facility":"Hospital Universitari Vall d'Hebron","status":"RECRUITING","city":"Barcelona","state":"Barcelona [Barcelona]","zip":"08035","country":"Spain","contacts":[{"name":"Enriqueta Felip Font, Site 0140","role":"CONTACT","phone":"34932746077"}],"geoPoint":{"lat":41.38879,"lon":2.15899}},{"facility":"Hospital Universitario 12 de Octubre","status":"RECRUITING","city":"Madrid","state":"Madrid, Comunidad De","zip":"28041","country":"Spain","contacts":[{"name":"Jon Zugazagoitia Fraile, Site 0137","role":"CONTACT","phone":"913908714"}],"geoPoint":{"lat":40.4165,"lon":-3.70256}},{"facility":"Hospital Universitario Puerta de Hierro Majadahonda","status":"RECRUITING","city":"Majadahonda","state":"Madrid, Comunidad De","zip":"28222","country":"Spain","contacts":[{"name":"Mariano Provencio Pulla, Site 0139","role":"CONTACT","phone":"34911917759"}],"geoPoint":{"lat":40.47353,"lon":-3.87182}},{"facility":"H.R.U Málaga - Hospital General","status":"RECRUITING","city":"Málaga","zip":"29011","country":"Spain","contacts":[{"name":"Alexandra Cantero Gonzalez, Site 0142","role":"CONTACT","phone":"(+34)951308130"}],"geoPoint":{"lat":36.72016,"lon":-4.42034}},{"facility":"Hospital Universitario Virgen Del Rocio","status":"RECRUITING","city":"Sevilla","zip":"41013","country":"Spain","contacts":[{"name":"Reyes Bernabe Caro, Site 0144","role":"CONTACT","phone":"34955015273"}],"geoPoint":{"lat":37.38283,"lon":-5.97317}},{"facility":"Hospital Universitari i Politecnic La Fe","status":"RECRUITING","city":"València","zip":"46026","country":"Spain","contacts":[{"name":"Oscar Juan Vidal, Site 0143","role":"CONTACT","phone":"34663976139"}],"geoPoint":{"lat":39.46975,"lon":-0.37739}},{"facility":"Kantonspital Baden","status":"RECRUITING","city":"Baden","state":"Aargau","zip":"5404","country":"Switzerland","contacts":[{"name":"Sacha Rothschild, Site 0077","role":"CONTACT","phone":"0041564862762"}],"geoPoint":{"lat":47.47333,"lon":8.30592}},{"facility":"Ankara Bilkent Şehir Hastanesi","status":"RECRUITING","city":"Yenimahalle","state":"Ankara","zip":"06200","country":"Turkey","contacts":[{"name":"Mehmet Ali Nahit Sendur, Site 0086","role":"CONTACT","phone":"905555306271"}]},{"facility":"Adana Medical Park Seyhan Hastanesi","status":"RECRUITING","city":"Adana","zip":"01140","country":"Turkey","contacts":[{"name":"Ahmet Taner Sumbul, Site 0088","role":"CONTACT","phone":"905056166338"}],"geoPoint":{"lat":37.00167,"lon":35.32889}},{"facility":"Sbü Gülhane Eğitim Ve Araştirma Hastanesi","status":"RECRUITING","city":"Ankara","zip":"06010","country":"Turkey","contacts":[{"name":"Nuri Karadurmus, Site 0084","role":"CONTACT","phone":"905366401020"}],"geoPoint":{"lat":39.91987,"lon":32.85427}},{"facility":"Medipol Mega Universite Hastanesi","status":"RECRUITING","city":"Istanbul","zip":"34214","country":"Turkey","contacts":[{"name":"Omer Olmez, Site 0087","role":"CONTACT","phone":"905053195935"}],"geoPoint":{"lat":41.01384,"lon":28.94966}},{"facility":"T.C. Saglik Bakanligi Turkiye Kamu Hastaneleri Kurumu - Bakirkoy Dr. Sadi Konuk Egitim ve Arastirma Hastanesi","status":"RECRUITING","city":"Istanbul","zip":"34440","country":"Turkey","contacts":[{"name":"Mesut Yilmaz, Site 0097","role":"CONTACT","phone":"905069764412"}],"geoPoint":{"lat":41.01384,"lon":28.94966}},{"facility":"VM Medical Park Pendik Hospital","status":"RECRUITING","city":"Istanbul","zip":"34899","country":"Turkey","contacts":[{"name":"Cemil Bilir, Site 0083","role":"CONTACT","phone":"+905052014666"}],"geoPoint":{"lat":41.01384,"lon":28.94966}},{"facility":"Sakarya Training and Research Hospital","status":"RECRUITING","city":"Sakarya","zip":"0","country":"Turkey","contacts":[{"name":"Ilhan Hacibekiroglu, Site 0085","role":"CONTACT","phone":"905054785576"}]}]},"referencesModule":{"seeAlsoLinks":[{"label":"BMS Clinical Trial Information","url":"https://www.bms.com/researchers-and-partners/clinical-trials-and-research.html"},{"label":"BMS Clinical Trial Patient Recruiting","url":"https://www.bmsclinicaltrials.com/us/en/clinical-trials/NCT06140836.html"}]}},"derivedSection":{"miscInfoModule":{"versionHolder":"2025-07-07"},"conditionBrowseModule":{"meshes":[{"id":"D008175","term":"Lung Neoplasms"},{"id":"D002289","term":"Carcinoma, Non-Small-Cell Lung"}],"ancestors":[{"id":"D012142","term":"Respiratory Tract Neoplasms"},{"id":"D013899","term":"Thoracic Neoplasms"},{"id":"D009371","term":"Neoplasms by Site"},{"id":"D009369","term":"Neoplasms"},{"id":"D008171","term":"Lung Diseases"},{"id":"D012140","term":"Respiratory Tract Diseases"},{"id":"D002283","term":"Carcinoma, Bronchogenic"},{"id":"D001984","term":"Bronchial Neoplasms"}],"browseLeaves":[{"id":"M11172","name":"Lung Neoplasms","asFound":"Lung Cancer","relevance":"HIGH"},{"id":"M5546","name":"Carcinoma, Non-Small-Cell Lung","asFound":"Carcinoma, Non-Small-Cell Lung","relevance":"HIGH"},{"id":"M5534","name":"Carcinoma","relevance":"LOW"},{"id":"M14979","name":"Respiratory Tract Neoplasms","relevance":"LOW"},{"id":"M16658","name":"Thoracic Neoplasms","relevance":"LOW"},{"id":"M11168","name":"Lung Diseases","relevance":"LOW"},{"id":"M14977","name":"Respiratory Tract Diseases","relevance":"LOW"},{"id":"M5540","name":"Carcinoma, Bronchogenic","relevance":"LOW"},{"id":"M5260","name":"Bronchial Neoplasms","relevance":"LOW"}],"browseBranches":[{"abbrev":"BC04","name":"Neoplasms"},{"abbrev":"BC08","name":"Respiratory Tract (Lung and Bronchial) Diseases"},{"abbrev":"All","name":"All Conditions"}]},"interventionBrowseModule":{"meshes":[{"id":"D000077547","term":"Crizotinib"}],"ancestors":[{"id":"D000092004","term":"Tyrosine Kinase Inhibitors"},{"id":"D047428","term":"Protein Kinase Inhibitors"},{"id":"D004791","term":"Enzyme Inhibitors"},{"id":"D045504","term":"Molecular Mechanisms of Pharmacological Action"},{"id":"D000970","term":"Antineoplastic Agents"}],"browseLeaves":[{"id":"M2889","name":"Tyrosine Kinase Inhibitors","relevance":"LOW"},{"id":"M1825","name":"Crizotinib","asFound":"Secretion","relevance":"HIGH"},{"id":"M25820","name":"Protein Kinase Inhibitors","relevance":"LOW"},{"id":"M7951","name":"Enzyme Inhibitors","relevance":"LOW"},{"id":"T22","name":"Tyrosine","relevance":"LOW"}],"browseBranches":[{"abbrev":"All","name":"All Drugs and Chemicals"},{"abbrev":"ANeo","name":"Antineoplastic Agents"},{"abbrev":"AA","name":"Amino Acids"}]}},"hasResults":false}