{"protocolSection":{"identificationModule":{"nctId":"NCT06356129","orgStudyIdInfo":{"id":"CA073-1020"},"secondaryIdInfos":[{"id":"2023-510178-15","type":"REGISTRY","domain":"EU CT Number"},{"id":"U1111-1300-8493","type":"REGISTRY","domain":"UTN"}],"organization":{"fullName":"Celgene","class":"INDUSTRY"},"briefTitle":"Study to Compare the Effectiveness and Safety of Golcadomide Plus R-CHOP vs Placebo Plus R-CHOP in Participants With Previously Untreated High-risk Large B-cell Lymphoma","officialTitle":"A Phase 3, Multicenter, Randomized, Double-blind, Placebo-controlled Study Comparing the Efficacy and Safety of Golcadomide Plus R-CHOP Chemotherapy vs Placebo Plus R-CHOP Chemotherapy in Participants With Previously Untreated High-risk Large B-cell Lymphoma (GOLSEEK-1)","acronym":"GOLSEEK-1"},"statusModule":{"statusVerifiedDate":"2025-06","overallStatus":"RECRUITING","expandedAccessInfo":{"hasExpandedAccess":false},"startDateStruct":{"date":"2024-06-19","type":"ACTUAL"},"primaryCompletionDateStruct":{"date":"2028-08-14","type":"ESTIMATED"},"completionDateStruct":{"date":"2029-11-20","type":"ESTIMATED"},"studyFirstSubmitDate":"2024-03-27","studyFirstSubmitQcDate":"2024-04-08","studyFirstPostDateStruct":{"date":"2024-04-10","type":"ACTUAL"},"lastUpdateSubmitDate":"2025-06-09","lastUpdatePostDateStruct":{"date":"2025-06-12","type":"ACTUAL"}},"sponsorCollaboratorsModule":{"responsibleParty":{"type":"SPONSOR"},"leadSponsor":{"name":"Celgene","class":"INDUSTRY"}},"oversightModule":{"oversightHasDmc":true,"isFdaRegulatedDrug":true,"isFdaRegulatedDevice":false},"descriptionModule":{"briefSummary":"The purpose of this study is to compare the effectiveness and safety of golcadomide in combination with rituximab, cyclophosphamide, doxorubicin, vincristine, and prednisone (R-CHOP) chemotherapy vs placebo in combination with R-CHOP chemotherapy in participants with previously untreated high-risk large B-cell lymphoma (LBCL)."},"conditionsModule":{"conditions":["Large B-cell Lymphoma"],"keywords":["Lymphoma, Large B-Cell","Lymphoma","BMS-986369","CC-99282","DLBCL"]},"designModule":{"studyType":"INTERVENTIONAL","phases":["PHASE3"],"designInfo":{"allocation":"RANDOMIZED","interventionModel":"PARALLEL","primaryPurpose":"TREATMENT","maskingInfo":{"masking":"QUADRUPLE","whoMasked":["PARTICIPANT","CARE_PROVIDER","INVESTIGATOR","OUTCOMES_ASSESSOR"]}},"enrollmentInfo":{"count":850,"type":"ESTIMATED"}},"armsInterventionsModule":{"armGroups":[{"label":"Golcadomide + R-CHOP (Rituximab, Doxorubicin, Vincristine, Cyclophosphamide, Prednisone)","type":"EXPERIMENTAL","interventionNames":["Drug: Golcadomide","Drug: Rituximab","Drug: Cyclophosphamide","Drug: Doxorubicin","Drug: Vincristine","Drug: Prednisone"]},{"label":"Placebo + R-CHOP","type":"PLACEBO_COMPARATOR","interventionNames":["Drug: Placebo","Drug: Rituximab","Drug: Cyclophosphamide","Drug: Doxorubicin","Drug: Vincristine","Drug: Prednisone"]}],"interventions":[{"type":"DRUG","name":"Golcadomide","description":"Specified dose on specified days","armGroupLabels":["Golcadomide + R-CHOP (Rituximab, Doxorubicin, Vincristine, Cyclophosphamide, Prednisone)"],"otherNames":["BMS-986369","CC-99282"]},{"type":"DRUG","name":"Placebo","description":"Specified dose on specified days","armGroupLabels":["Placebo + R-CHOP"]},{"type":"DRUG","name":"Rituximab","description":"Specified dose on specified days","armGroupLabels":["Golcadomide + R-CHOP (Rituximab, Doxorubicin, Vincristine, Cyclophosphamide, Prednisone)","Placebo + R-CHOP"]},{"type":"DRUG","name":"Cyclophosphamide","description":"Specified dose on specified days","armGroupLabels":["Golcadomide + R-CHOP (Rituximab, Doxorubicin, Vincristine, Cyclophosphamide, Prednisone)","Placebo + R-CHOP"]},{"type":"DRUG","name":"Doxorubicin","description":"Specified dose on specified days","armGroupLabels":["Golcadomide + R-CHOP (Rituximab, Doxorubicin, Vincristine, Cyclophosphamide, Prednisone)","Placebo + R-CHOP"]},{"type":"DRUG","name":"Vincristine","description":"Specified dose on specified days","armGroupLabels":["Golcadomide + R-CHOP (Rituximab, Doxorubicin, Vincristine, Cyclophosphamide, Prednisone)","Placebo + R-CHOP"]},{"type":"DRUG","name":"Prednisone","description":"Specified dose on specified days","armGroupLabels":["Golcadomide + R-CHOP (Rituximab, Doxorubicin, Vincristine, Cyclophosphamide, Prednisone)","Placebo + R-CHOP"]}]},"outcomesModule":{"primaryOutcomes":[{"measure":"Progression-free survival (PFS) assessed by the Investigator","timeFrame":"Up to approximately 67 months"}],"secondaryOutcomes":[{"measure":"PFS assessed by the Investigator","timeFrame":"Up to approximately 67 months"},{"measure":"Overall survival (OS)","timeFrame":"Up to approximately 67 months"},{"measure":"Event-free survival (EFS)","timeFrame":"Up to approximately 67 months"},{"measure":"Complete Metabolic Response assessed by the Independent Response Adjudication Committee (IRAC)","timeFrame":"Up to approximately 18 weeks"},{"measure":"Minimal residual disease (MRD) negativity rate","timeFrame":"Up to approximately 18 weeks"},{"measure":"Progression-free survival (PFS) assessed by the IRAC","timeFrame":"Up to approximately 47 months"},{"measure":"Objective response (OR) assessed by the Investigator","timeFrame":"Up to approximately 18 weeks"},{"measure":"Complete metabolic response (CMR) assessed by the Investigator","timeFrame":"Up to approximately 18 weeks"},{"measure":"PFS24 assessed by the Investigator 24 months after randomization","timeFrame":"Up to 24 months"},{"measure":"Duration of response (DoR)","timeFrame":"Up to approximately 67 months"},{"measure":"Second progression-free survival (PFS2) assessed by the Investigator","timeFrame":"Up to approximately 67 months"},{"measure":"Relative dose intensity (%)","timeFrame":"Up to 18 weeks"},{"measure":"Time from randomization to meaningful improvement in primary domains of interest in the European Organization for Research and Treatment of Cancer - Quality of Life C30 (EORTC QLQ-C30) Questionnaire","timeFrame":"Up to approximately 67 months"},{"measure":"Time from randomization to meaningful improvement in primary domains of interest in the Functional Assessment of Cancer Treatment-Lymphoma (FACT-LymS) Questionnaire","timeFrame":"Up to approximately 67 months"},{"measure":"Mean change from baseline in the EORTC QLQ-C30","timeFrame":"Up to approximately 67 months"},{"measure":"Mean change from baseline in the FACT-LymS","timeFrame":"Up to approximately 67 months"},{"measure":"Number of participants with Adverse Events (AEs)","timeFrame":"Up to approximately 20 weeks"},{"measure":"Number of participants with treatment-emergent adverse events (TEAEs)","timeFrame":"Up to approximately 20 weeks"},{"measure":"Number of participants with laboratory abnormalities","timeFrame":"Up to approximately 20 weeks"},{"measure":"Number of participants with vital sign abnormalities","timeFrame":"Up to approximately 20 weeks"}]},"eligibilityModule":{"eligibilityCriteria":"Inclusion Criteria:\n\n- Histologically confirmed (per local evaluation) diagnosis of de novo, previously untreated large B-cell lymphoma (LBCL) according to 2022 world health organization (WHO) classification including:\n\ni) Diffuse large B-cell lymphoma (DLBCL), not otherwise specified \\[including germinal center B-cell (GCB) and activated B-cell (ABC) types\\]\n\nii) High-grade B-cell lymphoma, with MYC and BCL2 rearrangements (HGBL-MYC/BCL2 double-hit lymphomas)\n\niii) High-grade B-cell lymphoma, not otherwise specified\n\niv) T-cell/histiocyte/rich large B-cell lymphoma (THRLBCL)\n\nv) Epstein-Barr virus + DLBCL\n\n* International Prognostic Index (IPI) score 1 or 2 with lactate dehydrogenase (LDH) \\> 1.3 x upper limit of normal (ULN) and/or bulky disease defined as single lesion of ≥ 7 cm OR IPI ≥ 3.\n* Measurable disease defined by at least 1 fluorodeoxyglucose (FDG)-avid lesion for FDG-avid subtype and 1 bi-dimensionally measurable (\\> 1.5 cm in longest diameter) disease by computed tomography (CT) or magnetic resonance imaging (MRI), as defined by the Lugano classification.\n* Must have Ann Arbor Stage II-IV disease.\n\nExclusion Criteria:\n\n* Any significant medical condition, active infection, laboratory abnormality, or psychiatric illness that would prevent the participant from participating in the study.\n* Any other subtype of lymphoma. Cases of primary mediastinal (thymic) large B-cell lymphoma (PMBCL), primary cutaneous DLBCL-leg type, Grade 3b FL, indolent lymphoma transformed to large B-cell lymphoma (LBCL), Anaplastic lymphoma kinase (ALK) positive large B-cell lymphoma, primary effusion lymphoma, and Burkitt lymphoma.\n* Documented or suspected central nervous system (CNS) involvement by lymphoma.\n* Other protocol-defined Inclusion/Exclusion criteria apply.","healthyVolunteers":false,"sex":"ALL","minimumAge":"18 Years","maximumAge":"80 Years","stdAges":["ADULT","OLDER_ADULT"]},"contactsLocationsModule":{"centralContacts":[{"name":"BMS Clinical Trials Contact Center www.BMSClinicalTrials.com","role":"CONTACT","phone":"855-907-3286","email":"Clinical.Trials@bms.com"},{"name":"First line of the email MUST contain the NCT# and Site #.","role":"CONTACT"}],"overallOfficials":[{"name":"Bristol-Myers Squibb","affiliation":"Bristol-Myers Squibb","role":"STUDY_DIRECTOR"}],"locations":[{"facility":"USA Mitchell Cancer Institute","status":"RECRUITING","city":"Mobile","state":"Alabama","zip":"36604","country":"United States","contacts":[{"name":"Omar Alkharabsheh, Site 0014","role":"CONTACT","phone":"251-665-8000"}],"geoPoint":{"lat":30.69436,"lon":-88.04305}},{"facility":"Alaska Oncology and Hematology","status":"RECRUITING","city":"Anchorage","state":"Alaska","zip":"99508","country":"United States","contacts":[{"name":"Steven Liu, Site 0477","role":"CONTACT","phone":"907-257-9851"}],"geoPoint":{"lat":61.21806,"lon":-149.90028}},{"facility":"Mayo Clinic in Arizona - Phoenix","status":"RECRUITING","city":"Phoenix","state":"Arizona","zip":"85054","country":"United States","contacts":[{"name":"Javier Munoz, Site 0452","role":"CONTACT","phone":"480-342-2000"}],"geoPoint":{"lat":33.44838,"lon":-112.07404}},{"facility":"Local Institution - 0342","status":"NOT_YET_RECRUITING","city":"San Francisco","state":"California","zip":"94143","country":"United States","contacts":[{"name":"Site 0342","role":"CONTACT"}],"geoPoint":{"lat":37.77493,"lon":-122.41942}},{"facility":"Florida Cancer Specialists - South","status":"RECRUITING","city":"Fort Myers","state":"Florida","zip":"33901","country":"United States","contacts":[{"name":"Syed Zafar, Site 0497","role":"CONTACT","phone":"239-274-9930"}],"geoPoint":{"lat":26.62168,"lon":-81.84059}},{"facility":"Mayo Clinic in Florida","status":"RECRUITING","city":"Jacksonville","state":"Florida","zip":"32224","country":"United States","contacts":[{"name":"Muhamad Alhaj Moustafa, Site 0287","role":"CONTACT","phone":"904-953-2000"}],"geoPoint":{"lat":30.33218,"lon":-81.65565}},{"facility":"D&H Cancer Research Center LLC","status":"RECRUITING","city":"Margate","state":"Florida","zip":"33063","country":"United States","contacts":[{"name":"David Kahn, Site 0415","role":"CONTACT","phone":"954-323-2422"}],"geoPoint":{"lat":26.24453,"lon":-80.20644}},{"facility":"Mount Sinai Cancer Center","status":"RECRUITING","city":"Miami Beach","state":"Florida","zip":"33140","country":"United States","contacts":[{"name":"Jacqueline Barrientos, Site 0045","role":"CONTACT","phone":"305-674-2625"}],"geoPoint":{"lat":25.79065,"lon":-80.13005}},{"facility":"Sacred Heart Medical Oncology Group","status":"RECRUITING","city":"Pensacola","state":"Florida","zip":"32504","country":"United States","contacts":[{"name":"Alex Brown, Site 0012","role":"CONTACT","phone":"850-416-6316"}],"geoPoint":{"lat":30.42131,"lon":-87.21691}},{"facility":"Florida Cancer Specialists - North","status":"RECRUITING","city":"Saint Petersburg","state":"Florida","zip":"33705","country":"United States","contacts":[{"name":"Susmitha Apuri, Site 0502","role":"CONTACT","phone":"352-746-0707"}],"geoPoint":{"lat":27.77086,"lon":-82.67927}},{"facility":"Moffitt Cancer Center","status":"RECRUITING","city":"Tampa","state":"Florida","zip":"33612","country":"United States","contacts":[{"name":"Julio Chavez, Site 0414","role":"CONTACT","phone":"813-745-8172"}],"geoPoint":{"lat":27.94752,"lon":-82.45843}},{"facility":"Florida Cancer Specialists - East","status":"RECRUITING","city":"West Palm Beach","state":"Florida","zip":"33401","country":"United States","contacts":[{"name":"Shachar Peles, Site 0192","role":"CONTACT","phone":"561-366-4100"}],"geoPoint":{"lat":26.71534,"lon":-80.05337}},{"facility":"Cleveland Clinic Florida","status":"RECRUITING","city":"Weston","state":"Florida","zip":"33331","country":"United States","contacts":[{"name":"Chakra Chaulagain, Site 0485","role":"CONTACT","phone":"954-487-2124"}],"geoPoint":{"lat":26.10037,"lon":-80.39977}},{"facility":"Emory University School of Medicine- Grady Campus","status":"RECRUITING","city":"Atlanta","state":"Georgia","zip":"30303","country":"United States","contacts":[{"name":"Carlos Lopez, Site 0515","role":"CONTACT","phone":"404-778-1394"}],"geoPoint":{"lat":33.749,"lon":-84.38798}},{"facility":"Winship Cancer Institute, Emory University","status":"RECRUITING","city":"Atlanta","state":"Georgia","zip":"30322","country":"United States","contacts":[{"name":"Carlos Lopez, Site 0303","role":"CONTACT","phone":"404-778-1394"}],"geoPoint":{"lat":33.749,"lon":-84.38798}},{"facility":"Local Institution - 0182","status":"NOT_YET_RECRUITING","city":"Chicago","state":"Illinois","zip":"60611","country":"United States","contacts":[{"name":"Site 0182","role":"CONTACT"}],"geoPoint":{"lat":41.85003,"lon":-87.65005}},{"facility":"Orchard Healthcare Research Inc.","status":"RECRUITING","city":"Skokie","state":"Illinois","zip":"60077","country":"United States","contacts":[{"name":"Ira Oliff, Site 0048","role":"CONTACT","phone":"224-534-7580"}],"geoPoint":{"lat":42.03336,"lon":-87.73339}},{"facility":"Mission Cancer + Blood","status":"RECRUITING","city":"Waukee","state":"Iowa","zip":"50309","country":"United States","contacts":[{"name":"Tara Graff, Site 0461","role":"CONTACT","phone":"859-224-3194"}],"geoPoint":{"lat":41.61166,"lon":-93.88523}},{"facility":"The University of Kansas Cancer Center - Westwood","status":"RECRUITING","city":"Westwood","state":"Kansas","zip":"66205","country":"United States","contacts":[{"name":"Marc Hoffmann, Site 0031","role":"CONTACT","phone":"913-574-2650"}],"geoPoint":{"lat":39.04056,"lon":-94.6169}},{"facility":"Local Institution - 0436","status":"NOT_YET_RECRUITING","city":"Edgewood","state":"Kentucky","zip":"41017","country":"United States","contacts":[{"name":"Site 0436","role":"CONTACT"}],"geoPoint":{"lat":39.01867,"lon":-84.58189}},{"facility":"Mary Bird Perkins Cancer Center Baton Rouge","status":"RECRUITING","city":"Baton Rouge","state":"Louisiana","zip":"70809","country":"United States","contacts":[{"name":"Victor Lin, Site 0408","role":"CONTACT","phone":"225-215-1185"}],"geoPoint":{"lat":30.45075,"lon":-91.15455}},{"facility":"University of Michigan","status":"RECRUITING","city":"Ann Arbor","state":"Michigan","zip":"48109","country":"United States","contacts":[{"name":"Jonathan Weiss, Site 0478","role":"CONTACT","phone":"810-624-5878"}],"geoPoint":{"lat":42.27756,"lon":-83.74088}},{"facility":"Allina Health Cancer Institute - Abbott Northwestern Hospital","status":"RECRUITING","city":"Minneapolis","state":"Minnesota","zip":"55407","country":"United States","contacts":[{"name":"Fiona He, Site 0067","role":"CONTACT","phone":"612-863-0200"}],"geoPoint":{"lat":44.97997,"lon":-93.26384}},{"facility":"Mayo Clinic in Rochester, Minnesota","status":"RECRUITING","city":"Rochester","state":"Minnesota","zip":"55905","country":"United States","contacts":[{"name":"Grzegorz Nowakowski, Site 0203","role":"CONTACT","phone":"507-284-2511"}],"geoPoint":{"lat":44.02163,"lon":-92.4699}},{"facility":"Local Institution - 0437","status":"NOT_YET_RECRUITING","city":"Kansas City","state":"Missouri","zip":"64132","country":"United States","contacts":[{"name":"Site 0437","role":"CONTACT"}],"geoPoint":{"lat":39.09973,"lon":-94.57857}},{"facility":"Cancer Care Specialists","status":"RECRUITING","city":"Reno","state":"Nevada","zip":"89511","country":"United States","contacts":[{"name":"Santhosh Ambika, Site 0466","role":"CONTACT","phone":"775-329-0222"}],"geoPoint":{"lat":39.52963,"lon":-119.8138}},{"facility":"Astera Cancer Care","status":"RECRUITING","city":"East Brunswick","state":"New Jersey","zip":"08816","country":"United States","contacts":[{"name":"Bruno Fang, Site 0498","role":"CONTACT","phone":"732-672-6405"}],"geoPoint":{"lat":40.42788,"lon":-74.41598}},{"facility":"Local Institution - 0480","status":"NOT_YET_RECRUITING","city":"Hackensack","state":"New Jersey","zip":"07601","country":"United States","contacts":[{"name":"Site 0480","role":"CONTACT"}],"geoPoint":{"lat":40.88593,"lon":-74.04347}},{"facility":"Atlantic Health System Morristown Medical Center","status":"RECRUITING","city":"Morristown","state":"New Jersey","zip":"07960","country":"United States","contacts":[{"name":"Charles Farber, Site 0049","role":"CONTACT","phone":"973-971-7960"}],"geoPoint":{"lat":40.79677,"lon":-74.48154}},{"facility":"Rutgers Cancer Institute of New Jersey","status":"RECRUITING","city":"New Brunswick","state":"New Jersey","zip":"08901","country":"United States","contacts":[{"name":"Yun Kyoung Tiger, Site 0175","role":"CONTACT","phone":"732-790-4813"}],"geoPoint":{"lat":40.48622,"lon":-74.45182}},{"facility":"Local Institution - 0190","status":"NOT_YET_RECRUITING","city":"Buffalo","state":"New York","zip":"14263","country":"United States","contacts":[{"name":"Site 0190","role":"CONTACT"}],"geoPoint":{"lat":42.88645,"lon":-78.87837}},{"facility":"Hematology-Oncology Associates of Central New York, PC","status":"RECRUITING","city":"East Syracuse","state":"New York","zip":"13057","country":"United States","contacts":[{"name":"Tarek Sousou, Site 0451","role":"CONTACT","phone":"315-472-7504"}],"geoPoint":{"lat":43.06534,"lon":-76.07853}},{"facility":"Local Institution - 0484","status":"NOT_YET_RECRUITING","city":"New York","state":"New York","zip":"10016","country":"United States","contacts":[{"name":"Site 0484","role":"CONTACT"}],"geoPoint":{"lat":40.71427,"lon":-74.00597}},{"facility":"Local Institution - 0369","status":"NOT_YET_RECRUITING","city":"New York","state":"New York","zip":"10028","country":"United States","contacts":[{"name":"Site 0369","role":"CONTACT"}],"geoPoint":{"lat":40.71427,"lon":-74.00597}},{"facility":"Icahn School of Medicine at Mount Sinai","status":"RECRUITING","city":"New York","state":"New York","zip":"10029","country":"United States","contacts":[{"name":"Suchitra Sundaram, Site 0176","role":"CONTACT","phone":"347-263-1843"}],"geoPoint":{"lat":40.71427,"lon":-74.00597}},{"facility":"Local Institution - 0174","status":"NOT_YET_RECRUITING","city":"Chapel Hill","state":"North Carolina","zip":"27599","country":"United States","contacts":[{"name":"Site 0174","role":"CONTACT"}],"geoPoint":{"lat":35.9132,"lon":-79.05584}},{"facility":"Local Institution - 0066","status":"NOT_YET_RECRUITING","city":"Massillon","state":"Ohio","zip":"44646","country":"United States","contacts":[{"name":"Site 0066","role":"CONTACT"}],"geoPoint":{"lat":40.79672,"lon":-81.52151}},{"facility":"Oklahoma Cancer Specialists and Research Institute","status":"RECRUITING","city":"Tulsa","state":"Oklahoma","zip":"74146","country":"United States","contacts":[{"name":"Caleb Scheckel, Site 0450","role":"CONTACT","phone":"918-505-3200"}],"geoPoint":{"lat":36.15398,"lon":-95.99277}},{"facility":"Oregon Health and Science University","status":"RECRUITING","city":"Portland","state":"Oregon","zip":"97239","country":"United States","contacts":[{"name":"Craig Okada, Site 0179","role":"CONTACT","phone":"503-494-8397"}],"geoPoint":{"lat":45.52345,"lon":-122.67621}},{"facility":"UPMC Hillman Cancer Center","status":"RECRUITING","city":"Pittsburgh","state":"Pennsylvania","zip":"15232","country":"United States","contacts":[{"name":"Natalie Galanina, Site 0009","role":"CONTACT","phone":"415-572-9678"}],"geoPoint":{"lat":40.44062,"lon":-79.99589}},{"facility":"WellSpan Oncology Research","status":"RECRUITING","city":"York","state":"Pennsylvania","zip":"17403","country":"United States","contacts":[{"name":"Ikechukwu Akunyili, Site 0419","role":"CONTACT","phone":"717-339-2560"}],"geoPoint":{"lat":39.9626,"lon":-76.72774}},{"facility":"Brooke Army Medical Center","status":"RECRUITING","city":"Fort Sam Houston","state":"Texas","zip":"78234","country":"United States","contacts":[{"name":"Michael osswald, Site 0435","role":"CONTACT","phone":"210-296-1949"}],"geoPoint":{"lat":29.45746,"lon":-98.4472}},{"facility":"Memorial Hermann Hospital - Texas Medical Center","status":"RECRUITING","city":"Houston","state":"Texas","zip":"77030","country":"United States","contacts":[{"name":"Adan Rios, Site 0424","role":"CONTACT","phone":"832-325-7706"}],"geoPoint":{"lat":29.76328,"lon":-95.36327}},{"facility":"University of Texas MD Anderson Cancer Center","status":"RECRUITING","city":"Houston","state":"Texas","zip":"77030","country":"United States","contacts":[{"name":"Jason Westin, Site 0046","role":"CONTACT","phone":"713-792-3750"}],"geoPoint":{"lat":29.76328,"lon":-95.36327}},{"facility":"Virginia Commonwealth University (VCU) Medical Center","status":"RECRUITING","city":"Richmond","state":"Virginia","zip":"23298","country":"United States","contacts":[{"name":"Bruce Hough, Site 0293","role":"CONTACT","phone":"813-335-6942"}],"geoPoint":{"lat":37.55376,"lon":-77.46026}},{"facility":"Local Institution - 0465","status":"WITHDRAWN","city":"Tacoma","state":"Washington","zip":"98405","country":"United States","geoPoint":{"lat":47.25288,"lon":-122.44429}},{"facility":"Hospital Aleman","status":"RECRUITING","city":"Buenos Aires","state":"Ciudad Autónoma De Buenos Aires","zip":"C1118AAT","country":"Argentina","contacts":[{"name":"Maria de los Angeles Vicente Reparaz, Site 0113","role":"CONTACT","phone":"5491169652811"}],"geoPoint":{"lat":-34.61315,"lon":-58.37723}},{"facility":"Local Institution - 0421","status":"NOT_YET_RECRUITING","city":"Buenos Aires","state":"Ciudad Autónoma De Buenos Aires","zip":"C1417DTB","country":"Argentina","contacts":[{"name":"Site 0421","role":"CONTACT"}],"geoPoint":{"lat":-34.61315,"lon":-58.37723}},{"facility":"Clínica Zabala","status":"RECRUITING","city":"Buenos Aires","zip":"1426","country":"Argentina","contacts":[{"name":"Claudio Iastrebner, Site 0112","role":"CONTACT","phone":"+54-911-69816300"}],"geoPoint":{"lat":-34.61315,"lon":-58.37723}},{"facility":"Centro de Educación Médica e Investigaciones clínicas \"Dr. Norberto Quirno\" (CEMIC)","status":"RECRUITING","city":"Buenos Aires","zip":"C1431FWO","country":"Argentina","contacts":[{"name":"Jorge Solimano, Site 0136","role":"CONTACT","phone":"5491154761200"}],"geoPoint":{"lat":-34.61315,"lon":-58.37723}},{"facility":"Instituto Alexander Fleming","status":"RECRUITING","city":"Ciudad Autónoma de Buenos Aires","zip":"C1426ANZ","country":"Argentina","contacts":[{"name":"Laura Korin, Site 0119","role":"CONTACT","phone":"5491158074286"}],"geoPoint":{"lat":-34.61315,"lon":-58.37723}},{"facility":"Hospital Privado Universitario de Córdoba","status":"RECRUITING","city":"Córdoba","zip":"5016","country":"Argentina","contacts":[{"name":"Ana Basquiera, Site 0111","role":"CONTACT","phone":"+54-11-1569634187"}],"geoPoint":{"lat":-31.4135,"lon":-64.18105}},{"facility":"Gosford Hospital","status":"RECRUITING","city":"Gosford","state":"New South Wales","zip":"2250","country":"Australia","contacts":[{"name":"Richard Blennerhassett, Site 0357","role":"CONTACT","phone":"024328488"}],"geoPoint":{"lat":-33.4244,"lon":151.34399}},{"facility":"Campbelltown Hospital","status":"RECRUITING","city":"Sydney","state":"New South Wales","zip":"2560","country":"Australia","contacts":[{"name":"Adrian Yeung, Site 0361","role":"CONTACT","phone":"0287385167"}],"geoPoint":{"lat":-33.86785,"lon":151.20732}},{"facility":"Westmead Hospital","status":"RECRUITING","city":"Westmead","state":"New South Wales","zip":"2145","country":"Australia","contacts":[{"name":"Amanda Johnston, Site 0358","role":"CONTACT","phone":"61288906352"}],"geoPoint":{"lat":-33.80383,"lon":150.98768}},{"facility":"Royal Darwin Hospital","status":"RECRUITING","city":"Tiwi","state":"Northern Territory","zip":"0810","country":"Australia","contacts":[{"name":"Kristen Estabrooks, Site 0363","role":"CONTACT","phone":"+61889228888"}],"geoPoint":{"lat":-12.35876,"lon":130.878}},{"facility":"Sunshine Coast University Hospital","status":"RECRUITING","city":"Birtinya","state":"Queensland","zip":"4575","country":"Australia","contacts":[{"name":"Manjunath Narayana, Site 0356","role":"CONTACT","phone":"075202000"}],"geoPoint":{"lat":-26.74322,"lon":153.11913}},{"facility":"Gold Coast University Hospital","status":"RECRUITING","city":"Southport","state":"Queensland","zip":"4215","country":"Australia","contacts":[{"name":"Tara Cochrane, Site 0360","role":"CONTACT","phone":"56870000"}],"geoPoint":{"lat":-27.96724,"lon":153.39796}},{"facility":"Peninsula Private Hospital","status":"RECRUITING","city":"Frankston","state":"Victoria","zip":"3195","country":"Australia","contacts":[{"name":"Trish Walker, Site 0365","role":"CONTACT","phone":"+61407224994"}],"geoPoint":{"lat":-38.14458,"lon":145.12291}},{"facility":"Austin Health","status":"RECRUITING","city":"Heidelberg","state":"Victoria","zip":"3084","country":"Australia","contacts":[{"name":"Eliza Hawkes, Site 0362","role":"CONTACT","phone":"61394963088"}],"geoPoint":{"lat":-37.75,"lon":145.06667}},{"facility":"Western Health-Sunshine & Footscray Hospitals","status":"RECRUITING","city":"St Albans","state":"Victoria","zip":"3021","country":"Australia","contacts":[{"name":"William Renwick, Site 0359","role":"CONTACT","phone":"0407887699"}],"geoPoint":{"lat":-37.73901,"lon":144.80024}},{"facility":"South West Healthcare","status":"RECRUITING","city":"Warrnambool","state":"Victoria","zip":"3280","country":"Australia","contacts":[{"name":"Jennifer Brotchie, Site 0364","role":"CONTACT","phone":"0438541864"}],"geoPoint":{"lat":-38.38176,"lon":142.48799}},{"facility":"Klinikum Wels-Grieskirchen GmbH","status":"RECRUITING","city":"Wels","state":"Oberösterreich","zip":"4600","country":"Austria","contacts":[{"name":"Sonja Heibl, Site 0385","role":"CONTACT","phone":"+4372424153452"}],"geoPoint":{"lat":48.16667,"lon":14.03333}},{"facility":"Kepler Universitätsklinikum","status":"RECRUITING","city":"Linz","zip":"4020","country":"Austria","contacts":[{"name":"Clemens Schmitt, Site 0387","role":"CONTACT","phone":"+43-(0)5-7680836195"}],"geoPoint":{"lat":48.30639,"lon":14.28611}},{"facility":"Local Institution - 0386","status":"NOT_YET_RECRUITING","city":"Vienna","zip":"1140","country":"Austria","contacts":[{"name":"Site 0386","role":"CONTACT"}],"geoPoint":{"lat":48.20849,"lon":16.37208}},{"facility":"Núcleo de Oncologia e Hematologia do Ceará","status":"RECRUITING","city":"Fortaleza","state":"Ceara","zip":"60115-281","country":"Brazil","contacts":[{"name":"José Rocha, Site 0255","role":"CONTACT","phone":"85999872264"}],"geoPoint":{"lat":-3.71722,"lon":-38.54306}},{"facility":"Hospital Brasilia","status":"RECRUITING","city":"Lago sul","state":"Distrito Federal","zip":"71635580","country":"Brazil","contacts":[{"name":"Andresa Melo, Site 0297","role":"CONTACT","phone":"+5561981336765"}],"geoPoint":{"lat":-15.90603,"lon":-47.86366}},{"facility":"Universidade Federal de Goias","status":"RECRUITING","city":"Goiania","state":"Goias","zip":"74605-020","country":"Brazil","contacts":[{"name":"Renato Sampaio Tavares, Site 0256","role":"CONTACT","phone":"+556239244261"}],"geoPoint":{"lat":-16.67861,"lon":-49.25389}},{"facility":"Hospital Erasto Gaertner","status":"RECRUITING","city":"Curitiba","state":"Paraná","zip":"81520-060","country":"Brazil","contacts":[{"name":"João Farias, Site 0302","role":"CONTACT","phone":"+5541999846033"}],"geoPoint":{"lat":-25.42778,"lon":-49.27306}},{"facility":"CHN - Complexo Hospitalar de Niterói","status":"RECRUITING","city":"Niteroi","state":"Rio De Janeiro","zip":"24020-096","country":"Brazil","contacts":[{"name":"Jacques Kaufman, Site 0296","role":"CONTACT","phone":"+5521995012090"}],"geoPoint":{"lat":-22.88333,"lon":-43.10361}},{"facility":"Liga Norte Riograndense Contra o Câncer","status":"RECRUITING","city":"Natal","state":"Rio Grande Do Norte","zip":"59075-740","country":"Brazil","contacts":[{"name":"Carolina Villarim, Site 0304","role":"CONTACT","phone":"84999278442"}],"geoPoint":{"lat":-5.795,"lon":-35.20944}},{"facility":"Centro Gaucho Integrado De Oncologia, Hematologia, Ensino E Pesquisa","status":"RECRUITING","city":"Porto Alegre","state":"Rio Grande Do Sul","zip":"90110-270","country":"Brazil","contacts":[{"name":"Marcelo Capra, Site 0253","role":"CONTACT","phone":"5551999538883"}],"geoPoint":{"lat":-30.03306,"lon":-51.23}},{"facility":"Clínica Supera","status":"RECRUITING","city":"Chapecó","state":"Santa Catarina","zip":"89812-210","country":"Brazil","contacts":[{"name":"Cristiano Vendrame, Site 0246","role":"CONTACT","phone":"+5549988009229"}],"geoPoint":{"lat":-27.09639,"lon":-52.61833}},{"facility":"Instituto Joinvilense de Hematologia e Oncologia","status":"RECRUITING","city":"Joinville","state":"Santa Catarina","zip":"89201260","country":"Brazil","contacts":[{"name":"Marcelo Lacerda, Site 0247","role":"CONTACT","phone":"+554788880015"}],"geoPoint":{"lat":-26.30444,"lon":-48.84556}},{"facility":"Hospital 9 De Julho","status":"RECRUITING","city":"São Paulo","state":"SAO Paulo","zip":"01409-902","country":"Brazil","contacts":[{"name":"Vinicius de Molla, Site 0294","role":"CONTACT","phone":"1131479999"}],"geoPoint":{"lat":-23.5475,"lon":-46.63611}},{"facility":"Fundação Pio XII - Hospital de Câncer de Barretos","status":"RECRUITING","city":"Barretos","state":"São Paulo","zip":"14784400","country":"Brazil","contacts":[{"name":"Mariana Bianchi Carneiro, Site 0250","role":"CONTACT","phone":"16981359782"}],"geoPoint":{"lat":-20.55722,"lon":-48.56778}},{"facility":"Hospital Amaral Carvalho","status":"RECRUITING","city":"Jaú","state":"São Paulo","zip":"17210-120","country":"Brazil","contacts":[{"name":"Marcia Higashi, Site 0249","role":"CONTACT","phone":"+551436021397"}],"geoPoint":{"lat":-22.29639,"lon":-48.55778}},{"facility":"Hospital Alemao Oswaldo Cruz","status":"RECRUITING","city":"Sao Paulo","state":"São Paulo","zip":"01323-903","country":"Brazil","contacts":[{"name":"Andre Abdo, Site 0248","role":"CONTACT","phone":"5511942390831"}],"geoPoint":{"lat":-23.5475,"lon":-46.63611}},{"facility":"A. C. Camargo Cancer Center","status":"RECRUITING","city":"Sao Paulo","state":"São Paulo","zip":"01509-010","country":"Brazil","contacts":[{"name":"Jayr Schmidt Filho, Site 0316","role":"CONTACT","phone":"+5511953790662"}],"geoPoint":{"lat":-23.5475,"lon":-46.63611}},{"facility":"Fundação Faculdade Regional de Medicina de São José do Rio Preto","status":"RECRUITING","city":"São José do Rio Preto","state":"São Paulo","zip":"15090000","country":"Brazil","contacts":[{"name":"Mariana Buka, Site 0301","role":"CONTACT","phone":"551732015054"}],"geoPoint":{"lat":-20.81972,"lon":-49.37944}},{"facility":"Hospital São Lucas de Copacabana","status":"RECRUITING","city":"Rio de Janeiro","zip":"22061-080","country":"Brazil","contacts":[{"name":"Ruddy Dalfeor, Site 0298","role":"CONTACT","phone":"+5521980735086"}],"geoPoint":{"lat":-22.90278,"lon":-43.2075}},{"facility":"Instituto D'Or de Pesquisa e Ensino (IDOR)","status":"RECRUITING","city":"Sao Paulo","zip":"04543-000","country":"Brazil","contacts":[{"name":"Abel Costa, Site 0252","role":"CONTACT","phone":"+551196499-9091"}],"geoPoint":{"lat":-23.5475,"lon":-46.63611}},{"facility":"Hospital das Clinicas FMUSP","status":"RECRUITING","city":"São Paulo","zip":"05403-000","country":"Brazil","contacts":[{"name":"Juliana Pereira, Site 0317","role":"CONTACT","phone":"+55114573-7631"}],"geoPoint":{"lat":-23.5475,"lon":-46.63611}},{"facility":"Sociedade Beneficente Israelita Brasileira Hospital Albert Einstein","status":"RECRUITING","city":"São Paulo","zip":"05652-900","country":"Brazil","contacts":[{"name":"Guilherme Perini, Site 0251","role":"CONTACT","phone":"+5511992926463"}],"geoPoint":{"lat":-23.5475,"lon":-46.63611}},{"facility":"University Multiprofile Hospital for Active Treatment \"Sveti Georgi\" EAD","status":"RECRUITING","city":"Plovdiv","zip":"4002","country":"Bulgaria","contacts":[{"name":"Vasko Graklanov, Site 0393","role":"CONTACT","phone":"00359895716528"}],"geoPoint":{"lat":42.15,"lon":24.75}},{"facility":"Local Institution - 0392","status":"NOT_YET_RECRUITING","city":"Sofia","zip":"1407","country":"Bulgaria","contacts":[{"name":"Site 0392","role":"CONTACT"}],"geoPoint":{"lat":42.69751,"lon":23.32415}},{"facility":"UMHAT 'Sveti Ivan Rilsky'","status":"RECRUITING","city":"Sofia","zip":"1431","country":"Bulgaria","contacts":[{"name":"Atanas Radinoff, Site 0394","role":"CONTACT","phone":"+359884933151"}],"geoPoint":{"lat":42.69751,"lon":23.32415}},{"facility":"Local Institution - 0492","status":"WITHDRAWN","city":"Edmonton","state":"Alberta","zip":"T6G 1Z2","country":"Canada","geoPoint":{"lat":53.55014,"lon":-113.46871}},{"facility":"BC Cancer Victoria","status":"RECRUITING","city":"Victoria","state":"British Columbia","zip":"V8R 6V5","country":"Canada","contacts":[{"name":"Jason Hart, Site 0091","role":"CONTACT","phone":"250-519-5500"}],"geoPoint":{"lat":48.43294,"lon":-123.3693}},{"facility":"St. Marys Hospital Center","status":"RECRUITING","city":"Montreal","state":"Quebec","zip":"H3T 1M5","country":"Canada","contacts":[{"name":"Tanya Skamene, Site 0153","role":"CONTACT","phone":"514340822224572"}],"geoPoint":{"lat":45.50884,"lon":-73.58781}},{"facility":"Centre intégré universitaire de santé et de services sociaux du Nord-de-l'Île-de-Montréal (CIUSSS NÎM) - Hôpital du Sacré-Coeur","status":"RECRUITING","city":"Montreal","state":"Quebec","zip":"H4J 1C5","country":"Canada","contacts":[{"name":"Ines Chamakhi, Site 0073","role":"CONTACT","phone":"5143342222"}],"geoPoint":{"lat":45.50884,"lon":-73.58781}},{"facility":"Centre intégré universitaire de santé et de services sociaux de l'Estrie - Centre Hospitalier Universitaire de Sherbrooke (CIUS","status":"RECRUITING","city":"Sherbrooke","state":"Quebec","zip":"J1H 5N4","country":"Canada","contacts":[{"name":"Stéphanie Désilets, Site 0004","role":"CONTACT","phone":"4503411888"}],"geoPoint":{"lat":45.40008,"lon":-71.89908}},{"facility":"Local Institution - 0109","status":"WITHDRAWN","city":"Chile","state":"Región Metropolitana De Santiago","zip":"8380455","country":"Chile"},{"facility":"Fundacion Arturo Lopez Perez (FALP)","status":"RECRUITING","city":"Santiago","state":"Región Metropolitana De Santiago","zip":"7500921","country":"Chile","contacts":[{"name":"Raimundo Gazitua, Site 0106","role":"CONTACT","phone":"+56984290128"}],"geoPoint":{"lat":-33.45694,"lon":-70.64827}},{"facility":"Clínica Inmunocel","status":"RECRUITING","city":"Santiago","state":"Región Metropolitana De Santiago","zip":"7580206","country":"Chile","contacts":[{"name":"Alejandro Berkovits Cáceres, Site 0107","role":"CONTACT","phone":"997890202"}],"geoPoint":{"lat":-33.45694,"lon":-70.64827}},{"facility":"Clínica UC San Carlos de Apoquindo","status":"RECRUITING","city":"Santiago","state":"Región Metropolitana De Santiago","zip":"7620002","country":"Chile","contacts":[{"name":"Vicente Sandoval Aguayo, Site 0108","role":"CONTACT","phone":"988028887"}],"geoPoint":{"lat":-33.45694,"lon":-70.64827}},{"facility":"Clínica Alemana de Santiago","status":"RECRUITING","city":"Santiago","state":"Región Metropolitana De Santiago","zip":"8320325","country":"Chile","contacts":[{"name":"Daniel Ernst, Site 0110","role":"CONTACT","phone":"56992794676"}],"geoPoint":{"lat":-33.45694,"lon":-70.64827}},{"facility":"Bradfordhill","status":"RECRUITING","city":"Santiago","state":"Región Metropolitana De Santiago","zip":"8420383","country":"Chile","contacts":[{"name":"Sergio Portiño, Site 0459","role":"CONTACT","phone":"56998467083"}],"geoPoint":{"lat":-33.45694,"lon":-70.64827}},{"facility":"Centro de Investigaciones","status":"RECRUITING","city":"Viña del Mar","state":"Valparaíso","zip":"0","country":"Chile","contacts":[{"name":"Christine Rojas Hopkins, Site 0164","role":"CONTACT","phone":"56991782166"}],"geoPoint":{"lat":-33.02457,"lon":-71.55183}},{"facility":"Peking University Third Hospital","status":"RECRUITING","city":"Beijing","state":"Beijing","zip":"100091","country":"China","contacts":[{"name":"Hongmei Jing, Site 0195","role":"CONTACT","phone":"+8615611908428"}],"geoPoint":{"lat":39.9075,"lon":116.39723}},{"facility":"The First Affiliated Hospital of Chongqing Medical University","status":"RECRUITING","city":"Chongqing","state":"Chongqing","zip":"400016","country":"China","contacts":[{"name":"Xiaoqiong Tang, Site 0236","role":"CONTACT","phone":"13638332366"}],"geoPoint":{"lat":29.56278,"lon":106.55278}},{"facility":"Chongqing University Cancer Hospital","status":"RECRUITING","city":"Chongqing","state":"Chongqing","zip":"400030","country":"China","contacts":[{"name":"YING XIANG, Site 0196","role":"CONTACT","phone":"+8613647633737"}],"geoPoint":{"lat":29.56278,"lon":106.55278}},{"facility":"Fujian Cancer Hospital","status":"RECRUITING","city":"Fuzhou","state":"Fujian","zip":"350014","country":"China","contacts":[{"name":"Yu Yang, Site 0274","role":"CONTACT","phone":"13905008317"}],"geoPoint":{"lat":26.06139,"lon":119.30611}},{"facility":"The First Affiliated hospital of Xiamen University","status":"RECRUITING","city":"Xiamen","state":"Fujian","zip":"361003","country":"China","contacts":[{"name":"bing xu, Site 0157","role":"CONTACT","phone":"18750918842"}],"geoPoint":{"lat":24.47979,"lon":118.08187}},{"facility":"Southern Medical University Nanfang Hospital","status":"RECRUITING","city":"Guangzhou","state":"Guangdong","zip":"510515","country":"China","contacts":[{"name":"Xiaolei Wei, Site 0133","role":"CONTACT","phone":"13826407312"}],"geoPoint":{"lat":23.11667,"lon":113.25}},{"facility":"Sun Yat-sen University Cancer Center","status":"RECRUITING","city":"Guangzhou","state":"Guangdong","zip":"510555","country":"China","contacts":[{"name":"Huiqiang Huang, Site 0240","role":"CONTACT","phone":"8613808885154"}],"geoPoint":{"lat":23.11667,"lon":113.25}},{"facility":"Guangxi Medical University Affiliated Tumor Hospital","status":"RECRUITING","city":"Nanning","state":"Guangxi","zip":"530021","country":"China","contacts":[{"name":"Hong Cen, Site 0338","role":"CONTACT","phone":"13507711671"}],"geoPoint":{"lat":22.81667,"lon":108.31667}},{"facility":"Harbin Medical University Cancer Hospital","status":"RECRUITING","city":"Harbin","state":"Heilongjiang","zip":"150081","country":"China","contacts":[{"name":"Qingyuan Zhang, Site 0239","role":"CONTACT","phone":"86-13313612989"}],"geoPoint":{"lat":45.75,"lon":126.65}},{"facility":"Henan Cancer Hospital","status":"RECRUITING","city":"Zhengzhou","state":"Henan","zip":"450008","country":"China","contacts":[{"name":"Keshu Zhou, Site 0238","role":"CONTACT","phone":"+8613674902391"}],"geoPoint":{"lat":34.75778,"lon":113.64861}},{"facility":"Union Hospital Tongji Medical College Huazhong University of Science and Technology","status":"RECRUITING","city":"Wuhan","state":"Hubei","zip":"430022","country":"China","contacts":[{"name":"Liling Zhang, Site 0346","role":"CONTACT","phone":"15871725926"}],"geoPoint":{"lat":30.58333,"lon":114.26667}},{"facility":"Tongji Hospital Tongji Medical,Science & Technology","status":"RECRUITING","city":"Wuhan","state":"Hubei","zip":"430030","country":"China","contacts":[{"name":"Xiaoxi zhou, Site 0214","role":"CONTACT","phone":"+8613871454649"}],"geoPoint":{"lat":30.58333,"lon":114.26667}},{"facility":"Hunan Cancer Hospital","status":"RECRUITING","city":"Changsha","state":"Hunan","zip":"410013","country":"China","contacts":[{"name":"Yajun Li, Site 0275","role":"CONTACT","phone":"19918803330"}],"geoPoint":{"lat":28.19874,"lon":112.97087}},{"facility":"The First Affiliated Hospital of Soochow University","status":"RECRUITING","city":"Suzhou","state":"Jiangsu","zip":"215006","country":"China","contacts":[{"name":"Zhengming Jin, Site 0156","role":"CONTACT","phone":"13862553199"}],"geoPoint":{"lat":31.30408,"lon":120.59538}},{"facility":"The First Affiliated Hospital of Nanchang University","status":"RECRUITING","city":"Nanchang","state":"Jiangxi","zip":"330006","country":"China","contacts":[{"name":"Fei Li, Site 0237","role":"CONTACT","phone":"13970038386"}],"geoPoint":{"lat":28.68396,"lon":115.85306}},{"facility":"Jiangxi Provincial Cancer Hospital","status":"RECRUITING","city":"Nanchang","state":"Jiangxi","zip":"330029","country":"China","contacts":[{"name":"Yan Huang, Site 0241","role":"CONTACT","phone":"8613755669955"}],"geoPoint":{"lat":28.68396,"lon":115.85306}},{"facility":"The First Hospital of Jilin University","status":"RECRUITING","city":"Changchun","state":"Jilin","zip":"130021","country":"China","contacts":[{"name":"Ou Bai, Site 0291","role":"CONTACT","phone":"13039046656"}],"geoPoint":{"lat":43.88,"lon":125.32278}},{"facility":"The First Hospital of China Medical University","status":"RECRUITING","city":"Shenyang","state":"Liaoning","zip":"110015","country":"China","contacts":[{"name":"Xiaojing Yan, Site 0169","role":"CONTACT","phone":"13889128302"}],"geoPoint":{"lat":41.79222,"lon":123.43278}},{"facility":"Shengjing Hospital of China Medical University","status":"RECRUITING","city":"沈阳市","state":"Liaoning","zip":"110004","country":"China","contacts":[{"name":"Wei Yang, Site 0334","role":"CONTACT","phone":"18940251012"}]},{"facility":"Qilu Hospital of Shandong University","status":"RECRUITING","city":"Jinan","state":"Shandong","zip":"250012","country":"China","contacts":[{"name":"Ming Hou, Site 0242","role":"CONTACT","phone":"13791122627"}],"geoPoint":{"lat":36.66833,"lon":116.99722}},{"facility":"Shandong Cancer Hospital","status":"RECRUITING","city":"Jinan","state":"Shandong","zip":"250117","country":"China","contacts":[{"name":"Zengjun Li, Site 0344","role":"CONTACT","phone":"+8613642138692"}],"geoPoint":{"lat":36.66833,"lon":116.99722}},{"facility":"Ruijin Hospital Shanghai Jiaotong University School of Medicine","status":"RECRUITING","city":"Shanghai","state":"Shanghai","zip":"200025","country":"China","contacts":[{"name":"Weili Zhao, Site 0132","role":"CONTACT","phone":"13512112076"}],"geoPoint":{"lat":31.22222,"lon":121.45806}},{"facility":"Fudan University Shanghai Cancer Center","status":"RECRUITING","city":"Shanghai","state":"Shanghai","zip":"200032","country":"China","contacts":[{"name":"Rong Tao, Site 0339","role":"CONTACT","phone":"13651603660"}],"geoPoint":{"lat":31.22222,"lon":121.45806}},{"facility":"Shanxi Bethune Hospital","status":"RECRUITING","city":"Taiyuan","state":"Shanxi","zip":"030032","country":"China","contacts":[{"name":"Jia Wei, Site 0234","role":"CONTACT","phone":"13986102084"}],"geoPoint":{"lat":37.86944,"lon":112.56028}},{"facility":"West China Hospital, Sichuan University","status":"RECRUITING","city":"Cheng Du","state":"Sichuan","zip":"610041","country":"China","contacts":[{"name":"Liqun Zou, Site 0141","role":"CONTACT","phone":"86+18980601027"}]},{"facility":"Local Institution - 0289","status":"WITHDRAWN","city":"Tianjin","state":"Tianjin","zip":"300020","country":"China","geoPoint":{"lat":39.14222,"lon":117.17667}},{"facility":"Tianjin Medical University Cancer Institute & Hospital","status":"RECRUITING","city":"Tianjin","state":"Tianjin","zip":"300060","country":"China","contacts":[{"name":"Shiyong Zhou, Site 0470","role":"CONTACT","phone":"13820041468"}],"geoPoint":{"lat":39.14222,"lon":117.17667}},{"facility":"Local Institution - 0155","status":"WITHDRAWN","city":"Urumchi","state":"Xinjiang","zip":"830054","country":"China"},{"facility":"Xinjiang Medical University Cancer Hospital - Urumqi","status":"RECRUITING","city":"Urumqi","state":"Xinjiang","zip":"830000","country":"China","contacts":[{"name":"Shujuan Wen, Site 0467","role":"CONTACT","phone":"18160631686"}],"geoPoint":{"lat":43.80096,"lon":87.60046}},{"facility":"The first Affiliated Hospital, Zhejiang University School of Medicine","status":"RECRUITING","city":"Hangzhou","state":"Zhejiang","zip":"310003","country":"China","contacts":[{"name":"Hongyan Tong, Site 0197","role":"CONTACT","phone":"13958122357"}],"geoPoint":{"lat":30.29365,"lon":120.16142}},{"facility":"The Second Affiliated hospital of Zhejiang University school of medicine","status":"RECRUITING","city":"Hangzhou","state":"Zhejiang","zip":"310052","country":"China","contacts":[{"name":"Wenbin Qian, Site 0483","role":"CONTACT","phone":"13605801032"}],"geoPoint":{"lat":30.29365,"lon":120.16142}},{"facility":"The First Affiliated Hospital of Wenzhou Medical University","status":"RECRUITING","city":"Wenzhou","state":"Zhejiang","zip":"325000","country":"China","contacts":[{"name":"Songfu Jiang, Site 0457","role":"CONTACT","phone":"15305770033"}],"geoPoint":{"lat":27.99942,"lon":120.66682}},{"facility":"Local Institution - 0130","status":"NOT_YET_RECRUITING","city":"Bogota","state":"Cundinamarca","zip":"111151","country":"Colombia","contacts":[{"name":"Site 0130","role":"CONTACT"}],"geoPoint":{"lat":4.60971,"lon":-74.08175}},{"facility":"Local Institution - 0129","status":"NOT_YET_RECRUITING","city":"Bogotá","state":"Distrito Capital De Bogotá","zip":"110131","country":"Colombia","contacts":[{"name":"Site 0129","role":"CONTACT"}],"geoPoint":{"lat":4.60971,"lon":-74.08175}},{"facility":"Local Institution - 0390","status":"WITHDRAWN","city":"Zagreb","state":"Grad Zagreb","zip":"10000","country":"Croatia","geoPoint":{"lat":45.81444,"lon":15.97798}},{"facility":"Local Institution - 0440","status":"WITHDRAWN","city":"Osijek","zip":"31000","country":"Croatia","geoPoint":{"lat":45.55111,"lon":18.69389}},{"facility":"Fakultní nemocnice Brno Bohunice","status":"RECRUITING","city":"Brno","state":"Brno-město","zip":"625 00","country":"Czechia","contacts":[{"name":"Michael Doubek, Site 0105","role":"CONTACT","phone":"+420532233562"}],"geoPoint":{"lat":49.19522,"lon":16.60796}},{"facility":"Fakultni nemocnice Hradec Kralove","status":"RECRUITING","city":"Hradec Kralove","state":"Hradec Králové","zip":"500 05","country":"Czechia","contacts":[{"name":"David Belada, Site 0104","role":"CONTACT","phone":"420495832159"}],"geoPoint":{"lat":50.20923,"lon":15.83277}},{"facility":"Fakultni nemocnice Olomouc","status":"RECRUITING","city":"Olomouc","state":"Olomoucký Kraj","zip":"779 00","country":"Czechia","contacts":[{"name":"VÍT PROCHÁZKA, Site 0102","role":"CONTACT","phone":"+420605817982"}],"geoPoint":{"lat":49.59552,"lon":17.25175}},{"facility":"Fakultni Nemocnice Plzen","status":"RECRUITING","city":"Pilsen","state":"Plzeňský Kraj","zip":"305 99","country":"Czechia","contacts":[{"name":"Katerina Steinerova, Site 0120","role":"CONTACT","phone":"555-555-55"}],"geoPoint":{"lat":49.74747,"lon":13.37759}},{"facility":"Fakultni nemocnice Kralovske Vinohrady","status":"RECRUITING","city":"PRague","state":"Praha 10","zip":"100 34","country":"Czechia","contacts":[{"name":"Heidi Mocikova, Site 0103","role":"CONTACT","phone":"+420267163554"}],"geoPoint":{"lat":50.08804,"lon":14.42076}},{"facility":"Vseobecna fakultni nemocnice v Praze","status":"RECRUITING","city":"Praha 2","zip":"12808","country":"Czechia","contacts":[{"name":"Marek Trneny, Site 0243","role":"CONTACT","phone":"+420224962527"}],"geoPoint":{"lat":50.08804,"lon":14.42076}},{"facility":"Aarhus Universitetshospital, Skejby","status":"RECRUITING","city":"Aarhus","state":"Midtjylland","zip":"8200","country":"Denmark","contacts":[{"name":"Judit Jørgensen, Site 0285","role":"CONTACT","phone":"+4571770439"}],"geoPoint":{"lat":56.15674,"lon":10.21076}},{"facility":"Odense Universitetshospital","status":"RECRUITING","city":"Odense","state":"Syddanmark","zip":"5000","country":"Denmark","contacts":[{"name":"Thomas Larsen, Site 0284","role":"CONTACT","phone":"004521450236"}],"geoPoint":{"lat":55.39594,"lon":10.38831}},{"facility":"Oulun yliopistollinen sairaala","status":"RECRUITING","city":"Oulu","state":"Pohjois-Pohjanmaa","zip":"90220","country":"Finland","contacts":[{"name":"Hanne Kuitunen, Site 0281","role":"CONTACT","phone":"0503561799"}],"geoPoint":{"lat":65.01236,"lon":25.46816}},{"facility":"Kuopion Yliopistollinen Sairaala","status":"RECRUITING","city":"Kuopio","state":"Pohjois-Savo","zip":"70210","country":"Finland","contacts":[{"name":"Outi Kuittinen, Site 0283","role":"CONTACT","phone":"358445451962"}],"geoPoint":{"lat":62.89238,"lon":27.67703}},{"facility":"Turku University Hospital","status":"RECRUITING","city":"Turku","state":"Varsinais-Suomi","zip":"20521","country":"Finland","contacts":[{"name":"Taina Reunamo, Site 0282","role":"CONTACT","phone":"+3582318736"}],"geoPoint":{"lat":60.45148,"lon":22.26869}},{"facility":"Helsinki University Hospital - Comprehensive Cancer Center (HYKS - Syöpäkeskus)","status":"RECRUITING","city":"Helsinki","zip":"00029","country":"Finland","contacts":[{"name":"Sirpa Leppa, Site 0280","role":"CONTACT","phone":"358504270820"}],"geoPoint":{"lat":60.16952,"lon":24.93545}},{"facility":"Centre Hospitalier Universitaire de Nice - Hôpital l'Archet","status":"RECRUITING","city":"Nice","state":"Alpes-Maritimes","zip":"06202","country":"France","contacts":[{"name":"Edmond CHICHE, Site 0083","role":"CONTACT","phone":"0492035841"}],"geoPoint":{"lat":43.70313,"lon":7.26608}},{"facility":"Institut de cancérologie Strasbourg Europe (ICANS)","status":"RECRUITING","city":"Strasbourg","state":"Alsace","zip":"67033","country":"France","contacts":[{"name":"Luc-Matthieu Fornecker, Site 0084","role":"CONTACT","phone":"+33368767373"}],"geoPoint":{"lat":48.58392,"lon":7.74553}},{"facility":"Institut Bergonié - Centre Régional de Lutte Contre Le Cancer de Bordeaux et Sud Ouest","status":"RECRUITING","city":"Bordeaux","state":"Aquitaine","zip":"33076","country":"France","contacts":[{"name":"Fontanet Bijou, Site 0090","role":"CONTACT","phone":"33556333333"}],"geoPoint":{"lat":44.84044,"lon":-0.5805}},{"facility":"Local Institution - 0324","status":"NOT_YET_RECRUITING","city":"Pessac","state":"Aquitaine","zip":"33600","country":"France","contacts":[{"name":"Site 0324","role":"CONTACT"}],"geoPoint":{"lat":44.81011,"lon":-0.64129}},{"facility":"Institut Paoli-Calmettes","status":"RECRUITING","city":"Marseille","state":"Bouches-du-Rhône","zip":"13273","country":"France","contacts":[{"name":"Robin NOEL, Site 0087","role":"CONTACT","phone":"+33491223866"}],"geoPoint":{"lat":43.29551,"lon":5.38958}},{"facility":"Local Institution - 0292","status":"NOT_YET_RECRUITING","city":"Dijon","state":"Côte-d'Or","zip":"21000","country":"France","contacts":[{"name":"Site 0292","role":"CONTACT"}],"geoPoint":{"lat":47.31667,"lon":5.01667}},{"facility":"Chu Jean Minjoz","status":"RECRUITING","city":"Besançon","state":"Doubs","zip":"25000","country":"France","contacts":[{"name":"Adrien Chauchet, Site 0486","role":"CONTACT","phone":"33381669024"}],"geoPoint":{"lat":47.24878,"lon":6.01815}},{"facility":"CHRU de Brest","status":"RECRUITING","city":"Brest","state":"Finistère","zip":"29609","country":"France","contacts":[{"name":"Adrian Tempescul, Site 0332","role":"CONTACT","phone":"111-111-1111"}],"geoPoint":{"lat":48.3903,"lon":-4.48628}},{"facility":"Institut Curie - site Saint-Cloud","status":"RECRUITING","city":"Saint-Cloud","state":"Hauts-de-Seine","zip":"92210","country":"France","contacts":[{"name":"Clementine SARKOZY, Site 0335","role":"CONTACT","phone":"0147111792"}],"geoPoint":{"lat":48.84598,"lon":2.20289}},{"facility":"Centre Hospitalier Régional Universitaire de Tours - Hôpital Bretonneau","status":"RECRUITING","city":"Tours","state":"Indre-et-Loire","zip":"37032","country":"France","contacts":[{"name":"Emmanuel Gyan, Site 0079","role":"CONTACT","phone":"+33247473712"}],"geoPoint":{"lat":47.38333,"lon":0.68333}},{"facility":"Chu Grenoble Alpes","status":"RECRUITING","city":"La Tronche","state":"Isère","zip":"38700","country":"France","contacts":[{"name":"Sylvain CARRAS, Site 0223","role":"CONTACT","phone":"0033-4-76-76-54-52"}],"geoPoint":{"lat":45.20429,"lon":5.73645}},{"facility":"Centre Hospitalier Sud Réunion","status":"RECRUITING","city":"Saint-Pierre","state":"La Réunion","zip":"97448","country":"France","contacts":[{"name":"Hugo Legendre, Site 0323","role":"CONTACT","phone":"0262359000"}]},{"facility":"Chu Saint Eloi","status":"RECRUITING","city":"Montpellier","state":"Languedoc-Roussillon","zip":"34295","country":"France","contacts":[{"name":"Charles Herbaux, Site 0074","role":"CONTACT","phone":"+33467338364"}],"geoPoint":{"lat":43.61092,"lon":3.87723}},{"facility":"CHU de Saint-Etienne","status":"RECRUITING","city":"Saint Priest en Jarez","state":"Loire","zip":"42271","country":"France","contacts":[{"name":"LUDOVIC FOUILLET, Site 0321","role":"CONTACT","phone":"+33477917460"}],"geoPoint":{"lat":45.47501,"lon":4.37614}},{"facility":"Hôpital Saint Vincent-de-Paul","status":"RECRUITING","city":"Lille","state":"Nord-Pas-de-Calais","zip":"59020","country":"France","contacts":[{"name":"Sandy Amorim, Site 0202","role":"CONTACT","phone":"0033320874532"}],"geoPoint":{"lat":50.63297,"lon":3.05858}},{"facility":"Hopital Claude Huriez - CHU de Lille","status":"RECRUITING","city":"Lille","state":"Nord","zip":"59000","country":"France","contacts":[{"name":"Franck Morschhauser, Site 0081","role":"CONTACT","phone":"33320445713"}],"geoPoint":{"lat":50.63297,"lon":3.05858}},{"facility":"Centre Hospitalier Universitaire de Nantes - L' Hopital l'hôtel-Dieu","status":"RECRUITING","city":"Nantes","state":"Pays-de-la-Loire","zip":"44000","country":"France","contacts":[{"name":"Thomas Gastinne, Site 0325","role":"CONTACT","phone":"33240083271"}],"geoPoint":{"lat":47.21725,"lon":-1.55336}},{"facility":"Centre Hospitalier Lyon Sud","status":"RECRUITING","city":"Pierre-Bénite","state":"Rhône","zip":"69310","country":"France","contacts":[{"name":"Herve Ghesquieres, Site 0089","role":"CONTACT","phone":"33478864348"}],"geoPoint":{"lat":45.7009,"lon":4.82511}},{"facility":"Henri Mondor Hospital","status":"RECRUITING","city":"Creteil","state":"Val-de-Marne","zip":"94010","country":"France","contacts":[{"name":"François LEMONNIER, Site 0200","role":"CONTACT","phone":"+33145178242"}],"geoPoint":{"lat":48.78333,"lon":2.46667}},{"facility":"Gustave Roussy","status":"RECRUITING","city":"Villejuif","state":"Val-de-Marne","zip":"94800","country":"France","contacts":[{"name":"Vincent Ribrag, Site 0076","role":"CONTACT","phone":"33142114507"}],"geoPoint":{"lat":48.7939,"lon":2.35992}},{"facility":"Centre Hospitalier Universitaire de Poitiers","status":"RECRUITING","city":"Poitiers","state":"Vienne","zip":"86021","country":"France","contacts":[{"name":"Stéphanie Guidez, Site 0306","role":"CONTACT","phone":"+33549443707"}],"geoPoint":{"lat":46.58333,"lon":0.33333}},{"facility":"Centre Hospitalier de la Côte Basque","status":"RECRUITING","city":"Bayonne","zip":"64109","country":"France","contacts":[{"name":"Sophie Bernard, Site 0244","role":"CONTACT","phone":"0533788254"}],"geoPoint":{"lat":43.48333,"lon":-1.48333}},{"facility":"Centre Hospitalier Universitaire de Caen - Hôpital Côte de Nacre","status":"RECRUITING","city":"Caen","zip":"14033","country":"France","contacts":[{"name":"Gandhi DAMAJ, Site 0315","role":"CONTACT","phone":"0231272140"}],"geoPoint":{"lat":49.18585,"lon":-0.35912}},{"facility":"Hôpital Saint-Louis","status":"RECRUITING","city":"Paris","zip":"75010","country":"France","contacts":[{"name":"Catherine Thieblemont, Site 0077","role":"CONTACT","phone":"33142499236"}],"geoPoint":{"lat":48.85341,"lon":2.3488}},{"facility":"Bundeswehrkrankenhaus Ulm","status":"RECRUITING","city":"Ulm","state":"Baden-Württemberg","zip":"89081","country":"Germany","contacts":[{"name":"Armin Riecke, Site 0511","role":"CONTACT","phone":"+4915228982366"}],"geoPoint":{"lat":48.39841,"lon":9.99155}},{"facility":"Klinikum Augsburg","status":"RECRUITING","city":"Augsburg","state":"Bayern","zip":"86156","country":"Germany","contacts":[{"name":"Rainer Claus, Site 0383","role":"CONTACT","phone":"+491791098382"}],"geoPoint":{"lat":48.37154,"lon":10.89851}},{"facility":"Klinikum Bayreuth","status":"RECRUITING","city":"Bayreuth","state":"Bayern","zip":"95445","country":"Germany","contacts":[{"name":"Rebecca Baur, Site 0512","role":"CONTACT","phone":"0049921-400756314"}],"geoPoint":{"lat":49.94782,"lon":11.57893}},{"facility":"Universitaetsklinikum Erlangen","status":"RECRUITING","city":"Erlangen","state":"Bayern","zip":"91054","country":"Germany","contacts":[{"name":"Fabian Mueller, Site 0505","role":"CONTACT","phone":"004991318543107"}],"geoPoint":{"lat":49.59099,"lon":11.00783}},{"facility":"Gemeinschaftspraxis für Hämatologie und Onkologie","status":"RECRUITING","city":"Langen","state":"Hessen","zip":"63225","country":"Germany","contacts":[{"name":"Roswitha Fuchs, Site 0507","role":"CONTACT","phone":"000-000-0000"}],"geoPoint":{"lat":49.98955,"lon":8.66852}},{"facility":"KRH Klinikum Siloah-Oststadt-Heidehaus-Pneumology","status":"RECRUITING","city":"Hannover","state":"Niedersachsen","zip":"30459","country":"Germany","contacts":[{"name":"Daniela Doerfel, Site 0513","role":"CONTACT","phone":"05119272300"}],"geoPoint":{"lat":52.37052,"lon":9.73322}},{"facility":"InVO Institut für Versorgungsforschung in der Onkologie","status":"RECRUITING","city":"Koblenz","state":"Rheinland-Pfalz","zip":"56068","country":"Germany","contacts":[{"name":"Rudolf Weide, Site 0384","role":"CONTACT","phone":"4926192156930"}],"geoPoint":{"lat":50.35357,"lon":7.57883}},{"facility":"Universitätsklinikum Halle","status":"RECRUITING","city":"Halle","state":"Sachsen-Anhalt","zip":"06120","country":"Germany","contacts":[{"name":"Thomas Weber, Site 0504","role":"CONTACT","phone":"+493455570"}],"geoPoint":{"lat":51.48159,"lon":11.97948}},{"facility":"Universitätsklinikum Schleswig-Holstein","status":"RECRUITING","city":"Lübeck","state":"Schleswig-Holstein","zip":"23538","country":"Germany","contacts":[{"name":"Niklas Gebauer, Site 0506","role":"CONTACT","phone":"004945150044270"}],"geoPoint":{"lat":53.86893,"lon":10.68729}},{"facility":"Local Institution - 0508","status":"NOT_YET_RECRUITING","city":"Berlin","zip":"10967","country":"Germany","contacts":[{"name":"Site 0508","role":"CONTACT"}],"geoPoint":{"lat":52.52437,"lon":13.41053}},{"facility":"Medizinische Universität Lausitz- Carl Thiem","status":"RECRUITING","city":"Cottbus","zip":"03048","country":"Germany","contacts":[{"name":"Martin Schmidt-Hieber, Site 0503","role":"CONTACT","phone":"+49(0)355462220"}],"geoPoint":{"lat":51.75769,"lon":14.32888}},{"facility":"Gemeinschaftspraxis Hämatologie - Onkologie Freiberg-Richter, Jacobasch, Illmer, Wolf","status":"RECRUITING","city":"Dresden","zip":"01307","country":"Germany","contacts":[{"name":"Thomas Illmer, Site 0510","role":"CONTACT","phone":"00493514400022"}],"geoPoint":{"lat":51.05089,"lon":13.73832}},{"facility":"Universitaetsklinikum Essen","status":"RECRUITING","city":"Essen","zip":"45122","country":"Germany","contacts":[{"name":"Bastian von Tresckow, Site 0370","role":"CONTACT","phone":"+491631751277"}],"geoPoint":{"lat":51.45657,"lon":7.01228}},{"facility":"Evangelismos General Hospital of Athens","status":"RECRUITING","city":"Athens","state":"Attikí","zip":"106 76","country":"Greece","contacts":[{"name":"Maria Bouzani, Site 0399","role":"CONTACT","phone":"00306977318242"}],"geoPoint":{"lat":37.97945,"lon":23.71622}},{"facility":"General Hospital of Athens \"Laiko\"","status":"RECRUITING","city":"Athens","state":"Attikí","zip":"11527","country":"Greece","contacts":[{"name":"Theodoros Vassilakopoulos, Site 0396","role":"CONTACT","phone":"302132061702"}],"geoPoint":{"lat":37.97945,"lon":23.71622}},{"facility":"Attikon General University Hospital","status":"RECRUITING","city":"Chaidari","state":"Attikí","zip":"12462","country":"Greece","contacts":[{"name":"Vasiliki Pappa, Site 0397","role":"CONTACT","phone":"00306937255084"}],"geoPoint":{"lat":38.01135,"lon":23.66597}},{"facility":"University Hospital of Alexandroupolis","status":"RECRUITING","city":"Alexandroupolis","zip":"08100","country":"Greece","contacts":[{"name":"IOANNIS KOTSIANIDIS, Site 0398","role":"CONTACT","phone":"+302551353739"}],"geoPoint":{"lat":40.84995,"lon":25.87644}},{"facility":"University Hospital of Ioannina","status":"RECRUITING","city":"Ioannina","state":"Ípeiros","zip":"455 00","country":"Greece","contacts":[{"name":"Eleftheria Hatzimichael, Site 0395","role":"CONTACT","phone":"2651099656"}],"geoPoint":{"lat":39.66486,"lon":20.85189}},{"facility":"Debreceni Egyetem Klinikai Kozpont","status":"RECRUITING","city":"Debrecen","state":"Hajdú-Bihar","zip":"4032","country":"Hungary","contacts":[{"name":"Arpad Illes, Site 0266","role":"CONTACT","phone":"36303263397"}],"geoPoint":{"lat":47.53333,"lon":21.63333}},{"facility":"Somogy Vármegyei Kaposi Mór Oktató Kórház","status":"RECRUITING","city":"Kaposvár","state":"Somogy","zip":"7400","country":"Hungary","contacts":[{"name":"Peter Rajnics, Site 0162","role":"CONTACT","phone":"0036300732866"}],"geoPoint":{"lat":46.36667,"lon":17.8}},{"facility":"Szabolcs Szatmár Bereg Vármegyei Oktatókórház","status":"RECRUITING","city":"Nyíregyháza","state":"Szabolcs-Szatmár-Bereg","zip":"4400","country":"Hungary","contacts":[{"name":"Laszlo Rejto, Site 0353","role":"CONTACT","phone":"42599700"}],"geoPoint":{"lat":47.95539,"lon":21.71671}},{"facility":"Markusovszky Egyetemi Oktatokorhaz","status":"RECRUITING","city":"Szombathely","state":"Vas","zip":"9700","country":"Hungary","contacts":[{"name":"Mark Plander, Site 0161","role":"CONTACT","phone":"+3694515514"}],"geoPoint":{"lat":47.23088,"lon":16.62155}},{"facility":"Semmelweis Egyetem","status":"RECRUITING","city":"Budapest","zip":"1088","country":"Hungary","contacts":[{"name":"ZSOLT GYORGY Nagy, Site 0163","role":"CONTACT","phone":"36208258660"}],"geoPoint":{"lat":47.49801,"lon":19.03991}},{"facility":"Országos Onkológiai Intézet","status":"RECRUITING","city":"Budapest","zip":"1122","country":"Hungary","contacts":[{"name":"Andras Masszi, Site 0160","role":"CONTACT","phone":"3612248600ext3775"}],"geoPoint":{"lat":47.49801,"lon":19.03991}},{"facility":"All India Institute of Medical Sciences","status":"RECRUITING","city":"New Delhi","state":"Delhi","zip":"110029","country":"India","contacts":[{"name":"Deepam Pushpam, Site 0433","role":"CONTACT","phone":"+919650629370"}],"geoPoint":{"lat":28.63576,"lon":77.22445}},{"facility":"Rajiv Gandhi Cancer Institute And Research Centre","status":"RECRUITING","city":"New Delhi","state":"Delhi","zip":"110085","country":"India","contacts":[{"name":"Narendra Agrawal, Site 0469","role":"CONTACT","phone":"919868764808"}],"geoPoint":{"lat":28.63576,"lon":77.22445}},{"facility":"Local Institution - 0429","status":"NOT_YET_RECRUITING","city":"Srinagar","state":"Jammu And Kashmir","zip":"190010","country":"India","contacts":[{"name":"Site 0429","role":"CONTACT"}],"geoPoint":{"lat":34.08565,"lon":74.80555}},{"facility":"KLES Dr. Prabhakar Kore Hospital & M.R.C","status":"RECRUITING","city":"Belagavi","state":"Karnataka","zip":"590010","country":"India","contacts":[{"name":"Rohan Bhise, Site 0411","role":"CONTACT","phone":"09448866712"}]},{"facility":"Aster Medcity","status":"RECRUITING","city":"Kochi","state":"Kerala","zip":"682027","country":"India","contacts":[{"name":"Arun Warrier, Site 0430","role":"CONTACT","phone":"+919400515000"}],"geoPoint":{"lat":9.93988,"lon":76.26022}},{"facility":"Local Institution - 0154","status":"NOT_YET_RECRUITING","city":"Mumbai","state":"Maharashtra","zip":"400012","country":"India","contacts":[{"name":"Site 0154","role":"CONTACT"}],"geoPoint":{"lat":19.07283,"lon":72.88261}},{"facility":"Narayana Superspecialty Hospital","status":"RECRUITING","city":"Howrah","state":"West Bengal","zip":"711103","country":"India","contacts":[{"name":"Vivek Agarwala, Site 0413","role":"CONTACT","phone":"+91-8879222875"}],"geoPoint":{"lat":22.57688,"lon":88.31857}},{"facility":"Tata Medical Center","status":"RECRUITING","city":"New Town","state":"West Bengal","zip":"700160","country":"India","contacts":[{"name":"Arijit Nag, Site 0410","role":"CONTACT","phone":"9051121161"}]},{"facility":"Ospedale Santa Maria delle Croci","status":"RECRUITING","city":"Ravenna","state":"Emilia-Romagna","zip":"48121","country":"Italy","contacts":[{"name":"Monica Tani, Site 0495","role":"CONTACT","phone":"0544285722"}],"geoPoint":{"lat":44.41344,"lon":12.20121}},{"facility":"Local Institution - 0493","status":"NOT_YET_RECRUITING","city":"Roma","state":"Lazio","zip":"00168","country":"Italy","contacts":[{"name":"Site 0493","role":"CONTACT"}],"geoPoint":{"lat":41.89193,"lon":12.51133}},{"facility":"Local Institution - 0494","status":"NOT_YET_RECRUITING","city":"Palermo","state":"Sicilia","zip":"90146","country":"Italy","contacts":[{"name":"Site 0494","role":"CONTACT"}],"geoPoint":{"lat":38.13205,"lon":13.33561}},{"facility":"Local Institution - 0496","status":"NOT_YET_RECRUITING","city":"Novara","zip":"28100","country":"Italy","contacts":[{"name":"Site 0496","role":"CONTACT"}],"geoPoint":{"lat":45.44694,"lon":8.62118}},{"facility":"Local Institution - 0276","status":"WITHDRAWN","city":"Anjo","state":"Aichi","zip":"446-8602","country":"Japan","geoPoint":{"lat":34.95828,"lon":137.08054}},{"facility":"Nagoya University Hospital","status":"RECRUITING","city":"Nagoya","state":"Aichi","zip":"466-8560","country":"Japan","contacts":[{"name":"Kazuyuki Shimada, Site 0371","role":"CONTACT","phone":"81527442141"}],"geoPoint":{"lat":35.18147,"lon":136.90641}},{"facility":"National Cancer Center Hospital East","status":"RECRUITING","city":"Kashiwa","state":"Chiba","zip":"277-8577","country":"Japan","contacts":[{"name":"Junichiro Yuda, Site 0168","role":"CONTACT","phone":"04-7133-1111"}],"geoPoint":{"lat":35.86224,"lon":139.97732}},{"facility":"University of Fukui Hospital","status":"RECRUITING","city":"Eiheiji-cho,Yoshida-gun","state":"Fukui","zip":"910-1193","country":"Japan","contacts":[{"name":"Eiju Negoro, Site 0475","role":"CONTACT","phone":"0776-61-3111"}]},{"facility":"Ogaki Municipal Hospital","status":"RECRUITING","city":"Ogaki","state":"Gifu","zip":"503-8502","country":"Japan","contacts":[{"name":"Hiroshi Kosugi, Site 0271","role":"CONTACT","phone":"81584813341"}],"geoPoint":{"lat":35.35,"lon":136.61667}},{"facility":"Hokkaido University Hospital","status":"RECRUITING","city":"Sapporo","state":"Hokkaido","zip":"0608648","country":"Japan","contacts":[{"name":"Hideki Goto, Site 0368","role":"CONTACT","phone":"81117067214"}],"geoPoint":{"lat":43.06667,"lon":141.35}},{"facility":"Aiiku Hospital","status":"RECRUITING","city":"Sapporo","state":"Hokkaido","zip":"064-0804","country":"Japan","contacts":[{"name":"Koh Izumiyama, Site 0327","role":"CONTACT","phone":"81115632211"}],"geoPoint":{"lat":43.06667,"lon":141.35}},{"facility":"Hyogo Prefectural Amagasaki General Medical Center","status":"RECRUITING","city":"Amagasaki","state":"Hyogo","zip":"660-8550","country":"Japan","contacts":[{"name":"Mitsumasa Watanabe, Site 0273","role":"CONTACT","phone":"+81664807000"}],"geoPoint":{"lat":34.71667,"lon":135.41667}},{"facility":"Japanease Red Cross Society Himeji Hospital","status":"RECRUITING","city":"Himeji","state":"Hyogo","zip":"670-8540","country":"Japan","contacts":[{"name":"Yasushi Hiramatsu, Site 0328","role":"CONTACT","phone":"079-294-2251"}],"geoPoint":{"lat":34.81667,"lon":134.7}},{"facility":"Ishikawa Prefectural Central Hospital","status":"RECRUITING","city":"Kanazawa","state":"Ishikawa","zip":"920-8530","country":"Japan","contacts":[{"name":"Takeharu Kotani, Site 0270","role":"CONTACT","phone":"+81-76-237-8211"}],"geoPoint":{"lat":36.6,"lon":136.61667}},{"facility":"Iwate Prefectural Central Hospital","status":"RECRUITING","city":"Morioka","state":"Iwate","zip":"020-0066","country":"Japan","contacts":[{"name":"Kazunori Murai, Site 0343","role":"CONTACT","phone":"+01196531151"}],"geoPoint":{"lat":39.7,"lon":141.15}},{"facility":"Tokai University Hospital","status":"RECRUITING","city":"Isehara","state":"Kanagawa","zip":"259-1193","country":"Japan","contacts":[{"name":"Yoshiaki Ogawa, Site 0170","role":"CONTACT","phone":"81463931121"}],"geoPoint":{"lat":35.39932,"lon":139.31019}},{"facility":"Yokohama Municipal Citizens Hospital","status":"RECRUITING","city":"Yokohama","state":"Kanagawa","zip":"221-0855","country":"Japan","contacts":[{"name":"Tomonori Nakazato, Site 0333","role":"CONTACT","phone":"81-45-316-4580"}],"geoPoint":{"lat":35.43333,"lon":139.65}},{"facility":"Tohoku University Hospital","status":"RECRUITING","city":"Sendai-shi","state":"Miyagi","zip":"980-8574","country":"Japan","contacts":[{"name":"NORIKO FUKUHARA, Site 0320","role":"CONTACT","phone":"81-22-717-7165"}],"geoPoint":{"lat":38.26667,"lon":140.86667}},{"facility":"Kindai University Hospital- Osakasayama Campus","status":"RECRUITING","city":"Osaka-sayama","state":"Osaka","zip":"589-8511","country":"Japan","contacts":[{"name":"TAKAHIRO KUMODE, Site 0166","role":"CONTACT","phone":"0723660221"}],"geoPoint":{"lat":34.69374,"lon":135.50218}},{"facility":"Saitama Medical University International Medical Center","status":"RECRUITING","city":"Hidaka","state":"Saitama","zip":"350-1298","country":"Japan","contacts":[{"name":"Tomoya Maeda, Site 0269","role":"CONTACT","phone":"+81429844111"}]},{"facility":"Shizuoka Cancer Center","status":"RECRUITING","city":"Nagaizumi-cho,Sunto-gun","state":"Shizuoka","zip":"411-8777","country":"Japan","contacts":[{"name":"Terukazu Enami, Site 0288","role":"CONTACT","phone":"81559895222"}]},{"facility":"Juntendo University Hospital","status":"RECRUITING","city":"Bunkyo-ku","state":"Tokyo","zip":"113-8431","country":"Japan","contacts":[{"name":"Miki Ando, Site 0350","role":"CONTACT","phone":"81-3-3813-3111"}],"geoPoint":{"lat":35.37517,"lon":139.92991}},{"facility":"Nihon University Itabashi Hospital","status":"RECRUITING","city":"Itabashiku","state":"Tokyo","zip":"173-8610","country":"Japan","contacts":[{"name":"Katsuhiro Miura, Site 0268","role":"CONTACT","phone":"+81-(0)3-3972-8111"}]},{"facility":"University of Yamanashi Hospital","status":"RECRUITING","city":"Chuo","state":"Yamanashi","zip":"409-3898","country":"Japan","contacts":[{"name":"Ichiro Kawashima, Site 0331","role":"CONTACT","phone":"0552731111"}],"geoPoint":{"lat":35.57779,"lon":139.71685}},{"facility":"National Hospital Organization Kyushu Medical Center","status":"RECRUITING","city":"Fukuoka","zip":"810-8563","country":"Japan","contacts":[{"name":"Ken Takase, Site 0348","role":"CONTACT","phone":"81928520700"}],"geoPoint":{"lat":33.6,"lon":130.41667}},{"facility":"National Hospital Organization Kyushu Cancer Center","status":"RECRUITING","city":"Fukuoka","zip":"811-1395","country":"Japan","contacts":[{"name":"Youko Suehiro, Site 0319","role":"CONTACT","phone":"+81925413231"}],"geoPoint":{"lat":33.6,"lon":130.41667}},{"facility":"Kyushu University Hospital","status":"RECRUITING","city":"Fukuoka","zip":"812-8582","country":"Japan","contacts":[{"name":"Kohta Miyawaki, Site 0313","role":"CONTACT","phone":"81926425230"}],"geoPoint":{"lat":33.6,"lon":130.41667}},{"facility":"Hiroshima University Hospital","status":"RECRUITING","city":"Hiroshima","zip":"7348551","country":"Japan","contacts":[{"name":"Tatsuo Ichinohe, Site 0272","role":"CONTACT","phone":"81822575861"}],"geoPoint":{"lat":34.4,"lon":132.45}},{"facility":"National Hospital Organization Kumamoto Medical Center","status":"RECRUITING","city":"Kumamoto","zip":"860-0008","country":"Japan","contacts":[{"name":"Toshiro Kawakita, Site 0171","role":"CONTACT","phone":"81963536501"}],"geoPoint":{"lat":32.80589,"lon":130.69182}},{"facility":"Local Institution - 0215","status":"NOT_YET_RECRUITING","city":"Kyoto","zip":"602-8566","country":"Japan","contacts":[{"name":"Site 0215","role":"CONTACT"}],"geoPoint":{"lat":35.02107,"lon":135.75385}},{"facility":"Okayama University Hospital","status":"RECRUITING","city":"Okayama","zip":"700-8558","country":"Japan","contacts":[{"name":"Takumi KONDO, Site 0329","role":"CONTACT","phone":"(+81)862357227"}],"geoPoint":{"lat":34.65,"lon":133.93333}},{"facility":"Osaka Red Cross Hospital","status":"RECRUITING","city":"Osaka","zip":"543-8555","country":"Japan","contacts":[{"name":"Kazunori Imada, Site 0322","role":"CONTACT","phone":"81-6-6774-5111"}],"geoPoint":{"lat":34.69374,"lon":135.50218}},{"facility":"Osaka Metropolitan University Hospital","status":"RECRUITING","city":"Osaka","zip":"545-8586","country":"Japan","contacts":[{"name":"Hirohisa Nakamae, Site 0347","role":"CONTACT","phone":"81666453881"}],"geoPoint":{"lat":34.69374,"lon":135.50218}},{"facility":"Yamagata University Hospital","status":"RECRUITING","city":"Yamagata","zip":"990-9585","country":"Japan","contacts":[{"name":"Hisayuki Yokoyama, Site 0167","role":"CONTACT","phone":"81236285316"}],"geoPoint":{"lat":38.23333,"lon":140.36667}},{"facility":"National Cancer Center","status":"RECRUITING","city":"Goyang-si","state":"Kyǒnggi-do","zip":"10408","country":"Korea, Republic of","contacts":[{"name":"Hyeon Seok Eom, Site 0149","role":"CONTACT","phone":"82319201160"}],"geoPoint":{"lat":37.65639,"lon":126.835}},{"facility":"Local Institution - 0117","status":"WITHDRAWN","city":"Seongnam","state":"Kyǒnggi-do","zip":"13620","country":"Korea, Republic of","geoPoint":{"lat":37.43861,"lon":127.13778}},{"facility":"Seoul National University Bundang Hospital","status":"RECRUITING","city":"Seongnam","state":"Kyǒnggi-do","zip":"13620","country":"Korea, Republic of","contacts":[{"name":"Jeong-Ok Lee, Site 0456","role":"CONTACT","phone":"821093915758"}],"geoPoint":{"lat":37.43861,"lon":127.13778}},{"facility":"Ajou University Hospital","status":"RECRUITING","city":"Suwon-si","state":"Kyǒnggi-do","zip":"16499","country":"Korea, Republic of","contacts":[{"name":"Seong Hyun Jeong, Site 0233","role":"CONTACT","phone":"82-31-219-5989"}],"geoPoint":{"lat":37.29111,"lon":127.00889}},{"facility":"Dong-A University Hospital","status":"RECRUITING","city":"Busan","state":"Pusan-Kwangyǒkshi","zip":"49201","country":"Korea, Republic of","contacts":[{"name":"SUNG YONG OH, Site 0115","role":"CONTACT","phone":"+82-51-240-5044"}],"geoPoint":{"lat":35.10278,"lon":129.04028}},{"facility":"Pusan National University Hospital","status":"RECRUITING","city":"Busan","state":"Pusan-Kwangyǒkshi","zip":"49241","country":"Korea, Republic of","contacts":[{"name":"Ho-Jin Shin, Site 0114","role":"CONTACT","phone":"821089371258"}],"geoPoint":{"lat":35.10278,"lon":129.04028}},{"facility":"Kosin University Gospel Hospital","status":"RECRUITING","city":"Busan","state":"Pusan-Kwangyǒkshi","zip":"49267","country":"Korea, Republic of","contacts":[{"name":"Hosup Lee, Site 0131","role":"CONTACT","phone":"82-10-5122-3667"}],"geoPoint":{"lat":35.10278,"lon":129.04028}},{"facility":"Korea University Anam Hospital","status":"RECRUITING","city":"Seoul","state":"Seoul-teukbyeolsi [Seoul]","zip":"02841","country":"Korea, Republic of","contacts":[{"name":"Yoon Seok Choi, Site 0143","role":"CONTACT","phone":"82221993816"}],"geoPoint":{"lat":37.566,"lon":126.9784}},{"facility":"Seoul National University Hospital","status":"RECRUITING","city":"Seoul","state":"Seoul-teukbyeolsi [Seoul]","zip":"03080","country":"Korea, Republic of","contacts":[{"name":"YOUNGIL KOH, Site 0069","role":"CONTACT","phone":"01091175012"}],"geoPoint":{"lat":37.566,"lon":126.9784}},{"facility":"Local Institution - 0100","status":"ACTIVE_NOT_RECRUITING","city":"Seoul","state":"Seoul-teukbyeolsi [Seoul]","zip":"05505","country":"Korea, Republic of","geoPoint":{"lat":37.566,"lon":126.9784}},{"facility":"Samsung Medical Center","status":"RECRUITING","city":"Seoul","state":"Seoul-teukbyeolsi [Seoul]","zip":"06351","country":"Korea, Republic of","contacts":[{"name":"Won Seog Kim, Site 0068","role":"CONTACT","phone":"82-2-3410-6548"}],"geoPoint":{"lat":37.566,"lon":126.9784}},{"facility":"Local Institution - 0070","status":"NOT_YET_RECRUITING","city":"Seoul","state":"Seoul-teukbyeolsi [Seoul]","zip":"06591","country":"Korea, Republic of","contacts":[{"name":"Site 0070","role":"CONTACT"}],"geoPoint":{"lat":37.566,"lon":126.9784}},{"facility":"The Catholic University of Korea, Yeouido St. Mary's Hospital","status":"RECRUITING","city":"Seoul","state":"Seoul-teukbyeolsi [Seoul]","zip":"07345","country":"Korea, Republic of","contacts":[{"name":"Youngwoo Jeon, Site 0118","role":"CONTACT","phone":"821042324067"}],"geoPoint":{"lat":37.566,"lon":126.9784}},{"facility":"Local Institution - 0442","status":"WITHDRAWN","city":"Daegu","state":"Taegu-Kwangyǒkshi","zip":"41404","country":"Korea, Republic of","geoPoint":{"lat":35.87028,"lon":128.59111}},{"facility":"Kyungpook National University Chilgok Hospital","status":"RECRUITING","city":"Deagu","state":"Taegu-Kwangyǒkshi","zip":"41404","country":"Korea, Republic of","contacts":[{"name":"DongWon Baek, Site 0441","role":"CONTACT","phone":"+82-53-200-5570"}]},{"facility":"Local Institution - 0116","status":"WITHDRAWN","city":"Deagu","state":"Taegu-Kwangyǒkshi","zip":"41404","country":"Korea, Republic of"},{"facility":"Local Institution - 0455","status":"WITHDRAWN","city":"Seongnam","zip":"463-707","country":"Korea, Republic of","geoPoint":{"lat":37.43861,"lon":127.13778}},{"facility":"Hospital Pulau Pinang","status":"RECRUITING","city":"George Town","state":"Pulau Pinang","zip":"10990","country":"Malaysia","contacts":[{"name":"Sui Keat Tan, Site 0432","role":"CONTACT","phone":"0166436587"}],"geoPoint":{"lat":5.41123,"lon":100.33543}},{"facility":"Sarawak General Hospital","status":"RECRUITING","city":"Kuching","state":"Sarawak","zip":"93586","country":"Malaysia","contacts":[{"name":"Tze Shin Leong, Site 0431","role":"CONTACT","phone":"0138391031"}],"geoPoint":{"lat":1.54999,"lon":110.33333}},{"facility":"Hospital Ampang","status":"RECRUITING","city":"Ampang","state":"Selangor","zip":"68000","country":"Malaysia","contacts":[{"name":"PEK KUEN LIEW, Site 0449","role":"CONTACT","phone":"+60122720229"}]},{"facility":"Local Institution - 0453","status":"NOT_YET_RECRUITING","city":"Lembah Pantai","state":"Wilayah Persekutuan Kuala Lumpur","zip":"59100","country":"Malaysia","contacts":[{"name":"Site 0453","role":"CONTACT"}]},{"facility":"Health Pharma Professional Research S.A. de C.V:","status":"RECRUITING","city":"Ciudad de México","state":"DIF","zip":"03100","country":"Mexico","contacts":[{"name":"Juan Perez Zuñiga, Site 0122","role":"CONTACT","phone":"5538173808"}],"geoPoint":{"lat":19.42847,"lon":-99.12766}},{"facility":"Instituto Nacional de Ciencias Medicas y Nutricion Salvador Zubiran","status":"RECRUITING","city":"Mexico City","state":"DIF","zip":"14080","country":"Mexico","contacts":[{"name":"Gladys Agreda Vásquez, Site 0121","role":"CONTACT","phone":"+525533333825"}],"geoPoint":{"lat":19.42847,"lon":-99.12766}},{"facility":"Local Institution - 0126","status":"NOT_YET_RECRUITING","city":"Cdmx","state":"Distrito Federal","zip":"14080","country":"Mexico","contacts":[{"name":"Site 0126","role":"CONTACT"}]},{"facility":"Local Institution - 0128","status":"NOT_YET_RECRUITING","city":"México","state":"Distrito Federal","zip":"06720","country":"Mexico","contacts":[{"name":"Site 0128","role":"CONTACT"}],"geoPoint":{"lat":19.42847,"lon":-99.12766}},{"facility":"Local Institution - 0448","status":"NOT_YET_RECRUITING","city":"Guadalajara","state":"Jalisco","zip":"44600","country":"Mexico","contacts":[{"name":"Site 0448","role":"CONTACT"}],"geoPoint":{"lat":20.66682,"lon":-103.39182}},{"facility":"Centro de Investigacion Clinica Chapultepec","status":"RECRUITING","city":"Morelia","state":"Michoacán","zip":"58260","country":"Mexico","contacts":[{"name":"Gregorio Campos Cabrera, Site 0127","role":"CONTACT","phone":"4431478545"}],"geoPoint":{"lat":19.70078,"lon":-101.18443}},{"facility":"Hospital Universitario \"Dr. Jose Eleuterio Gonzalez\"","status":"RECRUITING","city":"Monterrey","state":"Nuevo León","zip":"66460","country":"Mexico","contacts":[{"name":"David Gomez Almaguer, Site 0139","role":"CONTACT","phone":"528186756718"}],"geoPoint":{"lat":25.67507,"lon":-100.31847}},{"facility":"Centro de Investigacion Clinica de Oaxaca","status":"RECRUITING","city":"Oaxaca de Juarez","state":"Oaxaca","zip":"68020","country":"Mexico","contacts":[{"name":"Gabriel Barragán Ibañez, Site 0125","role":"CONTACT","phone":"9516035559"}],"geoPoint":{"lat":17.06542,"lon":-96.72365}},{"facility":"Local Institution - 0444","status":"WITHDRAWN","city":"Hermosillo","state":"Sonora","zip":"83106","country":"Mexico","geoPoint":{"lat":29.1026,"lon":-110.97732}},{"facility":"Local Institution - 0463","status":"WITHDRAWN","city":"Hermosillo","state":"Sonora","zip":"83106","country":"Mexico","geoPoint":{"lat":29.1026,"lon":-110.97732}},{"facility":"Local Institution - 0123","status":"NOT_YET_RECRUITING","city":"Huixquilucan","zip":"52787","country":"Mexico","contacts":[{"name":"Site 0123","role":"CONTACT"}],"geoPoint":{"lat":19.35985,"lon":-99.35016}},{"facility":"Unidad Médica Onco-hematológica","status":"RECRUITING","city":"Puebla","zip":"72424","country":"Mexico","contacts":[{"name":"WILFRIDO HERRERA, Site 0124","role":"CONTACT","phone":"2222379880"}],"geoPoint":{"lat":19.03793,"lon":-98.20346}},{"facility":"Leids Universitair Medisch Centrum","status":"RECRUITING","city":"Leiden","state":"Zuid-Holland","zip":"2333 ZA","country":"Netherlands","contacts":[{"name":"Joost Vermaat, Site 0500","role":"CONTACT","phone":"0031715262271"}],"geoPoint":{"lat":52.15833,"lon":4.49306}},{"facility":"University Medical Center Groningen","status":"RECRUITING","city":"Groningen","zip":"9713 GZ","country":"Netherlands","contacts":[{"name":"Marcel Nijland, Site 0499","role":"CONTACT","phone":"050-3616161"}],"geoPoint":{"lat":53.21917,"lon":6.56667}},{"facility":"Dunedin Hospital","status":"RECRUITING","city":"Dunedin","state":"Otago","zip":"9016","country":"New Zealand","contacts":[{"name":"Lucy Pemberton, Site 0367","role":"CONTACT","phone":"+6434740999"}],"geoPoint":{"lat":-45.87416,"lon":170.50361}},{"facility":"Local Institution - 0366","status":"NOT_YET_RECRUITING","city":"Hamilton","state":"Waikato","zip":"3240","country":"New Zealand","contacts":[{"name":"Site 0366","role":"CONTACT"}],"geoPoint":{"lat":-37.78333,"lon":175.28333}},{"facility":"Auckland City Hospital","status":"RECRUITING","city":"Auckland","zip":"1023","country":"New Zealand","contacts":[{"name":"Henry Ngu, Site 0462","role":"CONTACT","phone":"+6421745195"}],"geoPoint":{"lat":-36.84853,"lon":174.76349}},{"facility":"Oslo universitetssykehus, Radiumhospitalet","status":"RECRUITING","city":"Oslo","zip":"0310","country":"Norway","contacts":[{"name":"Julian Hamfjord, Site 0391","role":"CONTACT","phone":"+4722934000"}],"geoPoint":{"lat":59.91273,"lon":10.74609}},{"facility":"Szpital Uniwersytecki Nr 2 im. dr J. Biziela w Bydgoszczy","status":"RECRUITING","city":"Bydgoszcz","state":"Kujawsko-pomorskie","zip":"85-168","country":"Poland","contacts":[{"name":"Jaroslaw Czyz, Site 0336","role":"CONTACT","phone":"508508810"}],"geoPoint":{"lat":53.1235,"lon":18.00762}},{"facility":"Centrum Onkologii Ziemi Lubelskiej","status":"RECRUITING","city":"Lublin","state":"Lubelskie","zip":"20-090","country":"Poland","contacts":[{"name":"Wojciech Legiec, Site 0337","role":"CONTACT","phone":"48502074194"}],"geoPoint":{"lat":51.25,"lon":22.56667}},{"facility":"Narodowy Instytut Onkologii im. Marii Sklodowskiej-Curie - Panstwowy Instytut Badawczy w Warszawie","status":"RECRUITING","city":"Warszawa","state":"Mazowieckie","zip":"02-781","country":"Poland","contacts":[{"name":"Joanna Romejko-Jarosinska, Site 0443","role":"CONTACT","phone":"48225462448"}],"geoPoint":{"lat":52.22977,"lon":21.01178}},{"facility":"Pratia MCM Krakow","status":"RECRUITING","city":"Kraków","state":"Małopolskie","zip":"30-727","country":"Poland","contacts":[{"name":"Wojciech Jurczak, Site 0201","role":"CONTACT","phone":"+48602338290"}],"geoPoint":{"lat":50.06143,"lon":19.93658}},{"facility":"Aidport","status":"RECRUITING","city":"Skorzewo","state":"Wielkopolskie","zip":"60-185","country":"Poland","contacts":[{"name":"Michal Kwiatek, Site 0388","role":"CONTACT","phone":"+48793602210"}]},{"facility":"Local Institution - 0330","status":"NOT_YET_RECRUITING","city":"Katowice","state":"Śląskie","zip":"40-027","country":"Poland","contacts":[{"name":"Site 0330","role":"CONTACT"}],"geoPoint":{"lat":50.25841,"lon":19.02754}},{"facility":"Hospital da Luz Lisboa","status":"RECRUITING","city":"Lisboa","zip":"1500-650","country":"Portugal","contacts":[{"name":"José Carda, Site 0286","role":"CONTACT","phone":"+351938630378"}],"geoPoint":{"lat":38.71667,"lon":-9.13333}},{"facility":"Instituto Português de Oncologia do Porto Francisco Gentil, EPE","status":"RECRUITING","city":"Porto","zip":"4200-072","country":"Portugal","contacts":[{"name":"Claudia Moreira, Site 0098","role":"CONTACT","phone":"351225084000"}],"geoPoint":{"lat":41.14961,"lon":-8.61099}},{"facility":"Pan American Center for Oncology Trials - Ciudadela","status":"RECRUITING","city":"San Juan","zip":"00909","country":"Puerto Rico","contacts":[{"name":"Maria Garcia-Pallas, Site 0372","role":"CONTACT","phone":"7874073333"}],"geoPoint":{"lat":18.46633,"lon":-66.10572}},{"facility":"Fundeni Clinical Institute","status":"RECRUITING","city":"Bucuresti","state":"București","zip":"022328","country":"Romania","contacts":[{"name":"Daniel Coriu, Site 0381","role":"CONTACT","phone":"+40729988960"}],"geoPoint":{"lat":44.42802,"lon":26.09665}},{"facility":"Local Institution - 0375","status":"WITHDRAWN","city":"Bucuresti","state":"București","zip":"022328","country":"Romania","geoPoint":{"lat":44.42802,"lon":26.09665}},{"facility":"Spital Clinic Judetean de Urgenta Tg.Mures","status":"RECRUITING","city":"Tg.Mures","state":"Mureș","zip":"540136","country":"Romania","contacts":[{"name":"Ioan Macarie, Site 0417","role":"CONTACT","phone":"+40722526756"}]},{"facility":"Sc Onco Card Srl","status":"RECRUITING","city":"Brasov","zip":"500052","country":"Romania","contacts":[{"name":"Mihaela Lazaroiu, Site 0380","role":"CONTACT","phone":"+40723028241"}],"geoPoint":{"lat":45.64861,"lon":25.60613}},{"facility":"Affidea Fundeni","status":"RECRUITING","city":"București","zip":"022328","country":"Romania","contacts":[{"name":"Mihaela Andreescu, Site 0374","role":"CONTACT","phone":"+40744559730"}],"geoPoint":{"lat":44.42802,"lon":26.09665}},{"facility":"Spitalul Clinic Colțea","status":"RECRUITING","city":"București","zip":"030171","country":"Romania","contacts":[{"name":"Nicoleta Berbec, Site 0382","role":"CONTACT","phone":"0040722833451"}],"geoPoint":{"lat":44.42802,"lon":26.09665}},{"facility":"Spitalul Clinic Colțea","status":"RECRUITING","city":"București","zip":"030171","country":"Romania","contacts":[{"name":"ANDREI COLITA, Site 0377","role":"CONTACT","phone":"0040722661228"}],"geoPoint":{"lat":44.42802,"lon":26.09665}},{"facility":"Spitalul Universitar de Urgență București","status":"RECRUITING","city":"București","zip":"050098","country":"Romania","contacts":[{"name":"Horia Bumbea, Site 0378","role":"CONTACT","phone":"0040213180522"}],"geoPoint":{"lat":44.42802,"lon":26.09665}},{"facility":"Institutul Oncologic Cluj","status":"RECRUITING","city":"Cluj","zip":"400015","country":"Romania","contacts":[{"name":"Delia Dima, Site 0423","role":"CONTACT","phone":"0040722696791"}],"geoPoint":{"lat":46.76667,"lon":23.6}},{"facility":"Institutul Regional de Oncologie","status":"RECRUITING","city":"Iași","zip":"700483","country":"Romania","contacts":[{"name":"Catalin Danaila, Site 0379","role":"CONTACT","phone":"+40722565781"}],"geoPoint":{"lat":47.16667,"lon":27.6}},{"facility":"Spitalul Clinic Județean de Urgență Sibiu","status":"RECRUITING","city":"Sibiu","zip":"557260","country":"Romania","contacts":[{"name":"ALINA CATANA, Site 0376","role":"CONTACT","phone":"0730506891"}],"geoPoint":{"lat":45.8,"lon":24.15}},{"facility":"Local Institution - 0445","status":"NOT_YET_RECRUITING","city":"Riyadh","state":"Ar Riyāḑ","zip":"11426","country":"Saudi Arabia","contacts":[{"name":"Site 0445","role":"CONTACT"}],"geoPoint":{"lat":24.68773,"lon":46.72185}},{"facility":"King Fahad Specialist Hospital - Dammam","status":"RECRUITING","city":"Dammam","state":"Ash Sharqīyah","zip":"31444","country":"Saudi Arabia","contacts":[{"name":"John Apostolidis, Site 0439","role":"CONTACT","phone":"00966508841100"}],"geoPoint":{"lat":26.43442,"lon":50.10326}},{"facility":"King Abdulaziz Medical City","status":"RECRUITING","city":"Jeddah","zip":"22384","country":"Saudi Arabia","contacts":[{"name":"Mubarak Almansour, Site 0438","role":"CONTACT","phone":"+966562202206"}],"geoPoint":{"lat":21.54238,"lon":39.19797}},{"facility":"Local Institution - 0416","status":"NOT_YET_RECRUITING","city":"Riyadh","zip":"12713","country":"Saudi Arabia","contacts":[{"name":"Site 0416","role":"CONTACT"}],"geoPoint":{"lat":24.68773,"lon":46.72185}},{"facility":"National Cancer Centre Singapore","status":"RECRUITING","city":"Singapore","state":"Central Singapore","zip":"168583","country":"Singapore","contacts":[{"name":"Chandramouli Nagarajan, Site 0427","role":"CONTACT","phone":"86157092"}],"geoPoint":{"lat":1.28967,"lon":103.85007}},{"facility":"Local Institution - 0355","status":"WITHDRAWN","city":"Banska Bystrica","state":"Banskobystrický Kraj","zip":"97517","country":"Slovakia","geoPoint":{"lat":48.73946,"lon":19.15349}},{"facility":"Local Institution - 0204","status":"NOT_YET_RECRUITING","city":"Bratislava","zip":"83101","country":"Slovakia","contacts":[{"name":"Site 0204","role":"CONTACT"}],"geoPoint":{"lat":48.14816,"lon":17.10674}},{"facility":"CHUAC-Complejo Hospitalario Universitario A Coruña","status":"RECRUITING","city":"A Coruña","state":"A Coruña [La Coruña]","zip":"15006","country":"Spain","contacts":[{"name":"Victor Noriega Concepcion, Site 0412","role":"CONTACT","phone":"34981178000"}],"geoPoint":{"lat":43.37135,"lon":-8.396}},{"facility":"Institut Catalan d Oncologia (ICO) - Badalona","status":"RECRUITING","city":"Badalona","state":"Barcelona [Barcelona]","zip":"08916","country":"Spain","contacts":[{"name":"David Quintela Vilchez, Site 0491","role":"CONTACT","phone":"34677561378"}],"geoPoint":{"lat":41.45004,"lon":2.24741}},{"facility":"Institut Català d'Oncologia - L'Hospitalet","status":"RECRUITING","city":"L'Hospitalet Del Llobregat","state":"Barcelona [Barcelona]","zip":"08908","country":"Spain","contacts":[{"name":"Ana Maria Sureda Balari, Site 0071","role":"CONTACT","phone":"34932607750"}]},{"facility":"OSI Ezkerraldea-Enkarterri-Cruces - Hospital Universitario Cruces","status":"RECRUITING","city":"Barakaldo","state":"Bizkaia","zip":"48903","country":"Spain","contacts":[{"name":"MARIA ELENA AMUTIO DIEZ, Site 0389","role":"CONTACT","phone":"946006000"}],"geoPoint":{"lat":43.29639,"lon":-2.98813}},{"facility":"Hospital Universitario Nuestra Señora de Candelaria","status":"RECRUITING","city":"Santa Cruz de Tenerife","state":"Canarias","zip":"38010","country":"Spain","contacts":[{"name":"Ana Sánchez Quintana, Site 0172","role":"CONTACT","phone":"+34922602971"}],"geoPoint":{"lat":28.46824,"lon":-16.25462}},{"facility":"Hospital Universitario Donostia","status":"RECRUITING","city":"San Sebastian","state":"Gipuzkoa","zip":"20014","country":"Spain","contacts":[{"name":"Begoña Mendibil Esquisabel, Site 0314","role":"CONTACT","phone":"0034943328154"}],"geoPoint":{"lat":43.31283,"lon":-1.97499}},{"facility":"Hospital Universitario Puerta de Hierro Majadahonda","status":"RECRUITING","city":"Majadahonda","state":"Madrid, Comunidad De","zip":"28222","country":"Spain","contacts":[{"name":"Maria Belen Navarro Matilla, Site 0096","role":"CONTACT","phone":"911917620"}],"geoPoint":{"lat":40.47353,"lon":-3.87182}},{"facility":"Hospital Clínico Universitario Virgen de la Arrixaca","status":"RECRUITING","city":"El Palmar, Murcia","state":"Murcia, Región De","zip":"30120","country":"Spain","contacts":[{"name":"Ignacio Español, Site 0409","role":"CONTACT","phone":"+34627469073"}]},{"facility":"Hospital Universitario Virgen de la Victoria","status":"RECRUITING","city":"Malaga","state":"Málaga","zip":"29010","country":"Spain","contacts":[{"name":"Antonio Rueda Dominguez, Site 0092","role":"CONTACT","phone":"607847416"}],"geoPoint":{"lat":36.72016,"lon":-4.42034}},{"facility":"Hospital San Pedro de Alcantara","status":"RECRUITING","city":"Cáceres","zip":"10003","country":"Spain","contacts":[{"name":"Juan Bergua Burgues, Site 0095","role":"CONTACT","phone":"34675699735"}],"geoPoint":{"lat":39.47649,"lon":-6.37224}},{"facility":"Hospital La Princesa","status":"RECRUITING","city":"Madrid","zip":"28006","country":"Spain","contacts":[{"name":"Ana Garcia-Noblejas, Site 0072","role":"CONTACT","phone":"34699762116"}],"geoPoint":{"lat":40.4165,"lon":-3.70256}},{"facility":"Hospital General Universitario Gregorio Marañon","status":"RECRUITING","city":"Madrid","zip":"28007","country":"Spain","contacts":[{"name":"Mariana Bastos Oreiro, Site 0490","role":"CONTACT","phone":"34915868394"}],"geoPoint":{"lat":40.4165,"lon":-3.70256}},{"facility":"Hospital Universitario Fundación Jiménez Díaz","status":"RECRUITING","city":"Madrid","zip":"28040","country":"Spain","contacts":[{"name":"Raul Cordoba Mascuñano, Site 0488","role":"CONTACT","phone":"+34649694829"}],"geoPoint":{"lat":40.4165,"lon":-3.70256}},{"facility":"Hospital Universitario de Salamanca - Complejo Asistencial Universitario de Salamanca","status":"RECRUITING","city":"Salamanca","zip":"37007","country":"Spain","contacts":[{"name":"Alejandro Martin García-Sancho, Site 0093","role":"CONTACT","phone":"34923291100"}],"geoPoint":{"lat":40.96882,"lon":-5.66388}},{"facility":"Hospital Universitario Virgen Del Rocio","status":"RECRUITING","city":"Sevilla","zip":"41013","country":"Spain","contacts":[{"name":"Guillermo Rodriguez, Site 0489","role":"CONTACT"}],"geoPoint":{"lat":37.38283,"lon":-5.97317}},{"facility":"Skånes Universitetssjukhus Lund","status":"RECRUITING","city":"Lund","state":"Skåne Län [se-12]","zip":"22185","country":"Sweden","contacts":[{"name":"Mats Jerkeman, Site 0279","role":"CONTACT","phone":"4646177520"}],"geoPoint":{"lat":55.70584,"lon":13.19321}},{"facility":"Karolinska Universitetssjukhuset Solna","status":"RECRUITING","city":"Solna","state":"Stockholms Län [se-01]","zip":"171 64","country":"Sweden","contacts":[{"name":"Kristina Sonnevi, Site 0487","role":"CONTACT","phone":"+46704050934"}],"geoPoint":{"lat":59.36004,"lon":18.00086}},{"facility":"Akademiska sjukhuset","status":"RECRUITING","city":"Uppsala","state":"Uppsala Län [se-03]","zip":"751 85","country":"Sweden","contacts":[{"name":"Ingrid Glimelius, Site 0277","role":"CONTACT","phone":"0702253912"}],"geoPoint":{"lat":59.85882,"lon":17.63889}},{"facility":"Local Institution - 0278","status":"NOT_YET_RECRUITING","city":"Linköping","state":"Östergötlands Län [se-05]","zip":"581 85","country":"Sweden","contacts":[{"name":"Site 0278","role":"CONTACT"}],"geoPoint":{"lat":58.41086,"lon":15.62157}},{"facility":"Chang Gung Memorial Hospital- Chiayi","status":"RECRUITING","city":"Chiayi City","state":"Chiayi","zip":"613","country":"Taiwan","contacts":[{"name":"Cih-En Huang, Site 0142","role":"CONTACT","phone":"886536210002106"}],"geoPoint":{"lat":23.47917,"lon":120.44889}},{"facility":"Chi Mei Medical Center","status":"RECRUITING","city":"Tainan City","state":"Tainan","zip":"71004","country":"Taiwan","contacts":[{"name":"Yin-Hsun Feng, Site 0146","role":"CONTACT","phone":"886-919-906513"}],"geoPoint":{"lat":22.99083,"lon":120.21333}},{"facility":"Chang Gung Memorial Hospital at Kaohsiung","status":"RECRUITING","city":"Kaohsiung","zip":"83301","country":"Taiwan","contacts":[{"name":"Ming Chung Wang, Site 0159","role":"CONTACT","phone":"0975056053"}],"geoPoint":{"lat":22.61626,"lon":120.31333}},{"facility":"China Medical University Hospital","status":"RECRUITING","city":"Taichung","zip":"40447","country":"Taiwan","contacts":[{"name":"Su-Peng Yeh, Site 0135","role":"CONTACT","phone":"886975680836"}],"geoPoint":{"lat":24.1469,"lon":120.6839}},{"facility":"Taichung Veterans General Hospital","status":"RECRUITING","city":"Taichung","zip":"407","country":"Taiwan","contacts":[{"name":"Po Wei Liao, Site 0145","role":"CONTACT","phone":"886-4-23592525EXT3"}],"geoPoint":{"lat":24.1469,"lon":120.6839}},{"facility":"National Taiwan University Hospital","status":"RECRUITING","city":"Taipei","zip":"10002","country":"Taiwan","contacts":[{"name":"Tai-Chung Huang, Site 0134","role":"CONTACT","phone":"+886972651392"}],"geoPoint":{"lat":25.04776,"lon":121.53185}},{"facility":"Taipei Veterans General Hospital","status":"RECRUITING","city":"Taipei","zip":"11217","country":"Taiwan","contacts":[{"name":"Chih-Cheng Chen, Site 0514","role":"CONTACT","phone":"0975353099"}],"geoPoint":{"lat":25.04776,"lon":121.53185}},{"facility":"Koo Foundation Sun Yat-Sen Cancer Center","status":"RECRUITING","city":"Taipei","zip":"112","country":"Taiwan","contacts":[{"name":"Tran-Der Tan, Site 0147","role":"CONTACT","phone":"886939658354"}],"geoPoint":{"lat":25.04776,"lon":121.53185}},{"facility":"Chang Gung Medical Foundation-Linkou Branch","status":"RECRUITING","city":"Taoyuan","zip":"333","country":"Taiwan","contacts":[{"name":"HSUAN-JEN SHIH, Site 0158","role":"CONTACT","phone":"+886-975366122"}],"geoPoint":{"lat":24.95233,"lon":121.20193}},{"facility":"Chulalongkorn University","status":"RECRUITING","city":"Bangkok","state":"Krung Thep Maha Nakhon","zip":"10330","country":"Thailand","contacts":[{"name":"Kitsada Wudhikarn, Site 0434","role":"CONTACT","phone":"66022564000ext80251"}],"geoPoint":{"lat":13.75398,"lon":100.50144}},{"facility":"Ramathibodi Hospital","status":"RECRUITING","city":"Bangkok","state":"Krung Thep Maha Nakhon","zip":"10400","country":"Thailand","contacts":[{"name":"Pimjai niparuk, Site 0473","role":"CONTACT","phone":"+6622012373"}],"geoPoint":{"lat":13.75398,"lon":100.50144}},{"facility":"Faculty of Medicine Siriraj Hospital","status":"RECRUITING","city":"Bangkok","state":"Krung Thep Maha Nakhon","zip":"10700","country":"Thailand","contacts":[{"name":"Archrob Khuhapinant, Site 0426","role":"CONTACT","phone":"+66840114290"}],"geoPoint":{"lat":13.75398,"lon":100.50144}},{"facility":"Maharaj Nakorn Chiang Mai Hospital","status":"RECRUITING","city":"Chiang Mai","zip":"50200","country":"Thailand","contacts":[{"name":"Lalita NORASETTHADA, Site 0428","role":"CONTACT","phone":"+66-826949794"}],"geoPoint":{"lat":18.79038,"lon":98.98468}},{"facility":"Ankara University Health Practice and Research Hospitals","status":"RECRUITING","city":"Ankara","zip":"06100","country":"Turkey","contacts":[{"name":"Muhit Ozcan, Site 0400","role":"CONTACT","phone":"05055025050"}],"geoPoint":{"lat":39.91987,"lon":32.85427}},{"facility":"Gazi University Health Research and Application Center Gazi Hospital","status":"RECRUITING","city":"Ankara","zip":"06100","country":"Turkey","contacts":[{"name":"Munci Yagci, Site 0405","role":"CONTACT","phone":"111-111-1111"}],"geoPoint":{"lat":39.91987,"lon":32.85427}},{"facility":"Local Institution - 0422","status":"NOT_YET_RECRUITING","city":"Ankara","zip":"06170","country":"Turkey","contacts":[{"name":"Site 0422","role":"CONTACT"}],"geoPoint":{"lat":39.91987,"lon":32.85427}},{"facility":"Dr. Abdurrahman Yurtaslan Ankara Onkoloji Egitim ve Arastırma Hastanesi","status":"RECRUITING","city":"Ankara","zip":"06200","country":"Turkey","contacts":[{"name":"Mehmet Dal, Site 0401","role":"CONTACT","phone":"905325245694"}],"geoPoint":{"lat":39.91987,"lon":32.85427}},{"facility":"Ege Universitesi Hastanesi","status":"RECRUITING","city":"İzmir","zip":"35100","country":"Turkey","contacts":[{"name":"Güray Saydam, Site 0406","role":"CONTACT","phone":"+905325566128"}],"geoPoint":{"lat":38.41273,"lon":27.13838}},