{"protocolSection":{"identificationModule":{"nctId":"NCT06875310","orgStudyIdInfo":{"id":"CA239-0004"},"secondaryIdInfos":[{"id":"CA2390004","type":"OTHER","domain":"Mirati Therapeutics Protocol ID"}],"organization":{"fullName":"Mirati Therapeutics Inc.","class":"INDUSTRY"},"briefTitle":"A Study of Adagrasib Plus Pembrolizumab Plus Chemotherapy vs. Placebo Plus Pembrolizumab Plus Chemotherapy in Participants With Previously Untreated Non-squamous Non-small Cell Lung Cancer With KRAS G12C Mutation (KRYSTAL-4)","officialTitle":"A Randomized, Double-Blind, Phase 3 Trial of Adagrasib Plus Pembrolizumab Plus Chemotherapy vs. Placebo Plus Pembrolizumab Plus Chemotherapy in Participants With Previously Untreated, Locally Advanced or Metastatic Non-squamous Non-small Cell Lung Cancer With KRAS G12C Mutation (KRYSTAL-4)"},"statusModule":{"statusVerifiedDate":"2025-07","overallStatus":"RECRUITING","expandedAccessInfo":{"hasExpandedAccess":false},"startDateStruct":{"date":"2025-04-24","type":"ACTUAL"},"primaryCompletionDateStruct":{"date":"2029-09-07","type":"ESTIMATED"},"completionDateStruct":{"date":"2032-04-30","type":"ESTIMATED"},"studyFirstSubmitDate":"2025-03-07","studyFirstSubmitQcDate":"2025-03-07","studyFirstPostDateStruct":{"date":"2025-03-13","type":"ACTUAL"},"lastUpdateSubmitDate":"2025-07-03","lastUpdatePostDateStruct":{"date":"2025-07-04","type":"ACTUAL"}},"sponsorCollaboratorsModule":{"responsibleParty":{"type":"SPONSOR"},"leadSponsor":{"name":"Mirati Therapeutics Inc.","class":"INDUSTRY"}},"oversightModule":{"oversightHasDmc":true,"isFdaRegulatedDrug":true,"isFdaRegulatedDevice":false},"descriptionModule":{"briefSummary":"This is a trial to evaluate the efficacy, safety, and tolerability of adagrasib plus pembrolizumab plus platinum-doublet chemotherapy versus placebo plus pembrolizumab plus platinum-doublet chemotherapy in participants with previously untreated, locally advanced or metastatic NSCLC with KRAS G12C mutation"},"conditionsModule":{"conditions":["Carcinoma, Non-Small-Cell Lung"],"keywords":["Immunotherapy","KRAS","KRAS G12C","Targeted therapy"]},"designModule":{"studyType":"INTERVENTIONAL","phases":["PHASE3"],"designInfo":{"allocation":"RANDOMIZED","interventionModel":"PARALLEL","primaryPurpose":"TREATMENT","maskingInfo":{"masking":"QUADRUPLE","whoMasked":["PARTICIPANT","CARE_PROVIDER","INVESTIGATOR","OUTCOMES_ASSESSOR"]}},"enrollmentInfo":{"count":630,"type":"ESTIMATED"}},"armsInterventionsModule":{"armGroups":[{"label":"Adagrasib","type":"EXPERIMENTAL","interventionNames":["Drug: Adagrasib","Drug: Pembrolizumab","Drug: Carboplatin","Drug: Pemetrexed","Drug: Cisplatin"]},{"label":"Placebo","type":"PLACEBO_COMPARATOR","interventionNames":["Drug: Pembrolizumab","Drug: Carboplatin","Drug: Pemetrexed","Drug: Placebo","Drug: Cisplatin"]}],"interventions":[{"type":"DRUG","name":"Adagrasib","description":"Specified dose on specified days","armGroupLabels":["Adagrasib"],"otherNames":["BMS-986503; KRAZATI®"]},{"type":"DRUG","name":"Pembrolizumab","description":"Specified dose on specified days","armGroupLabels":["Adagrasib","Placebo"],"otherNames":["KEYTRUDA®"]},{"type":"DRUG","name":"Carboplatin","description":"Specified dose on specified days","armGroupLabels":["Adagrasib","Placebo"]},{"type":"DRUG","name":"Pemetrexed","description":"Specified dose on specified days","armGroupLabels":["Adagrasib","Placebo"]},{"type":"DRUG","name":"Placebo","description":"Specified dose on specified days","armGroupLabels":["Placebo"]},{"type":"DRUG","name":"Cisplatin","description":"Specified dose on specified days","armGroupLabels":["Adagrasib","Placebo"]}]},"outcomesModule":{"primaryOutcomes":[{"measure":"Progression Free Survival (PFS) as Assessed per Response Evaluation Criteria in Solid Tumors (RECIST) v1.1 by Blinded Independent Central Review (BICR)","timeFrame":"Up to 7 years"},{"measure":"Overall Survival (OS)","timeFrame":"Up to 7 years"}],"secondaryOutcomes":[{"measure":"Overall Response (OR) as Assessed per RECIST v1.1 by BICR","timeFrame":"Up to 7 years"},{"measure":"Duration of Response (DOR) as Assessed per RECIST 1.1 by BICR","timeFrame":"Up to 7 years"},{"measure":"PFS as Assessed per RECIST v1.1 by Investigator","timeFrame":"Up to 7 years"},{"measure":"Number of Participants With Adverse Events (AEs)","timeFrame":"Up to 90 days from last dose"},{"measure":"Number of Participants With Serious Adverse Events (SAEs)","timeFrame":"Up to 90 days from last dose"},{"measure":"Number of Participants With AEs Leading to Dose Interruption","timeFrame":"Up to 90 days from last dose"},{"measure":"Number of Participants With AEs Leading to Dose Reduction","timeFrame":"Up to 90 days from last dose"},{"measure":"Number of Participants With AEs Leading to Treatment Discontinuation","timeFrame":"Up to 90 days from last dose"},{"measure":"Number of Deaths","timeFrame":"Up to 90 days from last dose"},{"measure":"Time to Definitive Deterioration by Non-Small Cell Lung Cancer-Symptom Assessment Questionnaire (NSCLC-SAQ) Total Score","timeFrame":"Up to 7 years"},{"measure":"Change From Baseline in European Organization for Research and Treatment of Cancer Quality of Life Questionnaire (EORTC QLQ-30) Scale/item Score","timeFrame":"Up to 90 days from last dose"}]},"eligibilityModule":{"eligibilityCriteria":"Inclusion Criteria:\n\n* Histologically or cytologically confirmed diagnosis of non-squamous NSCLC with evidence of KRAS G12C mutation via tumor tissue and/or circulating tumor deoxyribonucleic acid (ctDNA).\n* Locally advanced or metastatic disease.\n* Measurable disease via computed tomography (CT) or magnetic resonance imaging (MRI) per RECIST v1.1 criteria of at least 1 lesion.\n* No prior systemic anti-cancer therapy given for advanced or metastatic disease.\n* Not a candidate for definitive therapy (eg, chemoradiation or complete surgical resection).\n* Participants with brain metastases are eligible for enrollment, including those with untreated brain metastases. Brain metastases must be asymptomatic and not in need of immediate local therapy. Any untreated brain metastases must be ≤ 20 mm in diameter.\n* Any PD-L1 expression (0 to 100%) as determined by VENTANA PD-L1 (SP263) assay, Agilent PD-L1 IHC 22C3 pharmDx, or Agilent PD-L1 IHC 28-8 pharmDx.\n\nExclusion Criteria:\n\n* Participants with an active, known, prior documented, or suspected autoimmune or inflammatory disease.\n* Uncontrolled or significant cardiovascular conditions within 6 months prior to enrollment.\n* Inadequate bone marrow or liver function or electrocardiogram (ECG) abnormalities.\n* Ongoing treatment with concomitant medication known to cause prolonged QTc interval and that cannot be switched to alternative treatment prior to study entry.\n* Treatment targeting KRAS G12C mutation (eg, sotorasib, adagrasib) in any setting.\n* Other severe acute or chronic medical or psychiatric condition or laboratory abnormality that may increase the risk associated with study participation or study drug administration.\n* Other protocol-defined Inclusion/Exclusion criteria apply.","healthyVolunteers":false,"sex":"ALL","minimumAge":"18 Years","stdAges":["ADULT","OLDER_ADULT"]},"contactsLocationsModule":{"centralContacts":[{"name":"BMS Clinical Trials Contact Center www.BMSClinicalTrials.com","role":"CONTACT","phone":"855-907-3286","email":"Clinical.Trials@bms.com"},{"name":"First line of the email MUST contain the NCT# and Site #.","role":"CONTACT"}],"locations":[{"facility":"Local Institution - 0347","status":"NOT_YET_RECRUITING","city":"Birmingham","state":"Alabama","zip":"35294-3300","country":"United States","contacts":[{"name":"Site 0347","role":"CONTACT"}],"geoPoint":{"lat":33.52066,"lon":-86.80249}},{"facility":"Local Institution - 0581","status":"NOT_YET_RECRUITING","city":"Fullerton","state":"California","zip":"92835","country":"United States","contacts":[{"name":"Site 0581","role":"CONTACT"}],"geoPoint":{"lat":33.87029,"lon":-117.92534}},{"facility":"Local Institution - 0202","status":"NOT_YET_RECRUITING","city":"Long Beach","state":"California","zip":"90805","country":"United States","contacts":[{"name":"Site 0202","role":"CONTACT"}],"geoPoint":{"lat":33.76696,"lon":-118.18923}},{"facility":"Local Institution - 0643","status":"NOT_YET_RECRUITING","city":"Newport Beach","state":"California","zip":"92663","country":"United States","contacts":[{"name":"Site 0643","role":"CONTACT"}],"geoPoint":{"lat":33.61891,"lon":-117.92895}},{"facility":"Local Institution - 0666","status":"NOT_YET_RECRUITING","city":"Orange","state":"California","zip":"92868","country":"United States","contacts":[{"name":"Site 0666","role":"CONTACT"}],"geoPoint":{"lat":33.78779,"lon":-117.85311}},{"facility":"Local Institution - 0623","status":"NOT_YET_RECRUITING","city":"Santa Barbara","state":"California","zip":"93105","country":"United States","contacts":[{"name":"Site 0623","role":"CONTACT"}],"geoPoint":{"lat":34.42083,"lon":-119.69819}},{"facility":"Local Institution - 0442","status":"NOT_YET_RECRUITING","city":"Denver","state":"Colorado","zip":"80206","country":"United States","contacts":[{"name":"Site 0442","role":"CONTACT"}],"geoPoint":{"lat":39.73915,"lon":-104.9847}},{"facility":"Local Institution - 0651","status":"NOT_YET_RECRUITING","city":"Gainesville","state":"Florida","zip":"32610","country":"United States","contacts":[{"name":"Site 0651","role":"CONTACT"}],"geoPoint":{"lat":29.65163,"lon":-82.32483}},{"facility":"Local Institution - 0621","status":"NOT_YET_RECRUITING","city":"Palm Bay","state":"Florida","zip":"32901","country":"United States","contacts":[{"name":"Site 0621","role":"CONTACT"}],"geoPoint":{"lat":28.03446,"lon":-80.58866}},{"facility":"Local Institution - 0377","status":"NOT_YET_RECRUITING","city":"Tamarac","state":"Florida","zip":"33321","country":"United States","contacts":[{"name":"Site 0377","role":"CONTACT"}],"geoPoint":{"lat":26.21286,"lon":-80.24977}},{"facility":"Local Institution - 0647","status":"NOT_YET_RECRUITING","city":"Tampa","state":"Florida","zip":"33612","country":"United States","contacts":[{"name":"Site 0647","role":"CONTACT"}],"geoPoint":{"lat":27.94752,"lon":-82.45843}},{"facility":"Local Institution - 0392","status":"NOT_YET_RECRUITING","city":"Fort Eisenhower","state":"Georgia","zip":"30905","country":"United States","contacts":[{"name":"Site 0392","role":"CONTACT"}],"geoPoint":{"lat":33.35053,"lon":-82.2388}},{"facility":"Local Institution - 0031","status":"NOT_YET_RECRUITING","city":"Marietta","state":"Georgia","zip":"30060","country":"United States","contacts":[{"name":"Site 0031","role":"CONTACT"}],"geoPoint":{"lat":33.9526,"lon":-84.54993}},{"facility":"Local Institution - 0665","status":"NOT_YET_RECRUITING","city":"Arlington Heights","state":"Illinois","zip":"60005","country":"United States","contacts":[{"name":"Site 0665","role":"CONTACT"}],"geoPoint":{"lat":42.08836,"lon":-87.98063}},{"facility":"Local Institution - 0423","status":"NOT_YET_RECRUITING","city":"Munster","state":"Indiana","zip":"46321","country":"United States","contacts":[{"name":"Site 0423","role":"CONTACT"}],"geoPoint":{"lat":41.56448,"lon":-87.51254}},{"facility":"Local Institution - 0366","status":"NOT_YET_RECRUITING","city":"Edgewood","state":"Kentucky","zip":"41017","country":"United States","contacts":[{"name":"Site 0366","role":"CONTACT"}],"geoPoint":{"lat":39.01867,"lon":-84.58189}},{"facility":"Local Institution - 0566","status":"NOT_YET_RECRUITING","city":"Louisville","state":"Kentucky","zip":"40202","country":"United States","contacts":[{"name":"Site 0566","role":"CONTACT"}],"geoPoint":{"lat":38.25424,"lon":-85.75941}},{"facility":"Local Institution - 0644","status":"NOT_YET_RECRUITING","city":"Shreveport","state":"Louisiana","zip":"71103","country":"United States","contacts":[{"name":"Site 0644","role":"CONTACT"}],"geoPoint":{"lat":32.52515,"lon":-93.75018}},{"facility":"Local Institution - 0385","status":"NOT_YET_RECRUITING","city":"Columbia","state":"Maryland","zip":"21044","country":"United States","contacts":[{"name":"Site 0385","role":"CONTACT"}],"geoPoint":{"lat":39.24038,"lon":-76.83942}},{"facility":"Local Institution - 0019","status":"NOT_YET_RECRUITING","city":"Boston","state":"Massachusetts","zip":"02215","country":"United States","contacts":[{"name":"Site 0019","role":"CONTACT"}],"geoPoint":{"lat":42.35843,"lon":-71.05977}},{"facility":"Local Institution - 0437","status":"NOT_YET_RECRUITING","city":"Worcester","state":"Massachusetts","zip":"01655","country":"United States","contacts":[{"name":"Site 0437","role":"CONTACT"}],"geoPoint":{"lat":42.26259,"lon":-71.80229}},{"facility":"Local Institution - 0618","status":"NOT_YET_RECRUITING","city":"White Plains","state":"New York","zip":"10601","country":"United States","contacts":[{"name":"Site 0618","role":"CONTACT"}],"geoPoint":{"lat":41.03399,"lon":-73.76291}},{"facility":"Local Institution - 0624","status":"NOT_YET_RECRUITING","city":"Asheville","state":"North Carolina","zip":"28806","country":"United States","contacts":[{"name":"Site 0624","role":"CONTACT"}],"geoPoint":{"lat":35.60095,"lon":-82.55402}},{"facility":"Local Institution - 0672","status":"NOT_YET_RECRUITING","city":"Salisbury","state":"North Carolina","zip":"28144","country":"United States","contacts":[{"name":"Site 0672","role":"CONTACT"}],"geoPoint":{"lat":35.67097,"lon":-80.47423}},{"facility":"Local Institution - 0620","status":"NOT_YET_RECRUITING","city":"Columbus","state":"Ohio","zip":"43219","country":"United States","contacts":[{"name":"Site 0620","role":"CONTACT"}],"geoPoint":{"lat":39.96118,"lon":-82.99879}},{"facility":"Local Institution - 0657","status":"NOT_YET_RECRUITING","city":"York","state":"Pennsylvania","zip":"17403","country":"United States","contacts":[{"name":"Site 0657","role":"CONTACT"}],"geoPoint":{"lat":39.9626,"lon":-76.72774}},{"facility":"Local Institution - 0658","status":"NOT_YET_RECRUITING","city":"Greenville","state":"South Carolina","zip":"29607","country":"United States","contacts":[{"name":"Site 0658","role":"CONTACT"}],"geoPoint":{"lat":34.85262,"lon":-82.39401}},{"facility":"Local Institution - 0652","status":"NOT_YET_RECRUITING","city":"Laredo","state":"Texas","zip":"78041","country":"United States","contacts":[{"name":"Site 0652","role":"CONTACT"}],"geoPoint":{"lat":27.50641,"lon":-99.50754}},{"facility":"Local Institution - 0622","status":"NOT_YET_RECRUITING","city":"San Antonio","state":"Texas","zip":"78217","country":"United States","contacts":[{"name":"Site 0622","role":"CONTACT"}],"geoPoint":{"lat":29.42412,"lon":-98.49363}},{"facility":"Local Institution - 0575","status":"NOT_YET_RECRUITING","city":"Ciudad Autónoma de Buenos Aires","state":"Buenos Aires","zip":"C1426ANZ","country":"Argentina","contacts":[{"name":"Site 0575","role":"CONTACT"}],"geoPoint":{"lat":-34.61315,"lon":-58.37723}},{"facility":"IDIM - Instituto de Investigaciones Metabólicas","status":"RECRUITING","city":"Ciudad de Buenos Aires","state":"Buenos Aires","zip":"C1012AAR","country":"Argentina","contacts":[{"name":"Mara Rapaccioli, Site 0570","role":"CONTACT","phone":"1124870006"}],"geoPoint":{"lat":-34.61315,"lon":-58.37723}},{"facility":"Local Institution - 0584","status":"NOT_YET_RECRUITING","city":"Pilar","state":"Buenos Aires","zip":"1629","country":"Argentina","contacts":[{"name":"Site 0584","role":"CONTACT"}],"geoPoint":{"lat":-31.6789,"lon":-63.87964}},{"facility":"Hospital Italiano de Buenos Aires","status":"RECRUITING","city":"ABB","state":"Ciudad Autónoma De Buenos Aires","zip":"C1199ABB","country":"Argentina","contacts":[{"name":"Lorena Lupinacci, Site 0576","role":"CONTACT","phone":"5411495902008159"}]},{"facility":"Local Institution - 0571","status":"NOT_YET_RECRUITING","city":"Buenos Aires","state":"Ciudad Autónoma De Buenos Aires","zip":"C1417DTB","country":"Argentina","contacts":[{"name":"Site 0571","role":"CONTACT"}],"geoPoint":{"lat":-34.61315,"lon":-58.37723}},{"facility":"Clinica Adventista Belgrano","status":"RECRUITING","city":"Caba","state":"Ciudad Autónoma De Buenos Aires","zip":"C1430EGF","country":"Argentina","contacts":[{"name":"Aldo Perfetti, Site 0573","role":"CONTACT","phone":"5491132682903"}],"geoPoint":{"lat":-34.61315,"lon":-58.37723}},{"facility":"Sanatorio Plaza","status":"RECRUITING","city":"Rosario","state":"Santa Fe","zip":"2000","country":"Argentina","contacts":[{"name":"Miriam Raimondo, Site 0595","role":"CONTACT","phone":"+549341644-8821"}],"geoPoint":{"lat":-32.94682,"lon":-60.63932}},{"facility":"Local Institution - 0126","status":"NOT_YET_RECRUITING","city":"Canberra","state":"Australian Capital Territory","zip":"2605","country":"Australia","contacts":[{"name":"Site 0126","role":"CONTACT"}],"geoPoint":{"lat":-35.28346,"lon":149.12807}},{"facility":"Tamworth Hospital","status":"RECRUITING","city":"North Tamworth","state":"New South Wales","zip":"2340","country":"Australia","contacts":[{"name":"Sunil Rai, Site 0212","role":"CONTACT","phone":"0267677760"}],"geoPoint":{"lat":-31.07862,"lon":150.92219}},{"facility":"Orange Hospital","status":"RECRUITING","city":"Orange","state":"New South Wales","zip":"2800","country":"Australia","contacts":[{"name":"Robert Zielinski, Site 0128","role":"CONTACT","phone":"61263693380"}],"geoPoint":{"lat":-33.28397,"lon":149.10018}},{"facility":"Princess Alexandra Hospital","status":"RECRUITING","city":"Brisbane","state":"Queensland","zip":"4102","country":"Australia","contacts":[{"name":"Kenneth O'Byrne, Site 0127","role":"CONTACT","phone":"0731766505"}],"geoPoint":{"lat":-27.46794,"lon":153.02809}},{"facility":"Lyell McEwin Hospital","status":"RECRUITING","city":"Elizabeth Vale","state":"South Australia","zip":"5112","country":"Australia","contacts":[{"name":"Dainik Patel, Site 0129","role":"CONTACT","phone":"61 08 7117 7265"}],"geoPoint":{"lat":-34.74857,"lon":138.66819}},{"facility":"Frankston Hospital","status":"RECRUITING","city":"Frankston","state":"Victoria","zip":"3199","country":"Australia","contacts":[{"name":"Emma Beardsley, Site 0122","role":"CONTACT","phone":"61397847777"}],"geoPoint":{"lat":-38.14458,"lon":145.12291}},{"facility":"Northern Hospital","status":"RECRUITING","city":"Melbourne","state":"Victoria","zip":"3076","country":"Australia","contacts":[{"name":"Vishal Boolell, Site 0121","role":"CONTACT","phone":"61421000364"}],"geoPoint":{"lat":-37.814,"lon":144.96332}},{"facility":"Local Institution - 0160","status":"NOT_YET_RECRUITING","city":"Traralgon","state":"Victoria","zip":"3844","country":"Australia","contacts":[{"name":"Site 0160","role":"CONTACT"}],"geoPoint":{"lat":-38.19528,"lon":146.5415}},{"facility":"Joondalup Health Campus","status":"RECRUITING","city":"Joondalup","state":"Western Australia","zip":"6027","country":"Australia","contacts":[{"name":"Arman Hasani, Site 0229","role":"CONTACT","phone":"(08) 9400 9400"}],"geoPoint":{"lat":-31.74445,"lon":115.76835}},{"facility":"Klinikum Wels-Grieskirchen GmbH","status":"RECRUITING","city":"Wels","state":"Oberösterreich","zip":"4600","country":"Austria","contacts":[{"name":"Christian Trockenbacher, Site 0532","role":"CONTACT","phone":"4372424152382"}],"geoPoint":{"lat":48.16667,"lon":14.03333}},{"facility":"Local Institution - 0539","status":"NOT_YET_RECRUITING","city":"Graz","state":"Steiermark","zip":"8036","country":"Austria","contacts":[{"name":"Site 0539","role":"CONTACT"}],"geoPoint":{"lat":47.06667,"lon":15.45}},{"facility":"Local Institution - 0530","status":"NOT_YET_RECRUITING","city":"Linz","zip":"4021","country":"Austria","contacts":[{"name":"Site 0530","role":"CONTACT"}],"geoPoint":{"lat":48.30639,"lon":14.28611}},{"facility":"Medizinische Universität Wien","status":"RECRUITING","city":"Wien","zip":"1090","country":"Austria","contacts":[{"name":"Thorsten Fuereder, Site 0533","role":"CONTACT","phone":"4314040044450"}],"geoPoint":{"lat":48.20849,"lon":16.37208}},{"facility":"Local Institution - 0673","status":"NOT_YET_RECRUITING","city":"Wien","zip":"1210","country":"Austria","contacts":[{"name":"Site 0673","role":"CONTACT"}],"geoPoint":{"lat":48.20849,"lon":16.37208}},{"facility":"Local Institution - 0114","status":"NOT_YET_RECRUITING","city":"Brussels","state":"Bruxelles-Capitale, Région De","zip":"1090","country":"Belgium","contacts":[{"name":"Site 0114","role":"CONTACT"}],"geoPoint":{"lat":50.85045,"lon":4.34878}},{"facility":"Local Institution - 0113","status":"NOT_YET_RECRUITING","city":"Brussels","state":"Bruxelles-Capitale, Région De","zip":"1200","country":"Belgium","contacts":[{"name":"Site 0113","role":"CONTACT"}],"geoPoint":{"lat":50.85045,"lon":4.34878}},{"facility":"Local Institution - 0215","status":"NOT_YET_RECRUITING","city":"Hasselt","state":"Limburg","zip":"3500","country":"Belgium","contacts":[{"name":"Site 0215","role":"CONTACT"}],"geoPoint":{"lat":50.93106,"lon":5.33781}},{"facility":"Local Institution - 0216","status":"NOT_YET_RECRUITING","city":"Gent","state":"Oost-Vlaanderen","zip":"9000","country":"Belgium","contacts":[{"name":"Site 0216","role":"CONTACT"}],"geoPoint":{"lat":51.05,"lon":3.71667}},{"facility":"Local Institution - 0107","status":"NOT_YET_RECRUITING","city":"Leuven","state":"Vlaams-Brabant","zip":"3000","country":"Belgium","contacts":[{"name":"Site 0107","role":"CONTACT"}],"geoPoint":{"lat":50.87959,"lon":4.70093}},{"facility":"Local Institution - 0109","status":"NOT_YET_RECRUITING","city":"Liège","zip":"4000","country":"Belgium","contacts":[{"name":"Site 0109","role":"CONTACT"}],"geoPoint":{"lat":50.63373,"lon":5.56749}},{"facility":"Local Institution - 0257","status":"NOT_YET_RECRUITING","city":"Salvador","state":"Bahia","zip":"40170-110","country":"Brazil","contacts":[{"name":"Site 0257","role":"CONTACT"}],"geoPoint":{"lat":-12.97111,"lon":-38.51083}},{"facility":"Local Institution - 0242","status":"NOT_YET_RECRUITING","city":"Vitória","state":"Espírito Santo","zip":"29055450","country":"Brazil","contacts":[{"name":"Site 0242","role":"CONTACT"}],"geoPoint":{"lat":-20.31944,"lon":-40.33778}},{"facility":"Local Institution - 0244","status":"NOT_YET_RECRUITING","city":"Belo Horizonte","state":"Minas Gerais","zip":"30110-022","country":"Brazil","contacts":[{"name":"Site 0244","role":"CONTACT"}],"geoPoint":{"lat":-19.92083,"lon":-43.93778}},{"facility":"Local Institution - 0235","status":"NOT_YET_RECRUITING","city":"Ijui","state":"Rio Grande Do Sul","zip":"98700-000","country":"Brazil","contacts":[{"name":"Site 0235","role":"CONTACT"}],"geoPoint":{"lat":-28.38778,"lon":-53.91472}},{"facility":"Local Institution - 0233","status":"NOT_YET_RECRUITING","city":"Porto Alegre","state":"Rio Grande Do Sul","zip":"90610-000","country":"Brazil","contacts":[{"name":"Site 0233","role":"CONTACT"}],"geoPoint":{"lat":-30.03306,"lon":-51.23}},{"facility":"Local Institution - 0238","status":"NOT_YET_RECRUITING","city":"Santa Cruz do Sul","state":"Rio Grande Do Sul","zip":"96830-180","country":"Brazil","contacts":[{"name":"Site 0238","role":"CONTACT"}],"geoPoint":{"lat":-29.7175,"lon":-52.42583}},{"facility":"Local Institution - 0243","status":"NOT_YET_RECRUITING","city":"Porto Velho","state":"Rondonia","zip":"76834-899","country":"Brazil","contacts":[{"name":"Site 0243","role":"CONTACT"}],"geoPoint":{"lat":-8.76194,"lon":-63.90389}},{"facility":"Local Institution - 0237","status":"NOT_YET_RECRUITING","city":"Blumenau","state":"Santa Catarina","zip":"89010-340","country":"Brazil","contacts":[{"name":"Site 0237","role":"CONTACT"}],"geoPoint":{"lat":-26.91944,"lon":-49.06611}},{"facility":"Local Institution - 0245","status":"NOT_YET_RECRUITING","city":"Itajaí","state":"Santa Catarina","zip":"88301-220","country":"Brazil","contacts":[{"name":"Site 0245","role":"CONTACT"}],"geoPoint":{"lat":-26.90778,"lon":-48.66194}},{"facility":"Local Institution - 0240","status":"NOT_YET_RECRUITING","city":"Barretos","state":"São Paulo","zip":"14784400","country":"Brazil","contacts":[{"name":"Site 0240","role":"CONTACT"}],"geoPoint":{"lat":-20.55722,"lon":-48.56778}},{"facility":"Local Institution - 0254","status":"NOT_YET_RECRUITING","city":"Sao Paulo","state":"São Paulo","zip":"01509-010","country":"Brazil","contacts":[{"name":"Site 0254","role":"CONTACT"}],"geoPoint":{"lat":-23.5475,"lon":-46.63611}},{"facility":"Local Institution - 0241","status":"NOT_YET_RECRUITING","city":"São Carlos","state":"São Paulo","zip":"13561-130","country":"Brazil","contacts":[{"name":"Site 0241","role":"CONTACT"}],"geoPoint":{"lat":-22.0175,"lon":-47.89083}},{"facility":"Local Institution - 0239","status":"NOT_YET_RECRUITING","city":"São José do Rio Preto","state":"São Paulo","zip":"15090-000","country":"Brazil","contacts":[{"name":"Site 0239","role":"CONTACT"}],"geoPoint":{"lat":-20.81972,"lon":-49.37944}},{"facility":"Local Institution - 0236","status":"NOT_YET_RECRUITING","city":"Rio de Janeiro","zip":"20230-130","country":"Brazil","contacts":[{"name":"Site 0236","role":"CONTACT"}],"geoPoint":{"lat":-22.90278,"lon":-43.2075}},{"facility":"Local Institution - 0258","status":"NOT_YET_RECRUITING","city":"São Paulo","zip":"01246-000","country":"Brazil","contacts":[{"name":"Site 0258","role":"CONTACT"}],"geoPoint":{"lat":-23.5475,"lon":-46.63611}},{"facility":"Local Institution - 0629","status":"NOT_YET_RECRUITING","city":"Panagyurishte","state":"Pazardzhik","zip":"4500","country":"Bulgaria","contacts":[{"name":"Site 0629","role":"CONTACT"}],"geoPoint":{"lat":42.4952,"lon":24.19017}},{"facility":"Local Institution - 0628","status":"NOT_YET_RECRUITING","city":"Sofia","state":"Sofia (stolitsa)","zip":"1632","country":"Bulgaria","contacts":[{"name":"Site 0628","role":"CONTACT"}],"geoPoint":{"lat":42.69751,"lon":23.32415}},{"facility":"Local Institution - 0627","status":"NOT_YET_RECRUITING","city":"Ruse","zip":"7002","country":"Bulgaria","contacts":[{"name":"Site 0627","role":"CONTACT"}],"geoPoint":{"lat":43.85639,"lon":25.97083}},{"facility":"Local Institution - 0635","status":"NOT_YET_RECRUITING","city":"Stara Zagora","zip":"6000","country":"Bulgaria","contacts":[{"name":"Site 0635","role":"CONTACT"}],"geoPoint":{"lat":42.43278,"lon":25.64194}},{"facility":"Local Institution - 0074","status":"NOT_YET_RECRUITING","city":"Halifax","state":"Nova Scotia","zip":"B3H 2Y9","country":"Canada","contacts":[{"name":"Site 0074","role":"CONTACT"}],"geoPoint":{"lat":44.64533,"lon":-63.57239}},{"facility":"Local Institution - 0559","status":"NOT_YET_RECRUITING","city":"Montreal","state":"Quebec","zip":"H3T 1M5","country":"Canada","contacts":[{"name":"Site 0559","role":"CONTACT"}],"geoPoint":{"lat":45.50884,"lon":-73.58781}},{"facility":"Bradfordhill","status":"RECRUITING","city":"Recoleta","state":"Región Metropolitana De Santiago","zip":"8420391","country":"Chile","contacts":[{"name":"Carlos Rojas, Site 0574","role":"CONTACT","phone":"+56998744662"}],"geoPoint":{"lat":-30.50052,"lon":-71.15042}},{"facility":"FALP","status":"RECRUITING","city":"Santiago","state":"Región Metropolitana De Santiago","zip":"7500921","country":"Chile","contacts":[{"name":"Christian Caglevic, Site 0577","role":"CONTACT","phone":"56224457254"}],"geoPoint":{"lat":-33.45694,"lon":-70.64827}},{"facility":"Local Institution - 0482","status":"NOT_YET_RECRUITING","city":"Bengbu","state":"Anhui","zip":"233017","country":"China","contacts":[{"name":"Site 0482","role":"CONTACT"}],"geoPoint":{"lat":32.94083,"lon":117.36083}},{"facility":"Local Institution - 0475","status":"NOT_YET_RECRUITING","city":"Hefei","state":"Anhui","zip":"230071","country":"China","contacts":[{"name":"Site 0475","role":"CONTACT"}],"geoPoint":{"lat":31.86389,"lon":117.28083}},{"facility":"Local Institution - 0355","status":"NOT_YET_RECRUITING","city":"Beijing","state":"Beijing","zip":"100142","country":"China","contacts":[{"name":"Site 0355","role":"CONTACT"}],"geoPoint":{"lat":39.9075,"lon":116.39723}},{"facility":"Local Institution - 0491","status":"NOT_YET_RECRUITING","city":"Beijing","state":"Beijing","zip":"100730","country":"China","contacts":[{"name":"Site 0491","role":"CONTACT"}],"geoPoint":{"lat":39.9075,"lon":116.39723}},{"facility":"Local Institution - 0397","status":"NOT_YET_RECRUITING","city":"Beijing","state":"Beijing","zip":"101149","country":"China","contacts":[{"name":"Site 0397","role":"CONTACT"}],"geoPoint":{"lat":39.9075,"lon":116.39723}},{"facility":"Local Institution - 0490","status":"NOT_YET_RECRUITING","city":"Chongqing","state":"Chongqing","zip":"400030","country":"China","contacts":[{"name":"Site 0490","role":"CONTACT"}],"geoPoint":{"lat":29.56278,"lon":106.55278}},{"facility":"Local Institution - 0362","status":"NOT_YET_RECRUITING","city":"Fuzhou Fujian","state":"Fujian","zip":"350001","country":"China","contacts":[{"name":"Site 0362","role":"CONTACT"}]},{"facility":"Local Institution - 0383","status":"NOT_YET_RECRUITING","city":"Xiamen","state":"Fujian","zip":"361003","country":"China","contacts":[{"name":"Site 0383","role":"CONTACT"}],"geoPoint":{"lat":24.47979,"lon":118.08187}},{"facility":"Local Institution - 0469","status":"NOT_YET_RECRUITING","city":"Guangzhou","state":"Guangdong","zip":"0","country":"China","contacts":[{"name":"Site 0469","role":"CONTACT"}],"geoPoint":{"lat":23.11667,"lon":113.25}},{"facility":"Local Institution - 0625","status":"NOT_YET_RECRUITING","city":"Guangzhou","state":"Guangdong","zip":"510140","country":"China","contacts":[{"name":"Site 0625","role":"CONTACT"}],"geoPoint":{"lat":23.11667,"lon":113.25}},{"facility":"Local Institution - 0356","status":"NOT_YET_RECRUITING","city":"Shantou","state":"Guangdong","zip":"515041","country":"China","contacts":[{"name":"Site 0356","role":"CONTACT"}],"geoPoint":{"lat":23.36814,"lon":116.71479}},{"facility":"Local Institution - 0461","status":"NOT_YET_RECRUITING","city":"Shenzhen","state":"Guangdong","zip":"0","country":"China","contacts":[{"name":"Site 0461","role":"CONTACT"}],"geoPoint":{"lat":22.54554,"lon":114.0683}},{"facility":"Local Institution - 0352","status":"NOT_YET_RECRUITING","city":"Shenzhen","state":"Guangdong","zip":"518020","country":"China","contacts":[{"name":"Site 0352","role":"CONTACT"}],"geoPoint":{"lat":22.54554,"lon":114.0683}},{"facility":"Local Institution - 0464","status":"NOT_YET_RECRUITING","city":"Nanning","state":"Guangxi","zip":"530021","country":"China","contacts":[{"name":"Site 0464","role":"CONTACT"}],"geoPoint":{"lat":22.81667,"lon":108.31667}},{"facility":"Local Institution - 0472","status":"NOT_YET_RECRUITING","city":"Shijiazhuang","state":"Hebei","zip":"050035","country":"China","contacts":[{"name":"Site 0472","role":"CONTACT"}],"geoPoint":{"lat":38.04139,"lon":114.47861}},{"facility":"Local Institution - 0465","status":"NOT_YET_RECRUITING","city":"Harbin","state":"Heilongjiang","zip":"150081","country":"China","contacts":[{"name":"Site 0465","role":"CONTACT"}],"geoPoint":{"lat":45.75,"lon":126.65}},{"facility":"Local Institution - 0626","status":"NOT_YET_RECRUITING","city":"Nanyang","state":"Henan","zip":"473009","country":"China","contacts":[{"name":"Site 0626","role":"CONTACT"}],"geoPoint":{"lat":32.99472,"lon":112.53278}},{"facility":"Local Institution - 0494","status":"NOT_YET_RECRUITING","city":"Xinxiang","state":"Henan","zip":"453100","country":"China","contacts":[{"name":"Site 0494","role":"CONTACT"}],"geoPoint":{"lat":35.19033,"lon":113.80151}},{"facility":"Local Institution - 0373","status":"NOT_YET_RECRUITING","city":"Wuhan","state":"Hubei","zip":"430030","country":"China","contacts":[{"name":"Site 0373","role":"CONTACT"}],"geoPoint":{"lat":30.58333,"lon":114.26667}},{"facility":"Local Institution - 0398","status":"NOT_YET_RECRUITING","city":"Changsha","state":"Hunan","zip":"410013","country":"China","contacts":[{"name":"Site 0398","role":"CONTACT"}],"geoPoint":{"lat":28.19874,"lon":112.97087}},{"facility":"Local Institution - 0371","status":"NOT_YET_RECRUITING","city":"Nanjing","state":"Jiangsu","zip":"210000","country":"China","contacts":[{"name":"Site 0371","role":"CONTACT"}],"geoPoint":{"lat":32.06167,"lon":118.77778}},{"facility":"Local Institution - 0382","status":"NOT_YET_RECRUITING","city":"Suzhou","state":"Jiangsu","zip":"215006","country":"China","contacts":[{"name":"Site 0382","role":"CONTACT"}],"geoPoint":{"lat":31.30408,"lon":120.59538}},{"facility":"Local Institution - 0378","status":"NOT_YET_RECRUITING","city":"Yangzhou","state":"Jiangsu","zip":"225001","country":"China","contacts":[{"name":"Site 0378","role":"CONTACT"}],"geoPoint":{"lat":32.39722,"lon":119.43583}},{"facility":"Local Institution - 0467","status":"NOT_YET_RECRUITING","city":"Nanchang","state":"Jiangxi","zip":"330006","country":"China","contacts":[{"name":"Site 0467","role":"CONTACT"}],"geoPoint":{"lat":28.68396,"lon":115.85306}},{"facility":"Local Institution - 0483","status":"NOT_YET_RECRUITING","city":"Changchun","state":"Jilin","zip":"130021","country":"China","contacts":[{"name":"Site 0483","role":"CONTACT"}],"geoPoint":{"lat":43.88,"lon":125.32278}},{"facility":"Local Institution - 0473","status":"NOT_YET_RECRUITING","city":"Shenyang","state":"Liaoning","zip":"110001","country":"China","contacts":[{"name":"Site 0473","role":"CONTACT"}],"geoPoint":{"lat":41.79222,"lon":123.43278}},{"facility":"Local Institution - 0479","status":"NOT_YET_RECRUITING","city":"Shenyang","state":"Liaoning","zip":"110004","country":"China","contacts":[{"name":"Site 0479","role":"CONTACT"}],"geoPoint":{"lat":41.79222,"lon":123.43278}},{"facility":"Local Institution - 0493","status":"NOT_YET_RECRUITING","city":"Shenyang","state":"Liaoning","zip":"110042","country":"China","contacts":[{"name":"Site 0493","role":"CONTACT"}],"geoPoint":{"lat":41.79222,"lon":123.43278}},{"facility":"Local Institution - 0474","status":"NOT_YET_RECRUITING","city":"Jinan","state":"Shandong","zip":"250117","country":"China","contacts":[{"name":"Site 0474","role":"CONTACT"}],"geoPoint":{"lat":36.66833,"lon":116.99722}},{"facility":"Local Institution - 0359","status":"NOT_YET_RECRUITING","city":"Linyi","state":"Shandong","zip":"276001","country":"China","contacts":[{"name":"Site 0359","role":"CONTACT"}],"geoPoint":{"lat":35.06306,"lon":118.34278}},{"facility":"Local Institution - 0470","status":"NOT_YET_RECRUITING","city":"Shanghai","state":"Shanghai","zip":"200030","country":"China","contacts":[{"name":"Site 0470","role":"CONTACT"}],"geoPoint":{"lat":31.22222,"lon":121.45806}},{"facility":"Local Institution - 0381","status":"WITHDRAWN","city":"Shanghai","state":"Shanghai","zip":"200032","country":"China","geoPoint":{"lat":31.22222,"lon":121.45806}},{"facility":"Local Institution - 0353","status":"NOT_YET_RECRUITING","city":"Taiyuan","state":"Shanxi","zip":"030000","country":"China","contacts":[{"name":"Site 0353","role":"CONTACT"}],"geoPoint":{"lat":37.86944,"lon":112.56028}},{"facility":"Local Institution - 0384","status":"NOT_YET_RECRUITING","city":"Cheng Du","state":"Sichuan","zip":"610041","country":"China","contacts":[{"name":"Site 0384","role":"CONTACT"}]},{"facility":"Local Institution - 0667","status":"NOT_YET_RECRUITING","city":"Chengdu","state":"Sichuan","zip":"610041","country":"China","contacts":[{"name":"Site 0667","role":"CONTACT"}],"geoPoint":{"lat":30.66667,"lon":104.06667}},{"facility":"Local Institution - 0460","status":"NOT_YET_RECRUITING","city":"Tianjin","state":"Tianjin","zip":"300052","country":"China","contacts":[{"name":"Site 0460","role":"CONTACT"}],"geoPoint":{"lat":39.14222,"lon":117.17667}},{"facility":"Local Institution - 0462","status":"NOT_YET_RECRUITING","city":"Hangzhou","state":"Zhejiang","zip":"310003","country":"China","contacts":[{"name":"Site 0462","role":"CONTACT"}],"geoPoint":{"lat":30.29365,"lon":120.16142}},{"facility":"Local Institution - 0492","status":"NOT_YET_RECRUITING","city":"Hangzhou","state":"Zhejiang","zip":"310016","country":"China","contacts":[{"name":"Site 0492","role":"CONTACT"}],"geoPoint":{"lat":30.29365,"lon":120.16142}},{"facility":"Local Institution - 0463","status":"NOT_YET_RECRUITING","city":"Hangzhou","state":"Zhejiang","zip":"310022","country":"China","contacts":[{"name":"Site 0463","role":"CONTACT"}],"geoPoint":{"lat":30.29365,"lon":120.16142}},{"facility":"Local Institution - 0374","status":"NOT_YET_RECRUITING","city":"Linhai","state":"Zhejiang","zip":"317000","country":"China","contacts":[{"name":"Site 0374","role":"CONTACT"}],"geoPoint":{"lat":28.85535,"lon":121.14469}},{"facility":"Local Institution - 0354","status":"NOT_YET_RECRUITING","city":"Shanghai","zip":"200120","country":"China","contacts":[{"name":"Site 0354","role":"CONTACT"}],"geoPoint":{"lat":31.22222,"lon":121.45806}},{"facility":"Local Institution - 0580","status":"NOT_YET_RECRUITING","city":"Medellín","state":"Antioquia","zip":"050030","country":"Colombia","contacts":[{"name":"Site 0580","role":"CONTACT"}],"geoPoint":{"lat":6.25184,"lon":-75.56359}},{"facility":"Local Institution - 0171","status":"NOT_YET_RECRUITING","city":"Rionegro","state":"Antioquia","zip":"054040","country":"Colombia","contacts":[{"name":"Site 0171","role":"CONTACT"}],"geoPoint":{"lat":6.15515,"lon":-75.37371}},{"facility":"Local Institution - 0191","status":"WITHDRAWN","city":"Puerto Colombia","state":"Atlántico","zip":"81001","country":"Colombia","geoPoint":{"lat":10.98778,"lon":-74.95472}},{"facility":"Local Institution - 0253","status":"NOT_YET_RECRUITING","city":"Valledupar","state":"Cesar","zip":"200001","country":"Colombia","contacts":[{"name":"Site 0253","role":"CONTACT"}],"geoPoint":{"lat":10.46314,"lon":-73.25322}},{"facility":"Local Institution - 0167","status":"NOT_YET_RECRUITING","city":"Montería","state":"COR","zip":"230002","country":"Colombia","contacts":[{"name":"Site 0167","role":"CONTACT"}],"geoPoint":{"lat":8.74798,"lon":-75.88143}},{"facility":"Local Institution - 0671","status":"NOT_YET_RECRUITING","city":"Bogota","state":"Cundinamarca","zip":"111151","country":"Colombia","contacts":[{"name":"Site 0671","role":"CONTACT"}],"geoPoint":{"lat":4.60971,"lon":-74.08175}},{"facility":"Local Institution - 0189","status":"NOT_YET_RECRUITING","city":"Bogotá","state":"Distrito Capital De Bogotá","zip":"110131","country":"Colombia","contacts":[{"name":"Site 0189","role":"CONTACT"}],"geoPoint":{"lat":4.60971,"lon":-74.08175}},{"facility":"Local Institution - 0170","status":"NOT_YET_RECRUITING","city":"Floridablanca","state":"Santander","zip":"681004","country":"Colombia","contacts":[{"name":"Site 0170","role":"CONTACT"}],"geoPoint":{"lat":7.06222,"lon":-73.08644}},{"facility":"Local Institution - 0173","status":"NOT_YET_RECRUITING","city":"Cali","state":"Valle Del Cauca","zip":"760032","country":"Colombia","contacts":[{"name":"Site 0173","role":"CONTACT"}],"geoPoint":{"lat":3.43722,"lon":-76.5225}},{"facility":"Local Institution - 0619","status":"NOT_YET_RECRUITING","city":"Dubrovnik","state":"Dubrovačko-neretvanska Županija","zip":"20000","country":"Croatia","contacts":[{"name":"Site 0619","role":"CONTACT"}],"geoPoint":{"lat":42.64807,"lon":18.09216}},{"facility":"Local Institution - 0664","status":"NOT_YET_RECRUITING","city":"Rijeka","state":"Primorsko-goranska Županija","zip":"51000","country":"Croatia","contacts":[{"name":"Site 0664","role":"CONTACT"}],"geoPoint":{"lat":45.32674,"lon":14.44239}},{"facility":"Local Institution - 0639","status":"NOT_YET_RECRUITING","city":"Split","state":"Splitsko-dalmatinska Županija","zip":"21000","country":"Croatia","contacts":[{"name":"Site 0639","role":"CONTACT"}],"geoPoint":{"lat":43.50891,"lon":16.43915}},{"facility":"Local Institution - 0567","status":"NOT_YET_RECRUITING","city":"Osijek","zip":"31000","country":"Croatia","contacts":[{"name":"Site 0567","role":"CONTACT"}],"geoPoint":{"lat":45.55111,"lon":18.69389}},{"facility":"Local Institution - 0585","status":"NOT_YET_RECRUITING","city":"Zagreb","zip":"10000","country":"Croatia","contacts":[{"name":"Site 0585","role":"CONTACT"}],"geoPoint":{"lat":45.81444,"lon":15.97798}},{"facility":"Local Institution - 0159","status":"WITHDRAWN","city":"Mulhouse","state":"Alsace","zip":"68100","country":"France","geoPoint":{"lat":47.75,"lon":7.33333}},{"facility":"Local Institution - 0296","status":"NOT_YET_RECRUITING","city":"Caen","state":"Calvados","zip":"14076","country":"France","contacts":[{"name":"Site 0296","role":"CONTACT"}],"geoPoint":{"lat":49.18585,"lon":-0.35912}},{"facility":"Local Institution - 0605","status":"NOT_YET_RECRUITING","city":"Dijon","state":"Côte-d'Or","zip":"21079","country":"France","contacts":[{"name":"Site 0605","role":"CONTACT"}],"geoPoint":{"lat":47.31667,"lon":5.01667}},{"facility":"CHRU de Brest","status":"RECRUITING","city":"Brest","state":"Finistère","zip":"29609","country":"France","contacts":[{"name":"Margaux Geier, Site 0512","role":"CONTACT","phone":"33298223333"}],"geoPoint":{"lat":48.3903,"lon":-4.48628}},{"facility":"Local Institution - 0558","status":"NOT_YET_RECRUITING","city":"Montpellier","state":"Hérault","zip":"34298","country":"France","contacts":[{"name":"Site 0558","role":"CONTACT"}],"geoPoint":{"lat":43.61092,"lon":3.87723}},{"facility":"Local Institution - 0220","status":"NOT_YET_RECRUITING","city":"La Tronche","state":"Isère","zip":"38700","country":"France","contacts":[{"name":"Site 0220","role":"CONTACT"}],"geoPoint":{"lat":45.20429,"lon":5.73645}},{"facility":"Hôpital Nord Guillaume-et-René-Laennec / CHU de Nantes","status":"RECRUITING","city":"Saint-Herblain","state":"Loire-Atlantique","zip":"44800","country":"France","contacts":[{"name":"Elvire Pons-Tostivint, Site 0139","role":"CONTACT","phone":"+33676133810"}],"geoPoint":{"lat":47.21765,"lon":-1.64841}},{"facility":"Local Institution - 0560","status":"NOT_YET_RECRUITING","city":"Angers","state":"Maine-et-Loire","zip":"49933","country":"France","contacts":[{"name":"Site 0560","role":"CONTACT"}],"geoPoint":{"lat":47.46667,"lon":-0.55}},{"facility":"Centre Hospitalier Régional Universitaire de Nancy - Hôpitaux de Brabois","status":"RECRUITING","city":"Vandoeuvre lès Nancy","state":"Meurthe-et-Moselle","zip":"54511","country":"France","contacts":[{"name":"Bertrand Mennecier, Site 0589","role":"CONTACT","phone":"33383154653"}],"geoPoint":{"lat":48.65,"lon":6.18333}},{"facility":"Local Institution - 0636","status":"NOT_YET_RECRUITING","city":"Marseille","state":"Provence-Alpes-Côte-d'Azur","zip":"13273","country":"France","contacts":[{"name":"Site 0636","role":"CONTACT"}],"geoPoint":{"lat":43.29551,"lon":5.38958}},{"facility":"Local Institution - 0552","status":"NOT_YET_RECRUITING","city":"Amiens","state":"Somme","zip":"80054","country":"France","contacts":[{"name":"Site 0552","role":"CONTACT"}],"geoPoint":{"lat":49.9,"lon":2.3}},{"facility":"Local Institution - 0213","status":"NOT_YET_RECRUITING","city":"Villejuif","state":"Val-de-Marne","zip":"94800","country":"France","contacts":[{"name":"Site 0213","role":"CONTACT"}],"geoPoint":{"lat":48.7939,"lon":2.35992}},{"facility":"Chu Gabriel Montpied","status":"RECRUITING","city":"Clermont-Ferrand","zip":"63000","country":"France","contacts":[{"name":"Patrick MERLE, Site 0134","role":"CONTACT","phone":"0473751649"}],"geoPoint":{"lat":45.77966,"lon":3.08628}},{"facility":"Local Institution - 0604","status":"NOT_YET_RECRUITING","city":"Limoges","zip":"87042","country":"France","contacts":[{"name":"Site 0604","role":"CONTACT"}],"geoPoint":{"lat":45.83153,"lon":1.25781}},{"facility":"Local Institution - 0164","status":"NOT_YET_RECRUITING","city":"Marseille","zip":"13915","country":"France","contacts":[{"name":"Site 0164","role":"CONTACT"}],"geoPoint":{"lat":43.29551,"lon":5.38958}},{"facility":"Local Institution - 0133","status":"NOT_YET_RECRUITING","city":"Paris","zip":"75248","country":"France","contacts":[{"name":"Site 0133","role":"CONTACT"}],"geoPoint":{"lat":48.85341,"lon":2.3488}},{"facility":"Hopitaux Universitaires Paris Centre-Hopital Cochin","status":"RECRUITING","city":"Paris","zip":"75679","country":"France","contacts":[{"name":"Marie Wislez, Site 0158","role":"CONTACT","phone":"33158413091"}],"geoPoint":{"lat":48.85341,"lon":2.3488}},{"facility":"Local Institution - 0513","status":"NOT_YET_RECRUITING","city":"Boulogne-Billancourt","state":"Île-de-France","zip":"92100","country":"France","contacts":[{"name":"Site 0513","role":"CONTACT"}],"geoPoint":{"lat":48.83333,"lon":2.25}},{"facility":"Klinikum Esslingen","status":"RECRUITING","city":"Esslingen","state":"Baden-Württemberg","zip":"73730","country":"Germany","contacts":[{"name":"Martin Faehling, Site 0534","role":"CONTACT","phone":"+4971131032402"}],"geoPoint":{"lat":48.73961,"lon":9.30473}},{"facility":"Local Institution - 0670","status":"NOT_YET_RECRUITING","city":"Ulm","state":"Baden-Württemberg","zip":"89081","country":"Germany","contacts":[{"name":"Site 0670","role":"CONTACT"}],"geoPoint":{"lat":48.39841,"lon":9.99155}},{"facility":"Klinikum der Ludwig-Maximilians-Universitaet Muenchen","status":"RECRUITING","city":"München","state":"Bayern","zip":"81377","country":"Germany","contacts":[{"name":"Amanda Tufman, Site 0557","role":"CONTACT","phone":"4989440057545"}],"geoPoint":{"lat":48.13743,"lon":11.57549}},{"facility":"Local Institution - 0518","status":"NOT_YET_RECRUITING","city":"Frankfurt","state":"Hessen","zip":"60389","country":"Germany","contacts":[{"name":"Site 0518","role":"CONTACT"}],"geoPoint":{"lat":50.11552,"lon":8.68417}},{"facility":"Local Institution - 0535","status":"NOT_YET_RECRUITING","city":"Gießen","state":"Hessen","zip":"35392","country":"Germany","contacts":[{"name":"Site 0535","role":"CONTACT"}],"geoPoint":{"lat":50.58727,"lon":8.67554}},{"facility":"Praxis Onkologie am Raschplatz","status":"RECRUITING","city":"Hannover","state":"Niedersachsen","zip":"30161","country":"Germany","contacts":[{"name":"Eyck von der Heyde, Site 0520","role":"CONTACT","phone":"0177-6506614"}],"geoPoint":{"lat":52.37052,"lon":9.73322}},{"facility":"Pius Hospital Oldenburg","status":"RECRUITING","city":"Oldenburg","state":"Niedersachsen","zip":"26121","country":"Germany","contacts":[{"name":"Frank Griesinger, Site 0527","role":"CONTACT","phone":"494412291611"}],"geoPoint":{"lat":53.14118,"lon":8.21467}},{"facility":"Local Institution - 0603","status":"NOT_YET_RECRUITING","city":"Herne","state":"Nordrhein-Westfalen","zip":"44651","country":"Germany","contacts":[{"name":"Site 0603","role":"CONTACT"}],"geoPoint":{"lat":51.5388,"lon":7.22572}},{"facility":"Klinikum Köln-Merheim","status":"RECRUITING","city":"Köln","state":"Nordrhein-Westfalen","zip":"51109","country":"Germany","contacts":[{"name":"Carolin Groß-Ophoff-Müller, Site 0523","role":"CONTACT","phone":"+49221890713962"}],"geoPoint":{"lat":50.93333,"lon":6.95}},{"facility":"Local Institution - 0522","status":"NOT_YET_RECRUITING","city":"Halle","state":"Sachsen-Anhalt","zip":"06120","country":"Germany","contacts":[{"name":"Site 0522","role":"CONTACT"}],"geoPoint":{"lat":51.48159,"lon":11.97948}},{"facility":"Malteser Krankenhaus St. Franziskus-Hospital","status":"RECRUITING","city":"Flensburg","state":"Schleswig-Holstein","zip":"24939","country":"Germany","contacts":[{"name":"Angela Krackhardt, Site 0521","role":"CONTACT","phone":"+4618162512"}],"geoPoint":{"lat":54.78431,"lon":9.43961}},{"facility":"Local Institution - 0524","status":"NOT_YET_RECRUITING","city":"Gera","state":"Thüringen","zip":"07548","country":"Germany","contacts":[{"name":"Site 0524","role":"CONTACT"}],"geoPoint":{"lat":50.88029,"lon":12.08187}},{"facility":"Universitätsklinikum Jena","status":"RECRUITING","city":"Jena","state":"Thüringen","zip":"07747","country":"Germany","contacts":[{"name":"Jakob Hammersen, Site 0551","role":"CONTACT","phone":"4936419396622"}],"geoPoint":{"lat":50.92878,"lon":11.5899}},{"facility":"Vivantes Klinikum Neukölln","status":"RECRUITING","city":"Berlin","zip":"12351","country":"Germany","contacts":[{"name":"Maike De Wit, Site 0526","role":"CONTACT","phone":"0000000000"}],"geoPoint":{"lat":52.52437,"lon":13.41053}},{"facility":"Local Institution - 0537","status":"NOT_YET_RECRUITING","city":"Berlin","zip":"13125","country":"Germany","contacts":[{"name":"Site 0537","role":"CONTACT"}],"geoPoint":{"lat":52.52437,"lon":13.41053}},{"facility":"Local Institution - 0675","status":"NOT_YET_RECRUITING","city":"Halle","zip":"06110","country":"Germany","contacts":[{"name":"Site 0675","role":"CONTACT"}],"geoPoint":{"lat":51.48159,"lon":11.97948}},{"facility":"Local Institution - 0528","status":"NOT_YET_RECRUITING","city":"Hemer","zip":"58675","country":"Germany","contacts":[{"name":"Site 0528","role":"CONTACT"}],"geoPoint":{"lat":51.38707,"lon":7.77019}},{"facility":"Local Institution - 0517","status":"NOT_YET_RECRUITING","city":"Stuttgart","zip":"70174","country":"Germany","contacts":[{"name":"Site 0517","role":"CONTACT"}],"geoPoint":{"lat":48.78232,"lon":9.17702}},{"facility":"Local Institution - 0525","status":"NOT_YET_RECRUITING","city":"Wuerzburg","zip":"97080","country":"Germany","contacts":[{"name":"Site 0525","role":"CONTACT"}],"geoPoint":{"lat":49.79391,"lon":9.95121}},{"facility":"Local Institution - 0608","status":"NOT_YET_RECRUITING","city":"Athens","state":"Attikí","zip":"115 26","country":"Greece","contacts":[{"name":"Site 0608","role":"CONTACT"}],"geoPoint":{"lat":37.97945,"lon":23.71622}},{"facility":"Local Institution - 0612","status":"NOT_YET_RECRUITING","city":"Athens","state":"Attikí","zip":"115 27","country":"Greece","contacts":[{"name":"Site 0612","role":"CONTACT"}],"geoPoint":{"lat":37.97945,"lon":23.71622}},{"facility":"Local Institution - 0609","status":"NOT_YET_RECRUITING","city":"Larissa","state":"Thessalía","zip":"41110","country":"Greece","contacts":[{"name":"Site 0609","role":"CONTACT"}],"geoPoint":{"lat":39.63689,"lon":22.41761}},{"facility":"Local Institution - 0379","status":"NOT_YET_RECRUITING","city":"Hksar","zip":"0","country":"Hong Kong","contacts":[{"name":"Site 0379","role":"CONTACT"}]},{"facility":"Local Institution - 0466","status":"NOT_YET_RECRUITING","city":"Hksar","zip":"0","country":"Hong Kong","contacts":[{"name":"Site 0466","role":"CONTACT"}]},{"facility":"Local Institution - 0601","status":"NOT_YET_RECRUITING","city":"Gyor","state":"Győr-Moson-Sopron","zip":"9024","country":"Hungary","contacts":[{"name":"Site 0601","role":"CONTACT"}],"geoPoint":{"lat":47.68333,"lon":17.63512}},{"facility":"Local Institution - 0144","status":"NOT_YET_RECRUITING","city":"Gyöngyös","state":"Heves","zip":"3200","country":"Hungary","contacts":[{"name":"Site 0144","role":"CONTACT"}],"geoPoint":{"lat":47.78257,"lon":19.928}},{"facility":"Local Institution - 0157","status":"NOT_YET_RECRUITING","city":"Tatabánya","state":"Komárom-Esztergom","zip":"2800","country":"Hungary","contacts":[{"name":"Site 0157","role":"CONTACT"}],"geoPoint":{"lat":47.58494,"lon":18.39325}},{"facility":"Local Institution - 0593","status":"NOT_YET_RECRUITING","city":"Kaposvár","state":"Somogy","zip":"7400","country":"Hungary","contacts":[{"name":"Site 0593","role":"CONTACT"}],"geoPoint":{"lat":46.36667,"lon":17.8}},{"facility":"Local Institution - 0143","status":"NOT_YET_RECRUITING","city":"Farkasgyepu","state":"Veszprém","zip":"8582","country":"Hungary","contacts":[{"name":"Site 0143","role":"CONTACT"}],"geoPoint":{"lat":47.2,"lon":17.63333}},{"facility":"Local Institution - 0151","status":"NOT_YET_RECRUITING","city":"Budapest","zip":"1083","country":"Hungary","contacts":[{"name":"Site 0151","role":"CONTACT"}],"geoPoint":{"lat":47.49801,"lon":19.03991}},{"facility":"Local Institution - 0140","status":"NOT_YET_RECRUITING","city":"Budapest","zip":"1121","country":"Hungary","contacts":[{"name":"Site 0140","role":"CONTACT"}],"geoPoint":{"lat":47.49801,"lon":19.03991}},{"facility":"Local Institution - 0222","status":"NOT_YET_RECRUITING","city":"Visakhapatnam","state":"Andhra Pradesh","zip":"530040","country":"India","contacts":[{"name":"Site 0222","role":"CONTACT"}],"geoPoint":{"lat":17.68009,"lon":83.20161}},{"facility":"Local Institution - 0312","status":"NOT_YET_RECRUITING","city":"New Delhi","state":"Delhi","zip":"110029","country":"India","contacts":[{"name":"Site 0312","role":"CONTACT"}],"geoPoint":{"lat":28.63576,"lon":77.22445}},{"facility":"Local Institution - 0511","status":"NOT_YET_RECRUITING","city":"New Delhi","state":"Delhi","zip":"110029","country":"India","contacts":[{"name":"Site 0511","role":"CONTACT"}],"geoPoint":{"lat":28.63576,"lon":77.22445}},{"facility":"Local Institution - 0135","status":"NOT_YET_RECRUITING","city":"New Delhi","state":"Delhi","zip":"110085","country":"India","contacts":[{"name":"Site 0135","role":"CONTACT"}],"geoPoint":{"lat":28.63576,"lon":77.22445}},{"facility":"Local Institution - 0136","status":"NOT_YET_RECRUITING","city":"Ahmedabad","state":"Gujarat","zip":"380054","country":"India","contacts":[{"name":"Site 0136","role":"CONTACT"}],"geoPoint":{"lat":23.02579,"lon":72.58727}},{"facility":"Local Institution - 0230","status":"NOT_YET_RECRUITING","city":"Ahmedabad","state":"Gujarat","zip":"380060","country":"India","contacts":[{"name":"Site 0230","role":"CONTACT"}],"geoPoint":{"lat":23.02579,"lon":72.58727}},{"facility":"Local Institution - 0155","status":"NOT_YET_RECRUITING","city":"Thiruvananthapuram","state":"Kerala","zip":"695011","country":"India","contacts":[{"name":"Site 0155","role":"CONTACT"}],"geoPoint":{"lat":8.4855,"lon":76.94924}},{"facility":"Local Institution - 0154","status":"NOT_YET_RECRUITING","city":"Mumbai","state":"Maharashtra","zip":"400012","country":"India","contacts":[{"name":"Site 0154","role":"CONTACT"}],"geoPoint":{"lat":19.07283,"lon":72.88261}},{"facility":"Local Institution - 0226","status":"NOT_YET_RECRUITING","city":"Bhubaneswar","state":"Odisha","zip":"751003","country":"India","contacts":[{"name":"Site 0226","role":"CONTACT"}],"geoPoint":{"lat":20.27241,"lon":85.83385}},{"facility":"Local Institution - 0224","status":"NOT_YET_RECRUITING","city":"Madurai","state":"Tamil Nadu","zip":"625107","country":"India","contacts":[{"name":"Site 0224","role":"CONTACT"}],"geoPoint":{"lat":9.91769,"lon":78.11898}},{"facility":"Local Institution - 0663","status":"NOT_YET_RECRUITING","city":"Hyderabad","state":"Telangana","zip":"500084","country":"India","contacts":[{"name":"Site 0663","role":"CONTACT"}],"geoPoint":{"lat":17.38405,"lon":78.45636}},{"facility":"Local Institution - 0153","status":"NOT_YET_RECRUITING","city":"Varanasi","state":"Uttar Pradesh","zip":"221005","country":"India","contacts":[{"name":"Site 0153","role":"CONTACT"}],"geoPoint":{"lat":25.31668,"lon":83.01041}},{"facility":"Local Institution - 0161","status":"NOT_YET_RECRUITING","city":"Howrah","state":"West Bengal","zip":"711103","country":"India","contacts":[{"name":"Site 0161","role":"CONTACT"}],"geoPoint":{"lat":22.57688,"lon":88.31857}},{"facility":"Local Institution - 0221","status":"NOT_YET_RECRUITING","city":"Kolkata","state":"West Bengal","zip":"700094","country":"India","contacts":[{"name":"Site 0221","role":"CONTACT"}],"geoPoint":{"lat":22.56263,"lon":88.36304}},{"facility":"Local Institution - 0661","status":"NOT_YET_RECRUITING","city":"Hyderabad","zip":"500034","country":"India","contacts":[{"name":"Site 0661","role":"CONTACT"}],"geoPoint":{"lat":17.38405,"lon":78.45636}},{"facility":"Local Institution - 0102","status":"NOT_YET_RECRUITING","city":"Cork","zip":"T12 E8YV","country":"Ireland","contacts":[{"name":"Site 0102","role":"CONTACT"}],"geoPoint":{"lat":51.89797,"lon":-8.47061}},{"facility":"Mater Private Hospital - Dublin","status":"RECRUITING","city":"Dublin","zip":"D07 WKW8","country":"Ireland","contacts":[{"name":"Jane Sui, Site 0476","role":"CONTACT","phone":"+353(1)8034831"}],"geoPoint":{"lat":53.33306,"lon":-6.24889}},{"facility":"Local Institution - 0101","status":"NOT_YET_RECRUITING","city":"Dublin","zip":"D08 E9P6","country":"Ireland","contacts":[{"name":"Site 0101","role":"CONTACT"}],"geoPoint":{"lat":53.33306,"lon":-6.24889}},{"facility":"Local Institution - 0100","status":"NOT_YET_RECRUITING","city":"Dublin","zip":"D18 AK68","country":"Ireland","contacts":[{"name":"Site 0100","role":"CONTACT"}],"geoPoint":{"lat":53.33306,"lon":-6.24889}},{"facility":"Local Institution - 0106","status":"NOT_YET_RECRUITING","city":"Dublin","zip":"D9","country":"Ireland","contacts":[{"name":"Site 0106","role":"CONTACT"}],"geoPoint":{"lat":53.33306,"lon":-6.24889}},{"facility":"Local Institution - 0597","status":"NOT_YET_RECRUITING","city":"Petah Tikva","state":"HaMerkaz","zip":"4941492","country":"Israel","contacts":[{"name":"Site 0597","role":"CONTACT"}],"geoPoint":{"lat":32.08707,"lon":34.88747}},{"facility":"Local Institution - 0596","status":"NOT_YET_RECRUITING","city":"Ramat Gan","state":"HaMerkaz","zip":"5265601","country":"Israel","contacts":[{"name":"Site 0596","role":"CONTACT"}],"geoPoint":{"lat":32.08227,"lon":34.81065}},{"facility":"Local Institution - 0600","status":"NOT_YET_RECRUITING","city":"Zerifin","state":"HaMerkaz","zip":"70300","country":"Israel","contacts":[{"name":"Site 0600","role":"CONTACT"}],"geoPoint":{"lat":31.95857,"lon":4.83723}},{"facility":"Hadassah Medical Center","status":"RECRUITING","city":"Jerusalem","state":"Yerushalayim","zip":"9112001","country":"Israel","contacts":[{"name":"Hovav Nechushtan, Site 0544","role":"CONTACT","phone":"97226777836"}],"geoPoint":{"lat":31.76904,"lon":35.21633}},{"facility":"Local Institution - 0613","status":"NOT_YET_RECRUITING","city":"Haifa","state":"Ḥeifā","zip":"3436212","country":"Israel","contacts":[{"name":"Site 0613","role":"CONTACT"}],"geoPoint":{"lat":32.81841,"lon":34.9885}},{"facility":"Local Institution - 0067","status":"NOT_YET_RECRUITING","city":"Meldola","state":"Emilia-Romagna","zip":"47014","country":"Italy","contacts":[{"name":"Site 0067","role":"CONTACT"}],"geoPoint":{"lat":44.12775,"lon":12.0626}},{"facility":"Local Institution - 0066","status":"NOT_YET_RECRUITING","city":"Naples","state":"Napoli","zip":"80131","country":"Italy","contacts":[{"name":"Site 0066","role":"CONTACT"}],"geoPoint":{"lat":40.85216,"lon":14.26811}},{"facility":"Local Institution - 0070","status":"NOT_YET_RECRUITING","city":"Orbassano","state":"Piemonte","zip":"10043","country":"Italy","contacts":[{"name":"Site 0070","role":"CONTACT"}],"geoPoint":{"lat":45.00547,"lon":7.53813}},{"facility":"Local Institution - 0071","status":"NOT_YET_RECRUITING","city":"Bari","state":"Puglia","zip":"70124","country":"Italy","contacts":[{"name":"Site 0071","role":"CONTACT"}],"geoPoint":{"lat":41.11148,"lon":16.8554}},{"facility":"Local Institution - 0068","status":"NOT_YET_RECRUITING","city":"Rome","state":"Roma","zip":"00144","country":"Italy","contacts":[{"name":"Site 0068","role":"CONTACT"}],"geoPoint":{"lat":41.89193,"lon":12.51133}},{"facility":"Local Institution - 0069","status":"NOT_YET_RECRUITING","city":"Firenze","state":"Toscana","zip":"50134","country":"Italy","contacts":[{"name":"Site 0069","role":"CONTACT"}],"geoPoint":{"lat":43.77925,"lon":11.24626}},{"facility":"Local Institution - 0588","status":"NOT_YET_RECRUITING","city":"Genova","zip":"16132","country":"Italy","contacts":[{"name":"Site 0588","role":"CONTACT"}],"geoPoint":{"lat":44.40478,"lon":8.94438}},{"facility":"Local Institution - 0073","status":"NOT_YET_RECRUITING","city":"Padova","zip":"35128","country":"Italy","contacts":[{"name":"Site 0073","role":"CONTACT"}],"geoPoint":{"lat":45.40797,"lon":11.88586}},{"facility":"Local Institution - 0156","status":"NOT_YET_RECRUITING","city":"Parma","zip":"43126","country":"Italy","contacts":[{"name":"Site 0156","role":"CONTACT"}],"geoPoint":{"lat":44.79935,"lon":10.32618}},{"facility":"Local Institution - 0543","status":"NOT_YET_RECRUITING","city":"Pavia","zip":"27100","country":"Italy","contacts":[{"name":"Site 0543","role":"CONTACT"}],"geoPoint":{"lat":45.19205,"lon":9.15917}},{"facility":"Local Institution - 0556","status":"NOT_YET_RECRUITING","city":"Varese","zip":"21100","country":"Italy","contacts":[{"name":"Site 0556","role":"CONTACT"}],"geoPoint":{"lat":45.82058,"lon":8.82511}},{"facility":"Local Institution - 0607","status":"NOT_YET_RECRUITING","city":"Nagoya","state":"Aichi","zip":"457-8510","country":"Japan","contacts":[{"name":"Site 0607","role":"CONTACT"}],"geoPoint":{"lat":35.18147,"lon":136.90641}},{"facility":"Local Institution - 0305","status":"NOT_YET_RECRUITING","city":"Nagoya","state":"Aichi","zip":"460-0001","country":"Japan","contacts":[{"name":"Site 0305","role":"CONTACT"}],"geoPoint":{"lat":35.18147,"lon":136.90641}},{"facility":"Local Institution - 0298","status":"NOT_YET_RECRUITING","city":"Sapporo","state":"Hokkaido","zip":"0608648","country":"Japan","contacts":[{"name":"Site 0298","role":"CONTACT"}],"geoPoint":{"lat":43.06667,"lon":141.35}},{"facility":"Local Institution - 0304","status":"NOT_YET_RECRUITING","city":"Kanazawa","state":"Ishikawa","zip":"920-8641","country":"Japan","contacts":[{"name":"Site 0304","role":"CONTACT"}],"geoPoint":{"lat":36.6,"lon":136.61667}},{"facility":"Local Institution - 0302","status":"NOT_YET_RECRUITING","city":"Sagamihara","state":"Kanagawa","zip":"252-0375","country":"Japan","contacts":[{"name":"Site 0302","role":"CONTACT"}],"geoPoint":{"lat":35.54899,"lon":139.26064}},{"facility":"Local Institution - 0369","status":"NOT_YET_RECRUITING","city":"Yokohama","state":"Kanagawa","zip":"221-0855","country":"Japan","contacts":[{"name":"Site 0369","role":"CONTACT"}],"geoPoint":{"lat":35.43333,"lon":139.65}},{"facility":"Local Institution - 0301","status":"NOT_YET_RECRUITING","city":"Sendai","state":"Miyagi","zip":"9810914","country":"Japan","contacts":[{"name":"Site 0301","role":"CONTACT"}],"geoPoint":{"lat":38.26667,"lon":140.86667}},{"facility":"Local Institution - 0306","status":"NOT_YET_RECRUITING","city":"Kashihara","state":"Nara","zip":"634-0813","country":"Japan","contacts":[{"name":"Site 0306","role":"CONTACT"}],"geoPoint":{"lat":34.50896,"lon":135.7929}},{"facility":"Local Institution - 0368","status":"NOT_YET_RECRUITING","city":"Kurashiki","state":"Okayama","zip":"710-8602","country":"Japan","contacts":[{"name":"Site 0368","role":"CONTACT"}],"geoPoint":{"lat":34.58333,"lon":133.76667}},{"facility":"Local Institution - 0642","status":"NOT_YET_RECRUITING","city":"Hirakata","state":"Osaka","zip":"573-1191","country":"Japan","contacts":[{"name":"Site 0642","role":"CONTACT"}],"geoPoint":{"lat":34.81352,"lon":135.64914}},{"facility":"Local Institution - 0303","status":"NOT_YET_RECRUITING","city":"Hidaka","state":"Saitama","zip":"350-1298","country":"Japan","contacts":[{"name":"Site 0303","role":"CONTACT"}]},{"facility":"Local Institution - 0300","status":"NOT_YET_RECRUITING","city":"Ina-machi","state":"Saitama","zip":"362-0806","country":"Japan","contacts":[{"name":"Site 0300","role":"CONTACT"}]},{"facility":"Local Institution - 0606","status":"NOT_YET_RECRUITING","city":"Hamamatsu","state":"Shizuoka","zip":"431-3192","country":"Japan","contacts":[{"name":"Site 0606","role":"CONTACT"}],"geoPoint":{"lat":34.7,"lon":137.73333}},{"facility":"Local Institution - 0299","status":"NOT_YET_RECRUITING","city":"Shimotsuga","state":"Tochigi","zip":"321-0293","country":"Japan","contacts":[{"name":"Site 0299","role":"CONTACT"}]},{"facility":"Local Institution - 0343","status":"NOT_YET_RECRUITING","city":"Toyoma","state":"Toyama","zip":"930-0194","country":"Japan","contacts":[{"name":"Site 0343","role":"CONTACT"}]},{"facility":"Local Institution - 0542","status":"NOT_YET_RECRUITING","city":"Iwakuni","state":"Yamaguchi","zip":"740-8510","country":"Japan","contacts":[{"name":"Site 0542","role":"CONTACT"}],"geoPoint":{"lat":34.16297,"lon":132.22}},{"facility":"Local Institution - 0307","status":"NOT_YET_RECRUITING","city":"Akashi","zip":"6738558","country":"Japan","contacts":[{"name":"Site 0307","role":"CONTACT"}],"geoPoint":{"lat":34.65522,"lon":135.00687}},{"facility":"Local Institution - 0346","status":"NOT_YET_RECRUITING","city":"Aomori","zip":"030-8553","country":"Japan","contacts":[{"name":"Site 0346","role":"CONTACT"}],"geoPoint":{"lat":40.81667,"lon":140.73333}},{"facility":"Local Institution - 0310","status":"NOT_YET_RECRUITING","city":"Fukuoka","zip":"812-8582","country":"Japan","contacts":[{"name":"Site 0310","role":"CONTACT"}],"geoPoint":{"lat":33.6,"lon":130.41667}},{"facility":"Local Institution - 0367","status":"NOT_YET_RECRUITING","city":"Fukushima","zip":"960-1295","country":"Japan","contacts":[{"name":"Site 0367","role":"CONTACT"}],"geoPoint":{"lat":37.75,"lon":140.46667}},{"facility":"Local Institution - 0308","status":"NOT_YET_RECRUITING","city":"Kumamoto","zip":"861-4193","country":"Japan","contacts":[{"name":"Site 0308","role":"CONTACT"}],"geoPoint":{"lat":32.80589,"lon":130.69182}},{"facility":"Local Institution - 0297","status":"NOT_YET_RECRUITING","city":"Osaka","zip":"534-0021","country":"Japan","contacts":[{"name":"Site 0297","role":"CONTACT"}],"geoPoint":{"lat":34.69374,"lon":135.50218}},{"facility":"Local Institution - 0309","status":"NOT_YET_RECRUITING","city":"Osaka","zip":"541-8567","country":"Japan","contacts":[{"name":"Site 0309","role":"CONTACT"}],"geoPoint":{"lat":34.69374,"lon":135.50218}},{"facility":"Chungbuk National University Hospital","status":"RECRUITING","city":"Cheongju-si","state":"Chungcheongbuk-do [Chungbuk]","zip":"28644","country":"Korea, Republic of","contacts":[{"name":"Ki Hyeong Lee, Site 0163","role":"CONTACT","phone":"82432696015"}],"geoPoint":{"lat":36.63722,"lon":127.48972}},{"facility":"Gachon University Gil Medical Center","status":"RECRUITING","city":"Namdong-gu","state":"Incheon-gwangyeoksi [Incheon]","zip":"21565","country":"Korea, Republic of","contacts":[{"name":"Eun Kyung Cho, Site 0227","role":"CONTACT","phone":"82324603383"}]},{"facility":"Pusan National University Yangsan Hospital","status":"RECRUITING","city":"Yangsan","state":"Kyǒngsangnam-do","zip":"50612","country":"Korea, Republic of","contacts":[{"name":"Seong Hoon Yoon, Site 0211","role":"CONTACT","phone":"82-10-2870-9389"}],"geoPoint":{"lat":35.34199,"lon":129.03358}},{"facility":"Pusan National University Hospital","status":"RECRUITING","city":"Busan","state":"Pusan-Kwangyǒkshi","zip":"49241","country":"Korea, Republic of","contacts":[{"name":"Jung Seop Eom, Site 0186","role":"CONTACT","phone":"+82512407889"}],"geoPoint":{"lat":35.10278,"lon":129.04028}},{"facility":"Severance Hospital, Yonsei University Health System","status":"RECRUITING","city":"Seoul","state":"Seoul-teukbyeolsi [Seoul]","zip":"03722","country":"Korea, Republic of","contacts":[{"name":"Min Hee Hong, Site 0165","role":"CONTACT","phone":"821071541554"}],"geoPoint":{"lat":37.566,"lon":126.9784}},{"facility":"Konkuk University Medical Center","status":"RECRUITING","city":"Seoul","state":"Seoul-teukbyeolsi [Seoul]","zip":"05030","country":"Korea, Republic of","contacts":[{"name":"Kyeyoung Lee, Site 0228","role":"CONTACT","phone":"+821088963916"}],"geoPoint":{"lat":37.566,"lon":126.9784}},{"facility":"The Catholic Univ. of Korea Seoul St. Mary's Hospital","status":"RECRUITING","city":"Seoul","state":"Seoul-teukbyeolsi [Seoul]","zip":"06591","country":"Korea, Republic of","contacts":[{"name":"Jin Hyoung Kang, Site 0248","role":"CONTACT","phone":"82-2-2258-6043"}],"geoPoint":{"lat":37.566,"lon":126.9784}},{"facility":"Korea University Guro Hospital","status":"RECRUITING","city":"Seoul","state":"Seoul-teukbyeolsi [Seoul]","zip":"08308","country":"Korea, Republic of","contacts":[{"name":"Sung Yong Lee, Site 0146","role":"CONTACT","phone":"821022179216"}],"geoPoint":{"lat":37.566,"lon":126.9784}},{"facility":"Local Institution - 0583","status":"NOT_YET_RECRUITING","city":"Saltillo","state":"Coahuila","zip":"25279","country":"Mexico","contacts":[{"name":"Site 0583","role":"CONTACT"}],"geoPoint":{"lat":25.42321,"lon":-101.0053}},{"facility":"Local Institution - 0176","status":"NOT_YET_RECRUITING","city":"Mexico City","state":"DIF","zip":"11510","country":"Mexico","contacts":[{"name":"Site 0176","role":"CONTACT"}],"geoPoint":{"lat":19.42847,"lon":-99.12766}},{"facility":"Local Institution - 0579","status":"NOT_YET_RECRUITING","city":"Pachuca","state":"Hidalgo","zip":"42000","country":"Mexico","contacts":[{"name":"Site 0579","role":"CONTACT"}],"geoPoint":{"lat":20.11697,"lon":-98.73329}},{"facility":"Local Institution - 0178","status":"NOT_YET_RECRUITING","city":"Guadalajara","state":"Jalisco","zip":"44280","country":"Mexico","contacts":[{"name":"Site 0178","role":"CONTACT"}],"geoPoint":{"lat":20.66682,"lon":-103.39182}},{"facility":"Local Institution - 0591","status":"NOT_YET_RECRUITING","city":"Monterrey","state":"Nuevo León","zip":"64040","country":"Mexico","contacts":[{"name":"Site 0591","role":"CONTACT"}],"geoPoint":{"lat":25.67507,"lon":-100.31847}},{"facility":"Local Institution - 0175","status":"NOT_YET_RECRUITING","city":"Chihuahua","zip":"31217","country":"Mexico","contacts":[{"name":"Site 0175","role":"CONTACT"}],"geoPoint":{"lat":28.63528,"lon":-106.08889}},{"facility":"Local Institution - 0181","status":"NOT_YET_RECRUITING","city":"Puebla","zip":"72424","country":"Mexico","contacts":[{"name":"Site 0181","role":"CONTACT"}],"geoPoint":{"lat":19.03793,"lon":-98.20346}},{"facility":"Local Institution - 0638","status":"NOT_YET_RECRUITING","city":"Puebla","zip":"72530","country":"Mexico","contacts":[{"name":"Site 0638","role":"CONTACT"}],"geoPoint":{"lat":19.03793,"lon":-98.20346}},{"facility":"Local Institution - 0180","status":"NOT_YET_RECRUITING","city":"Veracruz","zip":"91900","country":"Mexico","contacts":[{"name":"Site 0180","role":"CONTACT"}],"geoPoint":{"lat":19.18095,"lon":-96.1429}},{"facility":"Local Institution - 0615","status":"NOT_YET_RECRUITING","city":"Maastricht","state":"Limburg","zip":"6229 HX","country":"Netherlands","contacts":[{"name":"Site 0615","role":"CONTACT"}],"geoPoint":{"lat":50.84833,"lon":5.68889}},{"facility":"Local Institution - 0594","status":"NOT_YET_RECRUITING","city":"Amsterdam","state":"Noord-Holland","zip":"1066 CX","country":"Netherlands","contacts":[{"name":"Site 0594","role":"CONTACT"}],"geoPoint":{"lat":52.37403,"lon":4.88969}},{"facility":"Local Institution - 0205","status":"NOT_YET_RECRUITING","city":"Wrocław","state":"Dolnośląskie","zip":"53-439","country":"Poland","contacts":[{"name":"Site 0205","role":"CONTACT"}],"geoPoint":{"lat":51.1,"lon":17.03333}},{"facility":"Local Institution - 0080","status":"NOT_YET_RECRUITING","city":"Lublin","state":"Lubelskie","zip":"20-954","country":"Poland","contacts":[{"name":"Site 0080","role":"CONTACT"}],"geoPoint":{"lat":51.25,"lon":22.56667}},{"facility":"Local Institution - 0206","status":"NOT_YET_RECRUITING","city":"Gorlice","state":"Małopolskie","zip":"38-300","country":"Poland","contacts":[{"name":"Site 0206","role":"CONTACT"}],"geoPoint":{"lat":49.65563,"lon":21.16035}},{"facility":"Local Institution - 0079","status":"NOT_YET_RECRUITING","city":"Kraków","state":"Małopolskie","zip":"30-727","country":"Poland","contacts":[{"name":"Site 0079","role":"CONTACT"}],"geoPoint":{"lat":50.06143,"lon":19.93658}},{"facility":"Szpital Specjalistyczny w Prabutach Spolka z o.o.","status":"RECRUITING","city":"Prabuty","state":"Pomorskie","zip":"82-550","country":"Poland","contacts":[{"name":"Anna Lowczak, Site 0077","role":"CONTACT","phone":"+48503022396"}],"geoPoint":{"lat":53.755,"lon":19.20547}},{"facility":"Med-Polonia Sp. z o. o.","status":"RECRUITING","city":"Poznan","state":"Wielkopolskie","zip":"60-693","country":"Poland","contacts":[{"name":"Rodryg Ramlau, Site 0209","role":"CONTACT","phone":"48618549040"}],"geoPoint":{"lat":52.40692,"lon":16.92993}},{"facility":"Local Institution - 0076","status":"NOT_YET_RECRUITING","city":"Bydgoszcz","zip":"85796","country":"Poland","contacts":[{"name":"Site 0076","role":"CONTACT"}],"geoPoint":{"lat":53.1235,"lon":18.00762}},{"facility":"Local Institution - 0078","status":"NOT_YET_RECRUITING","city":"Katowice","zip":"40-519","country":"Poland","contacts":[{"name":"Site 0078","role":"CONTACT"}],"geoPoint":{"lat":50.25841,"lon":19.02754}},{"facility":"Local Institution - 0509","status":"NOT_YET_RECRUITING","city":"Lisbon","state":"Lisboa","zip":"1099-023","country":"Portugal","contacts":[{"name":"Site 0509","role":"CONTACT"}],"geoPoint":{"lat":38.71667,"lon":-9.13333}},{"facility":"Local Institution - 0510","status":"NOT_YET_RECRUITING","city":"Coimbra","zip":"3000-075","country":"Portugal","contacts":[{"name":"Site 0510","role":"CONTACT"}],"geoPoint":{"lat":40.20564,"lon":-8.41955}},{"facility":"Local Institution - 0553","status":"NOT_YET_RECRUITING","city":"Porto","zip":"4099-001","country":"Portugal","contacts":[{"name":"Site 0553","role":"CONTACT"}],"geoPoint":{"lat":41.14961,"lon":-8.61099}},{"facility":"Local Institution - 0272","status":"NOT_YET_RECRUITING","city":"Bucharest","state":"București","zip":"013812","country":"Romania","contacts":[{"name":"Site 0272","role":"CONTACT"}],"geoPoint":{"lat":44.43225,"lon":26.10626}},{"facility":"Institutul Oncologic Bucuresti","status":"RECRUITING","city":"Bucharest","state":"București","zip":"022338","country":"Romania","contacts":[{"name":"Aurelia Alexandru, Site 0261","role":"CONTACT","phone":"40723289606"}],"geoPoint":{"lat":44.43225,"lon":26.10626}},{"facility":"Local Institution - 0276","status":"NOT_YET_RECRUITING","city":"Cluj-Napoca","state":"Cluj","zip":"400015","country":"Romania","contacts":[{"name":"Site 0276","role":"CONTACT"}],"geoPoint":{"lat":46.76667,"lon":23.6}},{"facility":"SC Radiotherapy Center Cluj SRL","status":"RECRUITING","city":"Florești","state":"Cluj","zip":"407280","country":"Romania","contacts":[{"name":"Andrei Ungureanu, Site 0268","role":"CONTACT","phone":"40742206212"}],"geoPoint":{"lat":45.05,"lon":25.78333}},{"facility":"Local Institution - 0275","status":"NOT_YET_RECRUITING","city":"Ovidiu","state":"Constanța","zip":"905900","country":"Romania","contacts":[{"name":"Site 0275","role":"CONTACT"}],"geoPoint":{"lat":44.26667,"lon":28.56667}},{"facility":"Local Institution - 0271","status":"NOT_YET_RECRUITING","city":"Craiova","state":"Dolj","zip":"200542","country":"Romania","contacts":[{"name":"Site 0271","role":"CONTACT"}],"geoPoint":{"lat":44.31667,"lon":23.8}},{"facility":"Local Institution - 0269","status":"NOT_YET_RECRUITING","city":"Ploiești","state":"Prahova","zip":"100337","country":"Romania","contacts":[{"name":"Site 0269","role":"CONTACT"}],"geoPoint":{"lat":44.95,"lon":26.01667}},{"facility":"Local Institution - 0592","status":"NOT_YET_RECRUITING","city":"Timișoara","state":"Timiș","zip":"300239","country":"Romania","contacts":[{"name":"Site 0592","role":"CONTACT"}],"geoPoint":{"lat":45.75372,"lon":21.22571}},{"facility":"Institutul Oncologic Cluj","status":"RECRUITING","city":"Cluj","zip":"400015","country":"Romania","contacts":[{"name":"Tudor Ciuleanu, Site 0273","role":"CONTACT","phone":"40745646368"}],"geoPoint":{"lat":46.76667,"lon":23.6}},{"facility":"Local Institution - 0270","status":"NOT_YET_RECRUITING","city":"Cluj","zip":"400015","country":"Romania","contacts":[{"name":"Site 0270","role":"CONTACT"}],"geoPoint":{"lat":46.76667,"lon":23.6}},{"facility":"Local Institution - 0590","status":"NOT_YET_RECRUITING","city":"Constanța","zip":"900591","country":"Romania","contacts":[{"name":"Site 0590","role":"CONTACT"}],"geoPoint":{"lat":44.18073,"lon":28.63432}},{"facility":"S.C. Centrul de Oncologie Euroclinic S.R.L.","status":"RECRUITING","city":"Iași","zip":"700106","country":"Romania","contacts":[{"name":"Constantin Volovat, Site 0266","role":"CONTACT","phone":"40746110096"}],"geoPoint":{"lat":47.16667,"lon":27.6}},{"facility":"Local Institution - 0260","status":"NOT_YET_RECRUITING","city":"Iași","zip":"700483","country":"Romania","contacts":[{"name":"Site 0260","role":"CONTACT"}],"geoPoint":{"lat":47.16667,"lon":27.6}},{"facility":"Local Institution - 0614","status":"NOT_YET_RECRUITING","city":"Jeddah","state":"Makkah Al Mukarramah","zip":"23433","country":"Saudi Arabia","contacts":[{"name":"Site 0614","role":"CONTACT"}],"geoPoint":{"lat":21.54238,"lon":39.19797}},{"facility":"Local Institution - 0602","status":"NOT_YET_RECRUITING","city":"Riyadh","zip":"11426","country":"Saudi Arabia","contacts":[{"name":"Site 0602","role":"CONTACT"}],"geoPoint":{"lat":24.68773,"lon":46.72185}},{"facility":"Local Institution - 0562","status":"NOT_YET_RECRUITING","city":"Riyadh","zip":"12713","country":"Saudi Arabia","contacts":[{"name":"Site 0562","role":"CONTACT"}],"geoPoint":{"lat":24.68773,"lon":46.72185}},{"facility":"Local Institution - 0499","status":"NOT_YET_RECRUITING","city":"A Coruña","state":"A Coruña [La Coruña]","zip":"15006","country":"Spain","contacts":[{"name":"Site 0499","role":"CONTACT"}],"geoPoint":{"lat":43.37135,"lon":-8.396}},{"facility":"Local Institution - 0506","status":"NOT_YET_RECRUITING","city":"Santiago de Compostela","state":"A Coruña [La Coruña]","zip":"15706","country":"Spain","contacts":[{"name":"Site 0506","role":"CONTACT"}],"geoPoint":{"lat":42.88052,"lon":-8.54569}},{"facility":"Local Institution - 0501","status":"NOT_YET_RECRUITING","city":"Barcelona","state":"Barcelona [Barcelona]","zip":"08035","country":"Spain","contacts":[{"name":"Site 0501","role":"CONTACT"}],"geoPoint":{"lat":41.38879,"lon":2.15899}},{"facility":"Local Institution - 0497","status":"WITHDRAWN","city":"Hospitalet","state":"Barcelona [Barcelona]","zip":"08907","country":"Spain"},{"facility":"Local Institution - 0505","status":"WITHDRAWN","city":"Barcelona","state":"Catalunya [Cataluña]","zip":"08036","country":"Spain","geoPoint":{"lat":41.38879,"lon":2.15899}},{"facility":"Hospital Son Llàtzer","status":"RECRUITING","city":"Palma","state":"Illes Balears [Islas Baleares]","zip":"07198","country":"Spain","contacts":[{"name":"Juan Coves Sarto, Site 0508","role":"CONTACT","phone":"348712020001629"}],"geoPoint":{"lat":39.56939,"lon":2.65024}},{"facility":"Local Institution - 0500","status":"NOT_YET_RECRUITING","city":"Madrid","state":"Madrid, Comunidad De","zip":"28009","country":"Spain","contacts":[{"name":"Site 0500","role":"CONTACT"}],"geoPoint":{"lat":40.4165,"lon":-3.70256}},{"facility":"Hospital Universitario Ramón y Cajal","status":"RECRUITING","city":"Madrid","state":"Madrid, Comunidad De","zip":"28034","country":"Spain","contacts":[{"name":"Maria Eugenia Olmedo Garcia, Site 0503","role":"CONTACT","phone":"34913368263"}],"geoPoint":{"lat":40.4165,"lon":-3.70256}},{"facility":"Local Institution - 0496","status":"NOT_YET_RECRUITING","city":"Madrid","state":"Madrid, Comunidad De","zip":"28041","country":"Spain","contacts":[{"name":"Site 0496","role":"CONTACT"}],"geoPoint":{"lat":40.4165,"lon":-3.70256}},{"facility":"Hospital Universitario Puerta de Hierro Majadahonda","status":"RECRUITING","city":"Majadahonda","state":"Madrid, Comunidad De","zip":"28222","country":"Spain","contacts":[{"name":"Mariano Provencio Pulla, Site 0498","role":"CONTACT","phone":"34911917759"}],"geoPoint":{"lat":40.47353,"lon":-3.87182}},{"facility":"Local Institution - 0669","status":"NOT_YET_RECRUITING","city":"Pontevedra","state":"Pontevedra [Pontevedra]","zip":"36312","country":"Spain","contacts":[{"name":"Site 0669","role":"CONTACT"}],"geoPoint":{"lat":42.431,"lon":-8.64435}},{"facility":"Hospital Arnau de Vilanova","status":"RECRUITING","city":"Valencia","state":"València","zip":"46015","country":"Spain","contacts":[{"name":"Javier Garde Noguera, Site 0640","role":"CONTACT","phone":"34963187527"}],"geoPoint":{"lat":39.46975,"lon":-0.37739}},{"facility":"Hospital Clinico San Carlos","status":"RECRUITING","city":"Madrid","zip":"28040","country":"Spain","contacts":[{"name":"Carlos Aguado de la Rosa, Site 0504","role":"CONTACT","phone":"34913303000"}],"geoPoint":{"lat":40.4165,"lon":-3.70256}},{"facility":"H.R.U Málaga - Hospital General","status":"RECRUITING","city":"Málaga","zip":"29011","country":"Spain","contacts":[{"name":"Manuel Cobo-Dols, Site 0502","role":"CONTACT","phone":"00349422033350000"}],"geoPoint":{"lat":36.72016,"lon":-4.42034}},{"facility":"Hospital Universitario Virgen Del Rocio","status":"RECRUITING","city":"Sevilla","zip":"41013","country":"Spain","contacts":[{"name":"Miriam Alonso Garcia, Site 0507","role":"CONTACT","phone":"34955013068"}],"geoPoint":{"lat":37.38283,"lon":-5.97317}},{"facility":"Local Institution - 0495","status":"WITHDRAWN","city":"València","zip":"46026","country":"Spain","geoPoint":{"lat":39.46975,"lon":-0.37739}},{"facility":"Kantonsspital Münsterlingen - Spital Thurgau AG","status":"RECRUITING","city":"Münsterlingen","zip":"8596","country":"Switzerland","contacts":[{"name":"Ioannis Metaxas, Site 0536","role":"CONTACT","phone":"+41581447850"}],"geoPoint":{"lat":47.63172,"lon":9.23281}},{"facility":"Chi Mei Hospital - Liouying Branch","status":"RECRUITING","city":"Tainan City","state":"Tainan","zip":"73657","country":"Taiwan","contacts":[{"name":"Sheng-Yen Hsiao, Site 0341","role":"CONTACT","phone":"88666226999"}],"geoPoint":{"lat":22.99083,"lon":120.21333}},{"facility":"Tri-Service General Hospital","status":"RECRUITING","city":"Taipei City","state":"Taipei","zip":"114","country":"Taiwan","contacts":[{"name":"Chen-Liang Tsai, Site 0631","role":"CONTACT","phone":"886287923311"}],"geoPoint":{"lat":25.04776,"lon":121.53185}},{"facility":"Taipei Medical University Shuang Ho Hospital","status":"RECRUITING","city":"New Taipei","zip":"235","country":"Taiwan","contacts":[{"name":"Kang-Yun Lee, Site 0337","role":"CONTACT","phone":"8862224900882714"}],"geoPoint":{"lat":25.01111,"lon":121.44583}},{"facility":"National Cheng Kung University Hospital","status":"RECRUITING","city":"Tainan","zip":"704","country":"Taiwan","contacts":[{"name":"Chun-Hui Lee, Site 0335","role":"CONTACT","phone":"886-912777918"}],"geoPoint":{"lat":22.99083,"lon":120.21333}},{"facility":"National Taiwan University Hospital","status":"RECRUITING","city":"Taipei","zip":"10002","country":"Taiwan","contacts":[{"name":"Jin-Yuan Shih, Site 0331","role":"CONTACT","phone":"88622312345662905"}],"geoPoint":{"lat":25.04776,"lon":121.53185}},{"facility":"Local Institution - 0565","status":"NOT_YET_RECRUITING","city":"Muang","state":"Khon Kaen","zip":"40002","country":"Thailand","contacts":[{"name":"Site 0565","role":"CONTACT"}]},{"facility":"Local Institution - 0563","status":"NOT_YET_RECRUITING","city":"Bangkok","state":"Krung Thep Maha Nakhon","zip":"10330","country":"Thailand","contacts":[{"name":"Site 0563","role":"CONTACT"}],"geoPoint":{"lat":13.75398,"lon":100.50144}},{"facility":"Local Institution - 0564","status":"NOT_YET_RECRUITING","city":"Hatyai","state":"Songkhla","zip":"90110","country":"Thailand","contacts":[{"name":"Site 0564","role":"CONTACT"}]},{"facility":"Local Institution - 0548","status":"NOT_YET_RECRUITING","city":"Stanbul","state":"İstanbul","zip":"34214","country":"Turkey","contacts":[{"name":"Site 0548","role":"CONTACT"}]},{"facility":"Local Institution - 0199","status":"NOT_YET_RECRUITING","city":"Izmir, Karsiyaka","state":"İzmir","zip":"009035575","country":"Turkey","contacts":[{"name":"Site 0199","role":"CONTACT"}]},{"facility":"Local Institution - 0197","status":"NOT_YET_RECRUITING","city":"Adana","zip":"01250","country":"Turkey","contacts":[{"name":"Site 0197","role":"CONTACT"}],"geoPoint":{"lat":37.00167,"lon":35.32889}},{"facility":"Local Institution - 0201","status":"NOT_YET_RECRUITING","city":"Ankara","zip":"06230","country":"Turkey","contacts":[{"name":"Site 0201","role":"CONTACT"}],"geoPoint":{"lat":39.91987,"lon":32.85427}},{"facility":"Local Institution - 0194","status":"NOT_YET_RECRUITING","city":"Ankara","zip":"06620","country":"Turkey","contacts":[{"name":"Site 0194","role":"CONTACT"}],"geoPoint":{"lat":39.91987,"lon":32.85427}},{"facility":"Local Institution - 0198","status":"NOT_YET_RECRUITING","city":"Ankara","zip":"06800","country":"Turkey","contacts":[{"name":"Site 0198","role":"CONTACT"}],"geoPoint":{"lat":39.91987,"lon":32.85427}},{"facility":"Local Institution - 0550","status":"NOT_YET_RECRUITING","city":"Istanbul","zip":"34180","country":"Turkey","contacts":[{"name":"Site 0550","role":"CONTACT"}],"geoPoint":{"lat":41.01384,"lon":28.94966}},{"facility":"Local Institution - 0549","status":"NOT_YET_RECRUITING","city":"Istanbul","zip":"34722","country":"Turkey","contacts":[{"name":"Site 0549","role":"CONTACT"}],"geoPoint":{"lat":41.01384,"lon":28.94966}},{"facility":"Local Institution - 0200","status":"NOT_YET_RECRUITING","city":"Izmir","zip":"35100","country":"Turkey","contacts":[{"name":"Site 0200","role":"CONTACT"}],"geoPoint":{"lat":38.41273,"lon":27.13838}},{"facility":"University College London Hospital","status":"RECRUITING","city":"London","state":"London, City Of","zip":"NW1 2PG","country":"United Kingdom","contacts":[{"name":"Siow Lee, Site 0088","role":"CONTACT","phone":"442034479091"}],"geoPoint":{"lat":51.50853,"lon":-0.12574}},{"facility":"Guy's & St Thomas' NHS Foundation Trust","status":"RECRUITING","city":"London","state":"London, City Of","zip":"SE1 9RT","country":"United Kingdom","contacts":[{"name":"Alexandros Georgiou, Site 0091","role":"CONTACT","phone":"00442071882006"}],"geoPoint":{"lat":51.50853,"lon":-0.12574}},{"facility":"Local Institution - 0092","status":"NOT_YET_RECRUITING","city":"Birmingham","zip":"B9 5SS","country":"United Kingdom","contacts":[{"name":"Site 0092","role":"CONTACT"}],"geoPoint":{"lat":52.48142,"lon":-1.89983}},{"facility":"Local Institution - 0090","status":"NOT_YET_RECRUITING","city":"Guildford","zip":"GU2 7XX","country":"United Kingdom","contacts":[{"name":"Site 0090","role":"CONTACT"}],"geoPoint":{"lat":51.23536,"lon":-0.57427}},{"facility":"Local Institution - 0545","status":"WITHDRAWN","city":"Guildford","zip":"GU2 7XX","country":"United Kingdom","geoPoint":{"lat":51.23536,"lon":-0.57427}},{"facility":"Local Institution - 0093","status":"WITHDRAWN","city":"Manchester","zip":"M20 4BX","country":"United Kingdom","geoPoint":{"lat":53.48095,"lon":-2.23743}}]},"referencesModule":{"seeAlsoLinks":[{"label":"BMS Clinical Trial Information","url":"https://www.bms.com/researchers-and-partners/clinical-trials-and-research.html"},{"label":"BMS Clinical Trial Patient Recruiting","url":"https://www.bmsclinicaltrials.com/us/en/clinical-trials/NCT06875310.html"}]},"ipdSharingStatementModule":{"ipdSharing":"YES","description":"BMS will provide access to individual anonymized participant data upon request from qualified researchers, and subject to certain criteria.\n\nAdditional information regarding Bristol Myer Squibb's data sharing policy and process can be found at:\n\nhttps://www.bms.com/researchers-and-partners/clinical-trials-and-research/disclosurecommitment.html","infoTypes":["STUDY_PROTOCOL","SAP","CSR"],"timeFrame":"See plan description","accessCriteria":"See plan description","url":"https://www.bms.com/researchers-and-partners/clinical-trials-and-research/disclosure-commitment.html"}},"derivedSection":{"miscInfoModule":{"versionHolder":"2025-07-07"},"conditionBrowseModule":{"meshes":[{"id":"D002289","term":"Carcinoma, Non-Small-Cell Lung"}],"ancestors":[{"id":"D002283","term":"Carcinoma, Bronchogenic"},{"id":"D001984","term":"Bronchial Neoplasms"},{"id":"D008175","term":"Lung Neoplasms"},{"id":"D012142","term":"Respiratory Tract Neoplasms"},{"id":"D013899","term":"Thoracic Neoplasms"},{"id":"D009371","term":"Neoplasms by Site"},{"id":"D009369","term":"Neoplasms"},{"id":"D008171","term":"Lung Diseases"},{"id":"D012140","term":"Respiratory Tract Diseases"}],"browseLeaves":[{"id":"M11172","name":"Lung Neoplasms","relevance":"LOW"},{"id":"M5546","name":"Carcinoma, Non-Small-Cell Lung","asFound":"Carcinoma, Non-Small-Cell Lung","relevance":"HIGH"},{"id":"M5534","name":"Carcinoma","relevance":"LOW"},{"id":"M5540","name":"Carcinoma, Bronchogenic","relevance":"LOW"},{"id":"M5260","name":"Bronchial Neoplasms","relevance":"LOW"},{"id":"M14979","name":"Respiratory Tract Neoplasms","relevance":"LOW"},{"id":"M16658","name":"Thoracic Neoplasms","relevance":"LOW"},{"id":"M11168","name":"Lung Diseases","relevance":"LOW"},{"id":"M14977","name":"Respiratory Tract Diseases","relevance":"LOW"}],"browseBranches":[{"abbrev":"BC04","name":"Neoplasms"},{"abbrev":"BC08","name":"Respiratory Tract (Lung and Bronchial) Diseases"},{"abbrev":"All","name":"All Conditions"}]},"interventionBrowseModule":{"meshes":[{"id":"D016190","term":"Carboplatin"},{"id":"C582435","term":"Pembrolizumab"},{"id":"D000068437","term":"Pemetrexed"},{"id":"C000718190","term":"Adagrasib"}],"ancestors":[{"id":"D000970","term":"Antineoplastic Agents"},{"id":"D000074322","term":"Antineoplastic Agents, Immunological"},{"id":"D000082082","term":"Immune Checkpoint Inhibitors"},{"id":"D045504","term":"Molecular Mechanisms of Pharmacological Action"},{"id":"D004791","term":"Enzyme Inhibitors"},{"id":"D005493","term":"Folic Acid Antagonists"},{"id":"D019384","term":"Nucleic Acid Synthesis Inhibitors"}],"browseLeaves":[{"id":"M2853","name":"Immunomodulating Agents","relevance":"LOW"},{"id":"M18650","name":"Carboplatin","asFound":"Total","relevance":"HIGH"},{"id":"M264","name":"Pemetrexed","asFound":"Assigned","relevance":"HIGH"},{"id":"M6182","name":"Cisplatin","relevance":"LOW"},{"id":"M349416","name":"Pembrolizumab","asFound":"Type","relevance":"HIGH"},{"id":"M288000","name":"Adagrasib","asFound":"Empagliflozin 10 mg","relevance":"HIGH"},{"id":"M1346","name":"Antineoplastic Agents, Immunological","relevance":"LOW"},{"id":"M2342","name":"Immune Checkpoint Inhibitors","relevance":"LOW"},{"id":"M7951","name":"Enzyme Inhibitors","relevance":"LOW"},{"id":"M8618","name":"Folic Acid","relevance":"LOW"},{"id":"M17546","name":"Vitamin B Complex","relevance":"LOW"},{"id":"M8619","name":"Folic Acid Antagonists","relevance":"LOW"},{"id":"T475","name":"Vitamin B9","relevance":"LOW"},{"id":"T446","name":"Folic Acid","relevance":"LOW"},{"id":"T447","name":"Folinic Acid","relevance":"LOW"},{"id":"T448","name":"Folate","relevance":"LOW"}],"browseBranches":[{"abbrev":"All","name":"All Drugs and Chemicals"},{"abbrev":"ANeo","name":"Antineoplastic Agents"},{"abbrev":"Micro","name":"Micronutrients"},{"abbrev":"Hemat","name":"Hematinics"},{"abbrev":"Vi","name":"Vitamins"}]}},"hasResults":false}