{"protocolSection":{"identificationModule":{"nctId":"NCT06760637","orgStudyIdInfo":{"id":"C4391024"},"secondaryIdInfos":[{"id":"2024-512925-95-00","type":"REGISTRY","domain":"CTIS (EU)"}],"organization":{"fullName":"Pfizer","class":"INDUSTRY"},"briefTitle":"Study of PF-07220060 With Letrozole in Adults With HR-positive HER2-negative Breast Cancer Who Have Not Received Anticancer Treatment for Advanced/Metastatic Disease","officialTitle":"AN INTERVENTIONAL, OPEN-LABEL, RANDOMIZED, MULTICENTER PHASE 3 STUDY OF PF-07220060 PLUS LETROZOLE COMPARED TO CDK4/6 INHIBITOR PLUS LETROZOLE IN PARTICIPANTS OVER 18 YEARS OF AGE WITH HORMONE RECEPTOR (HR)-POSITIVE, HER2-NEGATIVE ADVANCED/METASTATIC BREAST CANCER WHO HAVE NOT RECEIVED ANY PRIOR SYSTEMIC ANTICANCER TREATMENT FOR ADVANCED/METASTATIC DISEASE (FOURLIGHT-3)","acronym":"FourLight-3"},"statusModule":{"statusVerifiedDate":"2025-06","overallStatus":"RECRUITING","expandedAccessInfo":{"hasExpandedAccess":false},"startDateStruct":{"date":"2025-01-06","type":"ACTUAL"},"primaryCompletionDateStruct":{"date":"2029-01-02","type":"ESTIMATED"},"completionDateStruct":{"date":"2037-12-29","type":"ESTIMATED"},"studyFirstSubmitDate":"2024-12-11","studyFirstSubmitQcDate":"2025-01-03","studyFirstPostDateStruct":{"date":"2025-01-07","type":"ACTUAL"},"lastUpdateSubmitDate":"2025-06-17","lastUpdatePostDateStruct":{"date":"2025-06-22","type":"ACTUAL"}},"sponsorCollaboratorsModule":{"responsibleParty":{"type":"SPONSOR"},"leadSponsor":{"name":"Pfizer","class":"INDUSTRY"}},"oversightModule":{"oversightHasDmc":true,"isFdaRegulatedDrug":true,"isFdaRegulatedDevice":false},"descriptionModule":{"briefSummary":"The purpose of this study is to determine the safety and efficacy of PF-07220060 with letrozole compared to approved treatments (ie, palbociclib, ribociclib or abemaciclib with letrozole) in people with breast cancer:\n\n* HR-positive (breast cancer cells that need estrogen or progesterone to grow)\n* HER2-negative (cells that have a small amount or none of a protein called HER2 on their surface);\n* locally advanced (that has spread from where it started to nearby tissue or lymph nodes) or metastatic disease (the spread of cancer to other places in the body)\n* who have not received any prior systemic anti-cancer treatment for advanced/metastatic disease.\n\nApproximately half of the participants will receive PF-07220060 plus letrozole while the other half of participants will receive the investigator's choice of treatment plus letrozole.\n\nThe study team will monitor how each participant is doing with the study treatment during regular visits at the study clinic."},"conditionsModule":{"conditions":["Breast Cancer"],"keywords":["Locally advanced or metastatic breast cancer","Estrogen receptor positive [ER(+)]","Progesterone receptor positive [PR(+)]","Hormone receptor positive [HR(+)]","Human epidermal growth factor receptor 2 negative [HER2(-)]","ER(+)/HER2(-)","PR(+)/HER2(-)","HR(+)/HER2(-)","Advanced Breast Cancer","Breast tumor","Breast cancer","Palbociclib","Abemaciclib","Ribociclib","Partial Response+ (PR+)","Metastatic breast cancer","Hormone Therapy","Hormone positive breast cancer","Recurrent breast cancer","HR+","HER2-negative","Relapse","Recurrent","First line treatment","Left Sided Breast Cancer","Left-Sided Breast Cancer","Right Sided Breast Cancer","Right-Sided Breast Cancer","Unilateral Breast Cancer","Cancer of the breast","CDK4i","CDK4/6i","Bilateral Breast Cancer"]},"designModule":{"studyType":"INTERVENTIONAL","phases":["PHASE3"],"designInfo":{"allocation":"RANDOMIZED","interventionModel":"PARALLEL","interventionModelDescription":"Study participants will be randomly assigned into 1 of 2 groups in parallel for the entire duration of the study. The experimental arm will receive PF-07220060 and letrozole (Arm A) while the comparator arm with receive the study doctors choice of CDK4/6i and letrozole (Arm B).","primaryPurpose":"TREATMENT","maskingInfo":{"masking":"NONE"}},"enrollmentInfo":{"count":1020,"type":"ESTIMATED"}},"armsInterventionsModule":{"armGroups":[{"label":"Arm A","type":"EXPERIMENTAL","description":"PF-07220060 tablet taken by mouth plus Letrozole tablet taken by mouth","interventionNames":["Drug: PF-07220060","Drug: letrozole"]},{"label":"Arm B","type":"ACTIVE_COMPARATOR","description":"Investigator's Choice of CDK4/6 inhibitor (tablet/capsule) taken by mouth with letrozole tablet taken by mouth","interventionNames":["Drug: letrozole","Drug: abemaciclib","Drug: palbociclib","Drug: ribociclib"]}],"interventions":[{"type":"DRUG","name":"PF-07220060","description":"CDK4 inhibitor","armGroupLabels":["Arm A"]},{"type":"DRUG","name":"letrozole","description":"endocrine therapy","armGroupLabels":["Arm A","Arm B"]},{"type":"DRUG","name":"abemaciclib","description":"CDK4/6 inhibitor","armGroupLabels":["Arm B"]},{"type":"DRUG","name":"palbociclib","description":"CDK4/6 inhibitor","armGroupLabels":["Arm B"]},{"type":"DRUG","name":"ribociclib","description":"CDK4/6 inhibitor","armGroupLabels":["Arm B"]}]},"outcomesModule":{"primaryOutcomes":[{"measure":"Progression Free Survival (PFS) by BICR","description":"Time from the date of randomization to the date of the first documentation of objective progressive disease as determined by blinded independent central review (BICR) per RECIST v1.1, or death due to any cause, whichever occurs first","timeFrame":"From the date of randomization until disease progression or death due to any cause (up to approximately 4 years)"}],"secondaryOutcomes":[{"measure":"Overall Survival (OS)","description":"Time from the date of randomization to the date of death due to any cause","timeFrame":"From the date of randomization until death due to any cause (up to approximately 13 years)."},{"measure":"Progression Free Survival (PFS) by Investigator","description":"Time from the date of randomization to the date of the first documentation of objective progressive disease as determined by investigator per RECIST v1.1, or death due to any cause, whichever occurs first","timeFrame":"From the date of randomization until disease progression or death due to any cause (up to approximately 4 years)"},{"measure":"OR by BICR and by investigator","description":"Time from randomization date (every 8 weeks during the first 48 weeks and then every 12 weeks) to the date of progression OR death whichever occurs first","timeFrame":"From randomization to progression or death whichever occurs first (up to approximately 4 years)"},{"measure":"Duration of Response (DoR) by BICR and by investigator","description":"Time from the date of CR or PR to the first documentation of objective progressive disease, or death due to any cause, whichever occurs first","timeFrame":"From the date of CR or PR until objective progressive disease, or death (up to approximately 4 years)"},{"measure":"Incidence of treatment emergent treatment related adverse events (AE)","description":"Incidence and severity of AEs graded according to the NCI CTCAE v5.0","timeFrame":"Duration of the study approximately up to 13 years."},{"measure":"Incidence of treatment emergent treatment related serious adverse events","description":"Incidence and severity of AEs graded according to NCI CTCAE v5.0","timeFrame":"Duration of the study approximately up to 13 years."},{"measure":"Estimated mean change from baseline in EORTC QLQ C30","timeFrame":"Baseline to end of treatment (up to approximately 4 years)"},{"measure":"Estimated mean change from baseline in BPI-SF","timeFrame":"Baseline to end of treatment (up to approximately 4 years)"},{"measure":"Estimated mean change from baseline in EQ-5D-5L","timeFrame":"Baseline to end of treatment (up to approximately 4 years)"},{"measure":"Estimated mean change from baseline in EORTC Breast Cancer Module (BR42)","timeFrame":"Baseline to end of treatment (up to approximately 4 years)"},{"measure":"Mean change from baseline of ctDNA","timeFrame":"Baseline to end of treatment (up to approximately 4 years)"}]},"eligibilityModule":{"eligibilityCriteria":"Inclusion Criteria:\n\n* Histological confirmation of breast cancer with evidence of locally advanced or metastatic disease, which is not amenable to surgical resection or radiation therapy with curative intent.\n* Documented estrogen receptor (ER) and/or progesterone receptor (PR)-positive tumor\n* Documented HER2-negative tumor\n* Previously untreated with any systemic anticancer therapy for their locally advanced or metastatic disease.\n* Measurable disease or non-measurable bone only disease as defined by RECIST version 1.1\n\nExclusion Criteria:\n\n* In visceral crisis at risk of immediately life-threatening complications in the short term.\n* Current or past history of central nervous system metastases.\n* Have received prior (neo)adjuvant endocrine therapy (ET) and had recurrence during or within 12 months after the last dose of ET.\n* Have received prior (neo)adjuvant CDK4/6i and had recurrence during or within 12 months after the last dose of CDK4/6i.\n* Inadequate renal function, hepatic dysfunction, or hematologic abnormalities.","healthyVolunteers":false,"sex":"ALL","minimumAge":"18 Years","stdAges":["ADULT","OLDER_ADULT"]},"contactsLocationsModule":{"centralContacts":[{"name":"Pfizer CT.gov Call Center","role":"CONTACT","phone":"1-800-718-1021","email":"ClinicalTrials.gov_Inquiries@pfizer.com"}],"overallOfficials":[{"name":"Pfizer CT.gov Call Center","affiliation":"Pfizer","role":"STUDY_DIRECTOR"}],"locations":[{"facility":"Ironwood Cancer & Research Centers","status":"RECRUITING","city":"Chandler","state":"Arizona","zip":"85224","country":"United States","geoPoint":{"lat":33.30616,"lon":-111.84125}},{"facility":"Ironwood Cancer & Research Centers","status":"RECRUITING","city":"Gilbert","state":"Arizona","zip":"85297","country":"United States","geoPoint":{"lat":33.35283,"lon":-111.78903}},{"facility":"Ironwood Cancer & Research Centers","status":"RECRUITING","city":"Glendale","state":"Arizona","zip":"85306","country":"United States","geoPoint":{"lat":33.53865,"lon":-112.18599}},{"facility":"Ironwood Cancer & Research Centers","status":"RECRUITING","city":"Mesa","state":"Arizona","zip":"85202","country":"United States","geoPoint":{"lat":33.42227,"lon":-111.82264}},{"facility":"Ironwood Cancer & Research Centers","status":"RECRUITING","city":"Mesa","state":"Arizona","zip":"85206","country":"United States","geoPoint":{"lat":33.42227,"lon":-111.82264}},{"facility":"Ironwood Cancer & Research Centers","status":"RECRUITING","city":"Phoenix","state":"Arizona","zip":"85028","country":"United States","geoPoint":{"lat":33.44838,"lon":-112.07404}},{"facility":"Ironwood Cancer & Research Centers","status":"RECRUITING","city":"Scottsdale","state":"Arizona","zip":"85260","country":"United States","geoPoint":{"lat":33.50921,"lon":-111.89903}},{"facility":"Highlands Oncology","status":"RECRUITING","city":"Fayetteville","state":"Arkansas","zip":"72703","country":"United States","geoPoint":{"lat":36.06258,"lon":-94.15743}},{"facility":"Highlands Oncology","status":"RECRUITING","city":"Rogers","state":"Arkansas","zip":"72758","country":"United States","geoPoint":{"lat":36.33202,"lon":-94.11854}},{"facility":"Highlands Oncology Group","status":"RECRUITING","city":"Springdale","state":"Arkansas","zip":"72762","country":"United States","geoPoint":{"lat":36.18674,"lon":-94.12881}},{"facility":"Cancer and Blood Specialty Clinic / Cancer and Blood Research Center, LLC","status":"RECRUITING","city":"Los Alamitos","state":"California","zip":"90720","country":"United States","geoPoint":{"lat":33.80307,"lon":-118.07256}},{"facility":"Keck Hospital of USC","status":"RECRUITING","city":"Los Angeles","state":"California","zip":"90033","country":"United States","geoPoint":{"lat":34.05223,"lon":-118.24368}},{"facility":"Los Angeles General Medical Center","status":"RECRUITING","city":"Los Angeles","state":"California","zip":"90033","country":"United States","geoPoint":{"lat":34.05223,"lon":-118.24368}},{"facility":"Norris Healthcare Center 3 (HC3)","status":"RECRUITING","city":"Los Angeles","state":"California","zip":"90033","country":"United States","geoPoint":{"lat":34.05223,"lon":-118.24368}},{"facility":"USC/Norris Comprehensive Cancer Center","status":"RECRUITING","city":"Los Angeles","state":"California","zip":"90033","country":"United States","geoPoint":{"lat":34.05223,"lon":-118.24368}},{"facility":"Keck Medicine of USC Norris Oncology/Hematology - Newport Beach Treatment Center","status":"RECRUITING","city":"Newport Beach","state":"California","zip":"92663","country":"United States","geoPoint":{"lat":33.61891,"lon":-117.92895}},{"facility":"USC Norris Oncology/Hematology - Newport Beach","status":"RECRUITING","city":"Newport Beach","state":"California","zip":"92663","country":"United States","geoPoint":{"lat":33.61891,"lon":-117.92895}},{"facility":"Keck Medical Center of USC Pasadena","status":"RECRUITING","city":"Pasadena","state":"California","zip":"91105","country":"United States","geoPoint":{"lat":34.14778,"lon":-118.14452}},{"facility":"Wellness Oncology Hematology","status":"NOT_YET_RECRUITING","city":"West Hills","state":"California","zip":"91307","country":"United States","geoPoint":{"lat":34.19731,"lon":-118.64398}},{"facility":"Intermountain Health St. Joseph Hospital","status":"RECRUITING","city":"Denver","state":"Colorado","zip":"80218","country":"United States","geoPoint":{"lat":39.73915,"lon":-104.9847}},{"facility":"Saint Joseph Hospital - Cancer Centers of Colorado","status":"RECRUITING","city":"Denver","state":"Colorado","zip":"80218","country":"United States","geoPoint":{"lat":39.73915,"lon":-104.9847}},{"facility":"Intermountain Health Lutheran Hospital","status":"RECRUITING","city":"Golden","state":"Colorado","zip":"80401","country":"United States","geoPoint":{"lat":39.75554,"lon":-105.2211}},{"facility":"Lutheran Hospital - Cancer Centers of Colorado","status":"RECRUITING","city":"Golden","state":"Colorado","zip":"80401","country":"United States","geoPoint":{"lat":39.75554,"lon":-105.2211}},{"facility":"Cancer Centers of Colorado St. Mary's Regional Hospital","status":"RECRUITING","city":"Grand Junction","state":"Colorado","zip":"81501","country":"United States","geoPoint":{"lat":39.06387,"lon":-108.55065}},{"facility":"Intermountain Health Saint Mary's Regional Hospital","status":"RECRUITING","city":"Grand Junction","state":"Colorado","zip":"81501","country":"United States","geoPoint":{"lat":39.06387,"lon":-108.55065}},{"facility":"Intermountain Health","status":"RECRUITING","city":"Grand Junction","state":"Colorado","zip":"81505","country":"United States","geoPoint":{"lat":39.06387,"lon":-108.55065}},{"facility":"MedStar Washington Hospital Center","status":"RECRUITING","city":"Washington","state":"District of Columbia","zip":"20010","country":"United States","geoPoint":{"lat":38.89511,"lon":-77.03637}},{"facility":"AdventHealth Altamonte Infusion Center","status":"RECRUITING","city":"Altamonte Springs","state":"Florida","zip":"32701","country":"United States","geoPoint":{"lat":28.66111,"lon":-81.36562}},{"facility":"AdventHealth Altamonte Springs","status":"RECRUITING","city":"Altamonte Springs","state":"Florida","zip":"32701","country":"United States","geoPoint":{"lat":28.66111,"lon":-81.36562}},{"facility":"AdventHealth Medical Group Altamonte","status":"RECRUITING","city":"Altamonte Springs","state":"Florida","zip":"32701","country":"United States","geoPoint":{"lat":28.66111,"lon":-81.36562}},{"facility":"Mount Sinai Medical Center, Aventura","status":"RECRUITING","city":"Aventura","state":"Florida","zip":"33180","country":"United States","geoPoint":{"lat":25.95648,"lon":-80.13921}},{"facility":"Boca Raton Regional Hospital","status":"NOT_YET_RECRUITING","city":"Boca Raton","state":"Florida","zip":"33486","country":"United States","geoPoint":{"lat":26.3669,"lon":-80.13033}},{"facility":"Mount Sinai Comprehensive Cancer Center","status":"RECRUITING","city":"Miami Beach","state":"Florida","zip":"33140","country":"United States","geoPoint":{"lat":25.79065,"lon":-80.13005}},{"facility":"Mount Sinai Medical Center","status":"RECRUITING","city":"Miami Beach","state":"Florida","zip":"33140","country":"United States","geoPoint":{"lat":25.79065,"lon":-80.13005}},{"facility":"Mid Florida Hematology and Oncology Center","status":"RECRUITING","city":"Orange City","state":"Florida","zip":"32763","country":"United States","geoPoint":{"lat":28.94888,"lon":-81.29867}},{"facility":"AdventHealth Orlando","status":"RECRUITING","city":"Orlando","state":"Florida","zip":"32803","country":"United States","geoPoint":{"lat":28.53834,"lon":-81.37924}},{"facility":"AdventHealth Medical Group Orlando","status":"RECRUITING","city":"Orlando","state":"Florida","zip":"32804","country":"United States","geoPoint":{"lat":28.53834,"lon":-81.37924}},{"facility":"AdventHealth Orlando Infusion Center","status":"RECRUITING","city":"Orlando","state":"Florida","zip":"32804","country":"United States","geoPoint":{"lat":28.53834,"lon":-81.37924}},{"facility":"Summit Cancer Care, PC","status":"RECRUITING","city":"Savannah","state":"Georgia","zip":"31405","country":"United States","geoPoint":{"lat":32.08354,"lon":-81.09983}},{"facility":"St. Luke's Cancer Institute: Boise","status":"RECRUITING","city":"Boise","state":"Idaho","zip":"83712","country":"United States","geoPoint":{"lat":43.6135,"lon":-116.20345}},{"facility":"St. Luke's Regional Medical Center","status":"RECRUITING","city":"Boise","state":"Idaho","zip":"83712","country":"United States","geoPoint":{"lat":43.6135,"lon":-116.20345}},{"facility":"St. Luke's Cancer Institute-Fruitland","status":"RECRUITING","city":"Fruitland","state":"Idaho","zip":"83619","country":"United States","geoPoint":{"lat":44.00766,"lon":-116.91655}},{"facility":"St. Luke's Cancer Institute-Meridian","status":"RECRUITING","city":"Meridian","state":"Idaho","zip":"83642","country":"United States","geoPoint":{"lat":43.61211,"lon":-116.39151}},{"facility":"St. Lukes Meridian Medical Center","status":"RECRUITING","city":"Meridian","state":"Idaho","zip":"83642","country":"United States","geoPoint":{"lat":43.61211,"lon":-116.39151}},{"facility":"St. Luke's Cancer Institute-Nampa","status":"RECRUITING","city":"Nampa","state":"Idaho","zip":"83687","country":"United States","geoPoint":{"lat":43.54072,"lon":-116.56346}},{"facility":"Endeavor Health","status":"RECRUITING","city":"Elmhurst","state":"Illinois","zip":"60126","country":"United States","geoPoint":{"lat":41.89947,"lon":-87.94034}},{"facility":"Ascension Illinois - Evanston Infusion Center","status":"RECRUITING","city":"Evanston","state":"Illinois","zip":"60202","country":"United States","geoPoint":{"lat":42.04114,"lon":-87.69006}},{"facility":"Hope and Healing Cancer Services","status":"NOT_YET_RECRUITING","city":"Hinsdale","state":"Illinois","zip":"60521","country":"United States","geoPoint":{"lat":41.80086,"lon":-87.93701}},{"facility":"Endeavor Health","status":"RECRUITING","city":"Naperville","state":"Illinois","zip":"60540","country":"United States","geoPoint":{"lat":41.78586,"lon":-88.14729}},{"facility":"Hope and Healing Cancer Services","status":"NOT_YET_RECRUITING","city":"New Lenox","state":"Illinois","zip":"60451","country":"United States","geoPoint":{"lat":41.51198,"lon":-87.96561}},{"facility":"Ascension Illinois-Skokie Infusion Center","status":"RECRUITING","city":"Skokie","state":"Illinois","zip":"60077","country":"United States","geoPoint":{"lat":42.03336,"lon":-87.73339}},{"facility":"Orchard Healthcare Research Inc.","status":"RECRUITING","city":"Skokie","state":"Illinois","zip":"60077","country":"United States","geoPoint":{"lat":42.03336,"lon":-87.73339}},{"facility":"Velocity Clinical Research","status":"RECRUITING","city":"Annapolis","state":"Maryland","zip":"21401","country":"United States","geoPoint":{"lat":38.97845,"lon":-76.49218}},{"facility":"Mercy Medical Center - Baltimore","status":"RECRUITING","city":"Baltimore","state":"Maryland","zip":"21202","country":"United States","geoPoint":{"lat":39.29038,"lon":-76.61219}},{"facility":"Brigham and Women's Hospital","status":"NOT_YET_RECRUITING","city":"Boston","state":"Massachusetts","zip":"02115","country":"United States","geoPoint":{"lat":42.35843,"lon":-71.05977}},{"facility":"Beth Israel Deaconess Medical Center","status":"NOT_YET_RECRUITING","city":"Boston","state":"Massachusetts","zip":"02215","country":"United States","geoPoint":{"lat":42.35843,"lon":-71.05977}},{"facility":"Dana-Farber Cancer Institute","status":"NOT_YET_RECRUITING","city":"Boston","state":"Massachusetts","zip":"02215","country":"United States","geoPoint":{"lat":42.35843,"lon":-71.05977}},{"facility":"Dana-Farber Cancer Institute - Chestnut Hill","status":"NOT_YET_RECRUITING","city":"Newton","state":"Massachusetts","zip":"02459","country":"United States","geoPoint":{"lat":42.33704,"lon":-71.20922}},{"facility":"Allina Health Cancer Institute - Mercy Hospital","status":"RECRUITING","city":"Coon Rapids","state":"Minnesota","zip":"55433","country":"United States","geoPoint":{"lat":45.11997,"lon":-93.28773}},{"facility":"Allina Health Cancer Institute - Abbott Northwestern Hospital","status":"RECRUITING","city":"Minneapolis","state":"Minnesota","zip":"55407","country":"United States","geoPoint":{"lat":44.97997,"lon":-93.26384}},{"facility":"Allina Health Cancer Institute - United Hospital","status":"RECRUITING","city":"Saint Paul","state":"Minnesota","zip":"55102","country":"United States","geoPoint":{"lat":44.94441,"lon":-93.09327}},{"facility":"Saint Luke's Cancer Institute","status":"RECRUITING","city":"Kansas City","state":"Missouri","zip":"64111","country":"United States","geoPoint":{"lat":39.09973,"lon":-94.57857}},{"facility":"Bozeman Health Deaconess Hospital","status":"RECRUITING","city":"Bozeman","state":"Montana","zip":"59715","country":"United States","geoPoint":{"lat":45.67965,"lon":-111.03856}},{"facility":"Renown Health","status":"RECRUITING","city":"Reno","state":"Nevada","zip":"89502","country":"United States","geoPoint":{"lat":39.52963,"lon":-119.8138}},{"facility":"Renown Regional Medical Center","status":"RECRUITING","city":"Reno","state":"Nevada","zip":"89502","country":"United States","geoPoint":{"lat":39.52963,"lon":-119.8138}},{"facility":"Providence Cancer Institute Franz Clinic","status":"RECRUITING","city":"Portland","state":"Oregon","zip":"97213","country":"United States","geoPoint":{"lat":45.52345,"lon":-122.67621}},{"facility":"Providence Portland Medical Center Investigational Drug Services","status":"RECRUITING","city":"Portland","state":"Oregon","zip":"97213","country":"United States","geoPoint":{"lat":45.52345,"lon":-122.67621}},{"facility":"Providence Portland Medical Center","status":"RECRUITING","city":"Portland","state":"Oregon","zip":"97213","country":"United States","geoPoint":{"lat":45.52345,"lon":-122.67621}},{"facility":"Providence Investigational Drug Service - Westside","status":"RECRUITING","city":"Portland","state":"Oregon","zip":"97225","country":"United States","geoPoint":{"lat":45.52345,"lon":-122.67621}},{"facility":"Providence Oncology and Hematology Care Clinic - Westside","status":"RECRUITING","city":"Portland","state":"Oregon","zip":"97225","country":"United States","geoPoint":{"lat":45.52345,"lon":-122.67621}},{"facility":"Providence St. Vincent Medical Center","status":"RECRUITING","city":"Portland","state":"Oregon","zip":"97225","country":"United States","geoPoint":{"lat":45.52345,"lon":-122.67621}},{"facility":"The University of Texas Health Science Center at Tyler dba UT Health East Texas HOPE Cancer Center","status":"RECRUITING","city":"Tyler","state":"Texas","zip":"75701","country":"United States","geoPoint":{"lat":32.35126,"lon":-95.30106}},{"facility":"The University of Texas Health Science Center at Tyler on behalf of UT Health East Texas HOPE Cancer","status":"RECRUITING","city":"Tyler","state":"Texas","zip":"75708","country":"United States","geoPoint":{"lat":32.35126,"lon":-95.30106}},{"facility":"Utah Cancer Specialists","status":"NOT_YET_RECRUITING","city":"Bountiful","state":"Utah","zip":"84010","country":"United States","geoPoint":{"lat":40.88939,"lon":-111.88077}},{"facility":"Utah Cancer Specialists","status":"NOT_YET_RECRUITING","city":"Layton","state":"Utah","zip":"84041","country":"United States","geoPoint":{"lat":41.06022,"lon":-111.97105}},{"facility":"Utah Cancer Specialists","status":"NOT_YET_RECRUITING","city":"Murray","state":"Utah","zip":"84107","country":"United States","geoPoint":{"lat":40.66689,"lon":-111.88799}},{"facility":"Utah Cancer Specialists","status":"NOT_YET_RECRUITING","city":"Ogden","state":"Utah","zip":"84405","country":"United States","geoPoint":{"lat":41.223,"lon":-111.97383}},{"facility":"Utah Cancer Specialists","status":"NOT_YET_RECRUITING","city":"Orem","state":"Utah","zip":"84057","country":"United States","geoPoint":{"lat":40.2969,"lon":-111.69465}},{"facility":"Utah Cancer Specialists","status":"NOT_YET_RECRUITING","city":"Pleasant Grove","state":"Utah","zip":"84062","country":"United States","geoPoint":{"lat":40.36412,"lon":-111.73854}},{"facility":"Utah Cancer Specialists","status":"NOT_YET_RECRUITING","city":"Provo","state":"Utah","zip":"84604","country":"United States","geoPoint":{"lat":40.23384,"lon":-111.65853}},{"facility":"Utah Cancer Specialists","status":"NOT_YET_RECRUITING","city":"Salt Lake City","state":"Utah","zip":"84102","country":"United States","geoPoint":{"lat":40.76078,"lon":-111.89105}},{"facility":"Utah Cancer Specialists","status":"NOT_YET_RECRUITING","city":"Salt Lake City","state":"Utah","zip":"84106","country":"United States","geoPoint":{"lat":40.76078,"lon":-111.89105}},{"facility":"Utah Cancer Specialists","status":"NOT_YET_RECRUITING","city":"West Jordan","state":"Utah","zip":"84088","country":"United States","geoPoint":{"lat":40.60967,"lon":-111.9391}},{"facility":"Utah Cancer Specialists","status":"NOT_YET_RECRUITING","city":"West Valley City","state":"Utah","zip":"84119","country":"United States","geoPoint":{"lat":40.69161,"lon":-112.00105}},{"facility":"Townsville University Hospital","status":"RECRUITING","city":"Douglas","state":"Queensland","zip":"4814","country":"Australia","geoPoint":{"lat":-37.03333,"lon":141.73333}},{"facility":"Princess Alexandra Hospital","status":"RECRUITING","city":"Woolloongabba","state":"Queensland","zip":"4102","country":"Australia","geoPoint":{"lat":-27.48855,"lon":153.03655}},{"facility":"Rosebud Hospital","status":"RECRUITING","city":"Capel Sound","state":"Victoria","zip":"3940","country":"Australia"},{"facility":"Frankston Hospital","status":"RECRUITING","city":"Frankston","state":"Victoria","zip":"3199","country":"Australia","geoPoint":{"lat":-38.14458,"lon":145.12291}},{"facility":"Peter MacCallum Cancer Centre","status":"RECRUITING","city":"Melbourne","state":"Victoria","zip":"3000","country":"Australia","geoPoint":{"lat":-37.814,"lon":144.96332}},{"facility":"Royal Melbourne Hospital","status":"RECRUITING","city":"Parkville","state":"Victoria","zip":"3052","country":"Australia","geoPoint":{"lat":-37.78333,"lon":144.95}},{"facility":"Grand Hôpital de Charleroi","status":"NOT_YET_RECRUITING","city":"Gilly","state":"Hainaut","zip":"6060","country":"Belgium","geoPoint":{"lat":50.42449,"lon":4.4789}},{"facility":"AZ Maria Middelares","status":"NOT_YET_RECRUITING","city":"Gent","state":"Oost-vlaanderen","zip":"9000","country":"Belgium","geoPoint":{"lat":51.05,"lon":3.71667}},{"facility":"UZ Leuven","status":"NOT_YET_RECRUITING","city":"Leuven","state":"Vlaams-brabant","zip":"3000","country":"Belgium","geoPoint":{"lat":50.87959,"lon":4.70093}},{"facility":"AZORG Campus Aalst-Moorselbaan","status":"NOT_YET_RECRUITING","city":"Aalst","zip":"9300","country":"Belgium","geoPoint":{"lat":50.93604,"lon":4.0355}},{"facility":"Multiprofile Hospital for Active Treatment Serdika EOOD","status":"RECRUITING","city":"Sofia","state":"Sofia (stolitsa)","zip":"1632","country":"Bulgaria","geoPoint":{"lat":42.69751,"lon":23.32415}},{"facility":"Complex Oncology Center - Burgas","status":"RECRUITING","city":"Burgas","zip":"8000","country":"Bulgaria","geoPoint":{"lat":42.50606,"lon":27.46781}},{"facility":"Multiprofile Hospital for Active Treatment Dr. Tota Venkova AD","status":"RECRUITING","city":"Gabrovo","zip":"5300","country":"Bulgaria","geoPoint":{"lat":42.87472,"lon":25.33417}},{"facility":"Specialized Hospital for Active Treatment of Oncology - Haskovo","status":"NOT_YET_RECRUITING","city":"Haskovo","zip":"6300","country":"Bulgaria","geoPoint":{"lat":41.93415,"lon":25.55557}},{"facility":"Complex Oncology Center - Plovdiv EOOD","status":"RECRUITING","city":"Plovdiv","zip":"4004","country":"Bulgaria","geoPoint":{"lat":42.15,"lon":24.75}},{"facility":"Complex Oncology Center - Shumen","status":"NOT_YET_RECRUITING","city":"Shumen","zip":"9700","country":"Bulgaria","geoPoint":{"lat":43.27064,"lon":26.92286}},{"facility":"MHAT for Women's Health Nadezhda","status":"RECRUITING","city":"Sofia","zip":"1330","country":"Bulgaria","geoPoint":{"lat":42.69751,"lon":23.32415}},{"facility":"Dr. Everett Chalmers Regional Hospital","status":"RECRUITING","city":"Fredericton","state":"New Brunswick","zip":"E3B 5N5","country":"Canada","geoPoint":{"lat":45.94541,"lon":-66.66558}},{"facility":"Princess Margaret Cancer Centre","status":"RECRUITING","city":"Toronto","state":"Ontario","zip":"M5G 2M9","country":"Canada","geoPoint":{"lat":43.70011,"lon":-79.4163}},{"facility":"Cancer Hospital Chinese Academy of Medical Science","status":"RECRUITING","city":"Beijing","state":"Beijing","zip":"100021","country":"China","geoPoint":{"lat":39.9075,"lon":116.39723}},{"facility":"Peking University People's Hospital","status":"NOT_YET_RECRUITING","city":"Beijing","state":"Beijing","zip":"100034","country":"China","geoPoint":{"lat":39.9075,"lon":116.39723}},{"facility":"Beijing Cancer hospital","status":"RECRUITING","city":"Beijing","state":"Beijing","zip":"100142","country":"China","geoPoint":{"lat":39.9075,"lon":116.39723}},{"facility":"The First People's Hospital of Foshan","status":"RECRUITING","city":"Foshan","state":"Guangdong","zip":"528000","country":"China","geoPoint":{"lat":23.02677,"lon":113.13148}},{"facility":"Sun Yat-sen University Cancer Center","status":"RECRUITING","city":"Guangzhou","state":"Guangdong","zip":"510060","country":"China","geoPoint":{"lat":23.11667,"lon":113.25}},{"facility":"Tongji Hospital, Tongji Medical College of Huazhong University of Science and Technology","status":"RECRUITING","city":"Wuhan","state":"Hubei","zip":"430030","country":"China","geoPoint":{"lat":30.58333,"lon":114.26667}},{"facility":"Hunan Cancer Hospital","status":"RECRUITING","city":"Changsha","state":"Hunan","zip":"410013","country":"China","geoPoint":{"lat":28.19874,"lon":112.97087}},{"facility":"Nanjing Drum Tower Hospital The Affiliated Hospital of Nanjing University Medical School","status":"RECRUITING","city":"Nanjing","state":"Jiangsu","zip":"210031","country":"China","geoPoint":{"lat":32.06167,"lon":118.77778}},{"facility":"The First Hospital of Jilin University","status":"RECRUITING","city":"Changchun","state":"Jilin","zip":"130021","country":"China","geoPoint":{"lat":43.88,"lon":125.32278}},{"facility":"The 2nd Affiliated Hospital of Dalian Medical University","status":"RECRUITING","city":"Dalian","state":"Liaoning","zip":"116023","country":"China","geoPoint":{"lat":38.91222,"lon":121.60222}},{"facility":"The First Hospital of China Medical University","status":"RECRUITING","city":"Shenyang","state":"Liaoning","zip":"110015","country":"China","geoPoint":{"lat":41.79222,"lon":123.43278}},{"facility":"The First Affiliated Hospital of Xi'an Jiaotong University","status":"RECRUITING","city":"Xi'an","state":"Shaanxi","zip":"710061","country":"China","geoPoint":{"lat":34.25833,"lon":108.92861}},{"facility":"Sir Run Run Shaw Hospital","status":"RECRUITING","city":"Hangzhou","state":"Zhejiang","zip":"310016","country":"China","geoPoint":{"lat":30.29365,"lon":120.16142}},{"facility":"Taizhou Hospital of Zhejiang Province","status":"NOT_YET_RECRUITING","city":"Linhai","state":"Zhejiang","zip":"317000","country":"China","geoPoint":{"lat":28.85535,"lon":121.14469}},{"facility":"Fakultni Thomayerova nemocnice","status":"RECRUITING","city":"Prague","state":"Praha 4","zip":"14059","country":"Czechia","geoPoint":{"lat":50.08804,"lon":14.42076}},{"facility":"Fakultni nemocnice v Motole","status":"NOT_YET_RECRUITING","city":"Praha","state":"Praha 5","zip":"150 06","country":"Czechia","geoPoint":{"lat":50.08804,"lon":14.42076}},{"facility":"Nemocnice AGEL Novy Jicin a.s.","status":"NOT_YET_RECRUITING","city":"Nový Jičín","zip":"741 01","country":"Czechia","geoPoint":{"lat":49.59438,"lon":18.01028}},{"facility":"Rigshospitalet","status":"NOT_YET_RECRUITING","city":"Copenhagen","state":"Hovedstaden","zip":"2100","country":"Denmark","geoPoint":{"lat":55.67594,"lon":12.56553}},{"facility":"Aarhus Universitetshospital, Skejby","status":"NOT_YET_RECRUITING","city":"Aarhus","state":"Midtjylland","zip":"8200","country":"Denmark","geoPoint":{"lat":56.15674,"lon":10.21076}},{"facility":"Aalborg Universitetshospital, Syd","status":"NOT_YET_RECRUITING","city":"Aalborg","state":"Nordjylland","zip":"9000","country":"Denmark","geoPoint":{"lat":57.048,"lon":9.9187}},{"facility":"Esbjerg sygehus, Syddansk Universitetshospital","status":"NOT_YET_RECRUITING","city":"Esbjerg","state":"Syddanmark","zip":"6700","country":"Denmark","geoPoint":{"lat":55.47028,"lon":8.45187}},{"facility":"Sygehus Soenderjylland","status":"NOT_YET_RECRUITING","city":"Soenderborg","state":"Syddanmark","zip":"6400","country":"Denmark"},{"facility":"Tampereen yliopistollinen sairaala","status":"RECRUITING","city":"Tampere","state":"Pirkanmaa","zip":"33520","country":"Finland","geoPoint":{"lat":61.49911,"lon":23.78712}},{"facility":"Vaasan Keskussairaala","status":"NOT_YET_RECRUITING","city":"Vaasa","state":"Pohjanmaa","zip":"65130","country":"Finland","geoPoint":{"lat":63.096,"lon":21.61577}},{"facility":"Helsinki University Hospital - Comprehensive Cancer Center (HYKS - Syöpäkeskus)","status":"RECRUITING","city":"Helsinki","state":"Uusimaa","zip":"00029","country":"Finland","geoPoint":{"lat":60.16952,"lon":24.93545}},{"facility":"Turku University Hospital","status":"RECRUITING","city":"Turku","state":"Varsinais-suomi","zip":"20520","country":"Finland","geoPoint":{"lat":60.45148,"lon":22.26869}},{"facility":"Institut Bergonié - Centre Régional de Lutte Contre Le Cancer de Bordeaux et Sud Ouest","status":"NOT_YET_RECRUITING","city":"Bordeaux","state":"Aquitaine","zip":"33076","country":"France","geoPoint":{"lat":44.84044,"lon":-0.5805}},{"facility":"Centre Eugène Marquis Rennes - Centre de Lutte Contre le Cancer","status":"NOT_YET_RECRUITING","city":"Rennes","state":"Ille-et-vilaine","zip":"35042","country":"France","geoPoint":{"lat":48.11198,"lon":-1.67429}},{"facility":"Centre de Cancérologie du Grand Montpellier","status":"NOT_YET_RECRUITING","city":"Montpellier","state":"Languedoc-roussillon","zip":"34070","country":"France","geoPoint":{"lat":43.61092,"lon":3.87723}},{"facility":"Institut de Cancérologie de l'Ouest","status":"NOT_YET_RECRUITING","city":"Saint Herblain","state":"Loire-atlantique","zip":"44805","country":"France","geoPoint":{"lat":47.21765,"lon":-1.64841}},{"facility":"Institut de Cancérologie de l'Ouest","status":"NOT_YET_RECRUITING","city":"ANGERS cedex 02","state":"Maine-et-loire","zip":"49055","country":"France","geoPoint":{"lat":47.46667,"lon":-0.55}},{"facility":"Centre de Lutte Contre le Cancer - Centre Henri Becquerel Normandie Rouen","status":"NOT_YET_RECRUITING","city":"Rouen","state":"Seine-maritime","zip":"76038","country":"France","geoPoint":{"lat":49.44313,"lon":1.09932}},{"facility":"CHD Vendee","status":"NOT_YET_RECRUITING","city":"La Roche-sur-Yon","state":"Vendée","zip":"85000","country":"France","geoPoint":{"lat":46.66667,"lon":-1.43333}},{"facility":"Centre Hospitalier de la Côte Basque","status":"NOT_YET_RECRUITING","city":"Bayonne","zip":"64109","country":"France","geoPoint":{"lat":43.48333,"lon":-1.48333}},{"facility":"Henri Mondor Hospital","status":"NOT_YET_RECRUITING","city":"Créteil","state":"Île-de-france","zip":"94000","country":"France","geoPoint":{"lat":48.78333,"lon":2.46667}},{"facility":"InVO Institut für Versorgungsforschung in der Onkologie","status":"NOT_YET_RECRUITING","city":"Koblenz","state":"Rheinland-pfalz","zip":"56068","country":"Germany","geoPoint":{"lat":50.35357,"lon":7.57883}},{"facility":"Universitaetsklinikum Carl Gustav Carus Dresden","status":"NOT_YET_RECRUITING","city":"Dresden","state":"Sachsen","zip":"01307","country":"Germany","geoPoint":{"lat":51.05089,"lon":13.73832}},{"facility":"Gemeinschaftspraxis Hämatologie - Onkologie Freiberg-Richter, Jacobasch, Illmer, Wolf","status":"NOT_YET_RECRUITING","city":"Dresden","zip":"01307","country":"Germany","geoPoint":{"lat":51.05089,"lon":13.73832}},{"facility":"Facharztzentrum Eppendorf","status":"NOT_YET_RECRUITING","city":"Hamburg","zip":"20249","country":"Germany","geoPoint":{"lat":53.57532,"lon":10.01534}},{"facility":"Agios Savvas Regional Cancer Hospital","status":"NOT_YET_RECRUITING","city":"Athens","state":"Attikí","zip":"115 22","country":"Greece","geoPoint":{"lat":37.97945,"lon":23.71622}},{"facility":"Hygeia Hospital","status":"NOT_YET_RECRUITING","city":"Marousi","state":"Attikí","zip":"151 23","country":"Greece","geoPoint":{"lat":38.05,"lon":23.8}},{"facility":"Aretaieio Hospital","status":"RECRUITING","city":"Αθήνα","state":"Attikí","zip":"115 28","country":"Greece"},{"facility":"Aretaieio Hospital","status":"RECRUITING","city":"Athens","zip":"115 28","country":"Greece","geoPoint":{"lat":37.97945,"lon":23.71622}},{"facility":"Heves Vármegyei Markhot Ferenc Oktatókórház és Rendelőintézet","status":"RECRUITING","city":"Eger","state":"Heves","zip":"3300","country":"Hungary","geoPoint":{"lat":47.90265,"lon":20.37329}},{"facility":"Országos Onkológiai Intézet","status":"NOT_YET_RECRUITING","city":"Budapest","zip":"1122","country":"Hungary","geoPoint":{"lat":47.49801,"lon":19.03991}},{"facility":"Rajiv Gandhi Cancer Institute And Research Centre","status":"NOT_YET_RECRUITING","city":"New Delhi","state":"Delhi","zip":"110085","country":"India","geoPoint":{"lat":28.63576,"lon":77.22445}},{"facility":"Nirmal Hospital Pvt Ltd.","status":"RECRUITING","city":"Surat","state":"Gujarat","zip":"395002","country":"India","geoPoint":{"lat":21.19594,"lon":72.83023}},{"facility":"Artemis hospital","status":"NOT_YET_RECRUITING","city":"Gurugram","state":"Haryana","zip":"122001","country":"India"},{"facility":"Spandana Oncology Centre (SOC)","status":"NOT_YET_RECRUITING","city":"Bangalore","state":"Karnataka","zip":"560069","country":"India","geoPoint":{"lat":12.97194,"lon":77.59369}},{"facility":"Tata Memorial Hospital","status":"RECRUITING","city":"Mumbai","state":"Maharashtra","zip":"400012","country":"India","geoPoint":{"lat":19.07283,"lon":72.88261}},{"facility":"Apex Wellness Hospital","status":"RECRUITING","city":"Nashik","state":"Maharashtra","zip":"422009","country":"India","geoPoint":{"lat":19.99727,"lon":73.79096}},{"facility":"Deenanath Mangeshkar Hospital & Research Centre","status":"NOT_YET_RECRUITING","city":"Pune","state":"Maharashtra","zip":"411004","country":"India","geoPoint":{"lat":18.51957,"lon":73.85535}},{"facility":"Sahyadri Super Speciality Hospital","status":"RECRUITING","city":"Pune","state":"Maharashtra","zip":"411004","country":"India","geoPoint":{"lat":18.51957,"lon":73.85535}},{"facility":"Bhakti Vedanta Hospital and Research Institute","status":"RECRUITING","city":"Thane","state":"Maharashtra","zip":"401107","country":"India","geoPoint":{"lat":19.19704,"lon":72.96355}},{"facility":"Basavatarakam Indo American Cancer Hospital & Research Institute","status":"NOT_YET_RECRUITING","city":"Hyderabad","state":"Telangana","zip":"500034","country":"India","geoPoint":{"lat":17.38405,"lon":78.45636}},{"facility":"Apollo Multispeciality Hospitals limited","status":"NOT_YET_RECRUITING","city":"Kolkata","state":"WEST Bengal","zip":"700054","country":"India","geoPoint":{"lat":22.56263,"lon":88.36304}},{"facility":"Mater Misericordiae University Hospital","status":"NOT_YET_RECRUITING","city":"Dublin","zip":"D07 A8NN","country":"Ireland","geoPoint":{"lat":53.33306,"lon":-6.24889}},{"facility":"Mater Private Hospital - Dublin","status":"NOT_YET_RECRUITING","city":"Dublin","zip":"D07 WKW8","country":"Ireland","geoPoint":{"lat":53.33306,"lon":-6.24889}},{"facility":"Beaumont Hospital, Dublin","status":"NOT_YET_RECRUITING","city":"Dublin","zip":"D9","country":"Ireland","geoPoint":{"lat":53.33306,"lon":-6.24889}},{"facility":"Rabin Medical Center","status":"RECRUITING","city":"Petah Tikva","state":"Hamerkaz","zip":"4941492","country":"Israel","geoPoint":{"lat":32.08707,"lon":34.88747}},{"facility":"Sheba Medical Center","status":"NOT_YET_RECRUITING","city":"Ramat Gan","state":"Hamerkaz","zip":"5265601","country":"Israel","geoPoint":{"lat":32.08227,"lon":34.81065}},{"facility":"Rambam Health Care Campus","status":"RECRUITING","city":"Haifa","state":"Hatsafon","zip":"3109601","country":"Israel","geoPoint":{"lat":32.81841,"lon":34.9885}},{"facility":"Sourasky Medical Center","status":"RECRUITING","city":"Tel Aviv","state":"Tell Abīb","zip":"6423906","country":"Israel","geoPoint":{"lat":32.08088,"lon":34.78057}},{"facility":"Hadassah Medical Center","status":"RECRUITING","city":"Jerusalem","state":"Yerushalayim","zip":"9112001","country":"Israel","geoPoint":{"lat":31.76904,"lon":35.21633}},{"facility":"IRCCS - Istituto Romagnolo per lo Studio dei Tumori (IRST) \"Dino Amadori\"","status":"RECRUITING","city":"Meldola","state":"Emilia-romagna","zip":"47014","country":"Italy","geoPoint":{"lat":44.12775,"lon":12.0626}},{"facility":"Cro-Irccs","status":"RECRUITING","city":"Aviano","state":"Friuli-venezia Giulia","zip":"33081","country":"Italy","geoPoint":{"lat":46.07056,"lon":12.59472}},{"facility":"Istituto Nazionale Tumori Regina Elena","status":"NOT_YET_RECRUITING","city":"Rome","state":"Roma","zip":"00144","country":"Italy","geoPoint":{"lat":41.89193,"lon":12.51133}},{"facility":"Azienda Ospedaliera Universitaria Careggi","status":"RECRUITING","city":"Firenze","state":"Toscana","zip":"50134","country":"Italy","geoPoint":{"lat":43.77925,"lon":11.24626}},{"facility":"Istituto Europeo di Oncologia IRCCS","status":"RECRUITING","city":"Milano","zip":"20141","country":"Italy","geoPoint":{"lat":45.46427,"lon":9.18951}},{"facility":"Azienda Ospedaliero Universitaria Maggiore della Carità","status":"RECRUITING","city":"Novara","zip":"28100","country":"Italy","geoPoint":{"lat":45.44694,"lon":8.62118}},{"facility":"Aichi Cancer Center","status":"NOT_YET_RECRUITING","city":"Nagoya","state":"Aichi","zip":"464-8681","country":"Japan","geoPoint":{"lat":35.18147,"lon":136.90641}},{"facility":"Nagoya University Hospital","status":"RECRUITING","city":"Nagoya","state":"Aichi","zip":"466-8560","country":"Japan","geoPoint":{"lat":35.18147,"lon":136.90641}},{"facility":"Nagoya City University Hospital","status":"RECRUITING","city":"Nagoya","state":"Aichi","zip":"467-8602","country":"Japan","geoPoint":{"lat":35.18147,"lon":136.90641}},{"facility":"Gunma Prefectural Cancer Center","status":"RECRUITING","city":"Otashi","state":"Gunma","zip":"373-8550","country":"Japan"},{"facility":"National Hospital Organization Hokkaido Cancer Center","status":"RECRUITING","city":"Sapporo","state":"Hokkaido","zip":"003-0804","country":"Japan","geoPoint":{"lat":43.06667,"lon":141.35}},{"facility":"Kanagawa cancer center","status":"RECRUITING","city":"Yokohama","state":"Kanagawa","zip":"2418515","country":"Japan","geoPoint":{"lat":35.43333,"lon":139.65}},{"facility":"Kyoto University Hospital","status":"RECRUITING","city":"Sakyo-ku","state":"Kyoto","zip":"606-8507","country":"Japan"},{"facility":"Tohoku University Hospital","status":"RECRUITING","city":"Sendai","state":"Miyagi","zip":"980-8574","country":"Japan","geoPoint":{"lat":38.26667,"lon":140.86667}},{"facility":"Osaka University Hospital","status":"RECRUITING","city":"Suita","state":"Osaka","zip":"565-0871","country":"Japan","geoPoint":{"lat":34.76143,"lon":135.51567}},{"facility":"Juntendo University Hospital","status":"RECRUITING","city":"Bunkyo-ku","state":"Tokyo","zip":"113-8431","country":"Japan","geoPoint":{"lat":35.37517,"lon":139.92991}},{"facility":"National Cancer Center Hospital","status":"RECRUITING","city":"Chuo-ku","state":"Tokyo","zip":"104-0045","country":"Japan","geoPoint":{"lat":35.57779,"lon":139.71685}},{"facility":"The Cancer Institute Hospital of JFCR","status":"RECRUITING","city":"Koto-ku","state":"Tokyo","zip":"135-8550","country":"Japan","geoPoint":{"lat":35.66667,"lon":139.81718}},{"facility":"Showa University Hospital","status":"RECRUITING","city":"Shinagawa","state":"Tokyo","zip":"142-8666","country":"Japan","geoPoint":{"lat":33.63627,"lon":133.00572}},{"facility":"National Center for Global Health and Medicine","status":"RECRUITING","city":"Shinjuku City","state":"Tokyo","zip":"162-8655","country":"Japan","geoPoint":{"lat":35.2946,"lon":139.57059}},{"facility":"Chiba Cancer Center","status":"NOT_YET_RECRUITING","city":"Chiba","zip":"260-8717","country":"Japan","geoPoint":{"lat":35.6,"lon":140.11667}},{"facility":"National Hospital Organization Kyushu Cancer Center","status":"NOT_YET_RECRUITING","city":"Fukuoka","zip":"811-1395","country":"Japan","geoPoint":{"lat":33.6,"lon":130.41667}},{"facility":"Hiroshima City Hiroshima Citizens Hospital","status":"RECRUITING","city":"Hiroshima","zip":"730-8518","country":"Japan","geoPoint":{"lat":34.4,"lon":132.45}},{"facility":"Kumamoto Shinto General Hospital","status":"RECRUITING","city":"Kumamoto","zip":"862-8655","country":"Japan","geoPoint":{"lat":32.80589,"lon":130.69182}},{"facility":"Okayama University Hospital","status":"RECRUITING","city":"Okayama","zip":"700-8558","country":"Japan","geoPoint":{"lat":34.65,"lon":133.93333}},{"facility":"National Hospital Organization Osaka National Hospital","status":"RECRUITING","city":"Osaka","zip":"540-0006","country":"Japan","geoPoint":{"lat":34.69374,"lon":135.50218}},{"facility":"Osaka International Cancer Institute","status":"RECRUITING","city":"Osaka","zip":"541-8567","country":"Japan","geoPoint":{"lat":34.69374,"lon":135.50218}},{"facility":"Gachon University Gil Medical Center","status":"NOT_YET_RECRUITING","city":"Incheon","state":"Incheon-gwangyeoksi [incheon]","zip":"21565","country":"Korea, Republic of","geoPoint":{"lat":37.45646,"lon":126.70515}},{"facility":"Gangnam Severance Hospital, Yonsei University Health System","status":"NOT_YET_RECRUITING","city":"Gangnam-gu","state":"Seoul-teukbyeolsi [seoul]","zip":"06273","country":"Korea, Republic of"},{"facility":"Korea University Anam Hospital","status":"NOT_YET_RECRUITING","city":"Seoul","state":"Seoul-teukbyeolsi [seoul]","zip":"02841","country":"Korea, Republic of","geoPoint":{"lat":37.566,"lon":126.9784}},{"facility":"Asan Medical Center","status":"NOT_YET_RECRUITING","city":"Seoul","state":"Seoul-teukbyeolsi [seoul]","zip":"05505","country":"Korea, Republic of","geoPoint":{"lat":37.566,"lon":126.9784}},{"facility":"Ewha Womans University Mokdong Hospital","status":"NOT_YET_RECRUITING","city":"Seoul","state":"Seoul-teukbyeolsi [seoul]","zip":"07985","country":"Korea, Republic of","geoPoint":{"lat":37.566,"lon":126.9784}},{"facility":"Centrum Badań Klinicznych Jagiellońskie Centrum Innowacji sp. z o.o.","status":"RECRUITING","city":"Kraków","state":"Małopolskie","zip":"30-348","country":"Poland","geoPoint":{"lat":50.06143,"lon":19.93658}},{"facility":"Pratia MCM Krakow","status":"RECRUITING","city":"Kraków","state":"Małopolskie","zip":"30-727","country":"Poland","geoPoint":{"lat":50.06143,"lon":19.93658}},{"facility":"AIDPORT Sp. z o.o.","status":"RECRUITING","city":"Skórzewo","state":"Wielkopolskie","zip":"60-185","country":"Poland"},{"facility":"Europejskie Centrum Zdrowia Otwock Szpital im.F.Chopina","status":"RECRUITING","city":"Otwock","zip":"05-400","country":"Poland","geoPoint":{"lat":52.10577,"lon":21.26129}},{"facility":"Instytut MSF Sp zoo","status":"RECRUITING","city":"Łódź","state":"Łódzkie","zip":"91-614","country":"Poland","geoPoint":{"lat":51.75,"lon":19.46667}},{"facility":"Nemocnica s poliklinikou Stefana Kukuru Michalovce a.s.","status":"NOT_YET_RECRUITING","city":"Michalovce","state":"Košický KRAJ","zip":"071 01","country":"Slovakia","geoPoint":{"lat":48.75434,"lon":21.9195}},{"facility":"Nemocnica AGEL Komarno","status":"NOT_YET_RECRUITING","city":"Komarno","state":"Nitriansky KRAJ","zip":"945 05","country":"Slovakia","geoPoint":{"lat":47.76356,"lon":18.12263}},{"facility":"Medeon, s.r.o.","status":"NOT_YET_RECRUITING","city":"Banka","state":"Trnavský KRAJ","zip":"921 01","country":"Slovakia","geoPoint":{"lat":48.5855,"lon":17.85541}},{"facility":"Hospital General Universitario de Elche","status":"RECRUITING","city":"Elche","state":"Alicante","zip":"03203","country":"Spain","geoPoint":{"lat":38.26218,"lon":-0.70107}},{"facility":"Hospital Universitari Vall d'Hebron","status":"RECRUITING","city":"Barcelona","state":"Barcelona [barcelona]","zip":"08035","country":"Spain","geoPoint":{"lat":41.38879,"lon":2.15899}},{"facility":"Institut Català d'Oncologia - L'Hospitalet","status":"NOT_YET_RECRUITING","city":"Hospitalet","state":"Barcelona [barcelona]","zip":"08907","country":"Spain"},{"facility":"Hospital Clínic de Barcelona","status":"RECRUITING","city":"Barcelona","state":"Catalunya [cataluña]","zip":"08036","country":"Spain","geoPoint":{"lat":41.38879,"lon":2.15899}},{"facility":"Hospital Jerez de la Frontera","status":"RECRUITING","city":"Jerez de la Frontera","state":"Cádiz","zip":"11407","country":"Spain","geoPoint":{"lat":36.68645,"lon":-6.13606}},{"facility":"Hospital Universitario 12 de Octubre","status":"RECRUITING","city":"Madrid","state":"Madrid, Comunidad DE","zip":"28041","country":"Spain","geoPoint":{"lat":40.4165,"lon":-3.70256}},{"facility":"Hospital Universitario Virgen de la Victoria","status":"RECRUITING","city":"Malaga","state":"Málaga","zip":"29010","country":"Spain","geoPoint":{"lat":36.72016,"lon":-4.42034}},{"facility":"Osi Bilbao-Basurto","status":"NOT_YET_RECRUITING","city":"Bilbo","state":"PAÍS Vasco","zip":"48013","country":"Spain"},{"facility":"Hospital Universitario San Cecilio","status":"RECRUITING","city":"Granada","zip":"18016","country":"Spain","geoPoint":{"lat":37.18817,"lon":-3.60667}},{"facility":"Hospital Universitario HM Sanchinarro","status":"RECRUITING","city":"Madrid","zip":"28050","country":"Spain","geoPoint":{"lat":40.4165,"lon":-3.70256}},{"facility":"Hospital Universitario de Salamanca - Complejo Asistencial Universitario de Salamanca","status":"RECRUITING","city":"Salamanca","zip":"37007","country":"Spain","geoPoint":{"lat":40.96882,"lon":-5.66388}},{"facility":"Hospital Universitario Virgen Macarena","status":"RECRUITING","city":"Sevilla","zip":"41009","country":"Spain","geoPoint":{"lat":37.38283,"lon":-5.97317}},{"facility":"Sjukhuset I Gävle","status":"NOT_YET_RECRUITING","city":"Gävle","state":"Gävleborgs LÄN [se-21]","zip":"80187","country":"Sweden","geoPoint":{"lat":60.67452,"lon":17.14174}},{"facility":"Södersjukhuset","status":"RECRUITING","city":"Stockholm","state":"Stockholms LÄN [se-01]","zip":"11883","country":"Sweden","geoPoint":{"lat":59.33258,"lon":18.0649}},{"facility":"Akademiska sjukhuset","status":"NOT_YET_RECRUITING","city":"Uppsala","state":"Uppsala LÄN [se-03]","zip":"751 85","country":"Sweden","geoPoint":{"lat":59.85882,"lon":17.63889}},{"facility":"Västmanlands Sjukhus Västerås","status":"RECRUITING","city":"Västerås","state":"Västmanlands LÄN [se-19]","zip":"721 89","country":"Sweden","geoPoint":{"lat":59.61617,"lon":16.55276}},{"facility":"Sahlgrenska Universitetssjukhuset","status":"RECRUITING","city":"Gothenburg","state":"Västra Götalands LÄN [se-14]","zip":"413 45","country":"Sweden","geoPoint":{"lat":57.70716,"lon":11.96679}},{"facility":"Lanssjukhuset Ryhov","status":"NOT_YET_RECRUITING","city":"Jönköping","zip":"553 05","country":"Sweden","geoPoint":{"lat":57.78145,"lon":14.15618}},{"facility":"Capio Saint Görans Sjukhus","status":"RECRUITING","city":"Stockholm","zip":"112 19","country":"Sweden","geoPoint":{"lat":59.33258,"lon":18.0649}},{"facility":"Sundsvalls Sjukhus","status":"NOT_YET_RECRUITING","city":"Sundsvall","zip":"856 40","country":"Sweden","geoPoint":{"lat":62.39129,"lon":17.3063}},{"facility":"Tumor Zentrum Aarau","status":"NOT_YET_RECRUITING","city":"Aarau","state":"Aargau","zip":"5000","country":"Switzerland","geoPoint":{"lat":47.39254,"lon":8.04422}},{"facility":"Inselspital Bern","status":"NOT_YET_RECRUITING","city":"Bern","state":"Berne","zip":"3010","country":"Switzerland","geoPoint":{"lat":46.94809,"lon":7.44744}},{"facility":"Kantonsspital Frauenfeld - Spital Thurgau AG","status":"NOT_YET_RECRUITING","city":"Frauenfeld","state":"Thurgau","zip":"8500","country":"Switzerland","geoPoint":{"lat":47.55776,"lon":8.89893}},{"facility":"Kantonsspital Baden","status":"RECRUITING","city":"Baden","zip":"5404","country":"Switzerland","geoPoint":{"lat":47.47333,"lon":8.30592}},{"facility":"Kantonsspital Graubünden","status":"RECRUITING","city":"Chur","zip":"7000","country":"Switzerland","geoPoint":{"lat":46.84986,"lon":9.53287}},{"facility":"Kantonsspital Münsterlingen - Spital Thurgau AG","status":"NOT_YET_RECRUITING","city":"Münsterlingen","zip":"8596","country":"Switzerland","geoPoint":{"lat":47.63172,"lon":9.23281}},{"facility":"Kantonsspital Olten","status":"NOT_YET_RECRUITING","city":"Olten","zip":"4600","country":"Switzerland","geoPoint":{"lat":47.34999,"lon":7.90329}},{"facility":"Kantonsspital Winterthur","status":"NOT_YET_RECRUITING","city":"Winterthur","zip":"8401","country":"Switzerland","geoPoint":{"lat":47.50564,"lon":8.72413}},{"facility":"National Taiwan University Hospital - Hsinchu branch","status":"NOT_YET_RECRUITING","city":"Zhu Bei City","state":"Hsinchu","zip":"302","country":"Taiwan"},{"facility":"Taichung Veterans General Hospital","status":"RECRUITING","city":"Taichung","zip":"407","country":"Taiwan","geoPoint":{"lat":24.1469,"lon":120.6839}},{"facility":"National Cheng Kung University Hospital","status":"RECRUITING","city":"Tainan","zip":"704","country":"Taiwan","geoPoint":{"lat":22.99083,"lon":120.21333}},{"facility":"National Taiwan University Hospital","status":"RECRUITING","city":"Taipei","zip":"10002","country":"Taiwan","geoPoint":{"lat":25.04776,"lon":121.53185}},{"facility":"Mackay Memorial Hospital","status":"RECRUITING","city":"Taipei","zip":"10449","country":"Taiwan","geoPoint":{"lat":25.04776,"lon":121.53185}},{"facility":"Taipei Veterans General Hospital","status":"RECRUITING","city":"Taipei","zip":"11217","country":"Taiwan","geoPoint":{"lat":25.04776,"lon":121.53185}},{"facility":"Koo Foundation Sun Yat-Sen Cancer Center","status":"RECRUITING","city":"Taipei","zip":"112","country":"Taiwan","geoPoint":{"lat":25.04776,"lon":121.53185}},{"facility":"Chang Gung Medical Foundation-Linkou Branch","status":"RECRUITING","city":"Taoyuan","zip":"333","country":"Taiwan","geoPoint":{"lat":24.95233,"lon":121.20193}},{"facility":"Medipol Mega Universite Hastanesi","status":"RECRUITING","city":"Istanbul","state":"İ̇stanbul","zip":"34214","country":"Turkey","geoPoint":{"lat":41.01384,"lon":28.94966}},{"facility":"İ.A.Ü VM Medical Park Florya Hastanesi","status":"NOT_YET_RECRUITING","city":"Istanbul","state":"İ̇stanbul","zip":"34295","country":"Turkey","geoPoint":{"lat":41.01384,"lon":28.94966}},{"facility":"TC Saglik Bakanligi Goztepe Prof. Dr. Suleyman Yalcin Sehir Hastanesi","status":"NOT_YET_RECRUITING","city":"Istanbul","state":"İ̇stanbul","zip":"34722","country":"Turkey","geoPoint":{"lat":41.01384,"lon":28.94966}},{"facility":"Gulhane Egitim Arastirma Hastanesi","status":"NOT_YET_RECRUITING","city":"Ankara","zip":"06010","country":"Turkey","geoPoint":{"lat":39.91987,"lon":32.85427}},{"facility":"Hacettepe Universite Hastaneleri","status":"NOT_YET_RECRUITING","city":"Ankara","zip":"06230","country":"Turkey","geoPoint":{"lat":39.91987,"lon":32.85427}},{"facility":"Memorial Ankara Hastanesi","status":"NOT_YET_RECRUITING","city":"Ankara","zip":"06520","country":"Turkey","geoPoint":{"lat":39.91987,"lon":32.85427}},{"facility":"Gazi University Health Research and Application Center Gazi Hospital","status":"NOT_YET_RECRUITING","city":"Ankara","zip":"06560","country":"Turkey","geoPoint":{"lat":39.91987,"lon":32.85427}},{"facility":"Dicle Üniversitesi","status":"RECRUITING","city":"Diyarbakir","zip":"21200","country":"Turkey","geoPoint":{"lat":37.91363,"lon":40.21721}},{"facility":"Sakarya Training and Research Hospital","status":"NOT_YET_RECRUITING","city":"Sakarya","zip":"54290","country":"Turkey"},{"facility":"Imperial College Healthcare NHS Trust, Charing Cross Hospital","status":"NOT_YET_RECRUITING","city":"London","state":"Hammersmith AND Fulham","zip":"W6 8RF","country":"United Kingdom","geoPoint":{"lat":51.50853,"lon":-0.12574}},{"facility":"Sarah Cannon Research Institute UK","status":"NOT_YET_RECRUITING","city":"London","state":"London, CITY OF","zip":"w1g 6ad","country":"United Kingdom","geoPoint":{"lat":51.50853,"lon":-0.12574}},{"facility":"The Christie NHS Foundation Trust","status":"RECRUITING","city":"Manchester","zip":"M20 4BX","country":"United Kingdom","geoPoint":{"lat":53.48095,"lon":-2.23743}}]},"referencesModule":{"seeAlsoLinks":[{"label":"To obtain contact information for a study center near you, click here.","url":"https://pmiform.com/clinical-trial-info-request?StudyID=C4391024"}]},"ipdSharingStatementModule":{"ipdSharing":"YES","description":"Pfizer will provide access to individual de-identified participant data and related study documents (e.g. protocol, Statistical Analysis Plan (SAP), Clinical Study Report (CSR)) upon request from qualified researchers, and subject to certain criteria, conditions, and exceptions. Further details on Pfizer's data sharing criteria and process for requesting access can be found at: https://www.pfizer.com/science/clinical_trials/trial_data_and_results/data_requests.","url":"https://www.pfizer.com/science/clinical_trials/trial_data_and_results/data_requests"}},"derivedSection":{"miscInfoModule":{"versionHolder":"2025-07-07"},"conditionBrowseModule":{"meshes":[{"id":"D001943","term":"Breast Neoplasms"},{"id":"D009362","term":"Neoplasm Metastasis"}],"ancestors":[{"id":"D009371","term":"Neoplasms by Site"},{"id":"D009369","term":"Neoplasms"},{"id":"D001941","term":"Breast Diseases"},{"id":"D012871","term":"Skin Diseases"},{"id":"D009385","term":"Neoplastic Processes"},{"id":"D010335","term":"Pathologic Processes"}],"browseLeaves":[{"id":"M5220","name":"Breast Neoplasms","asFound":"Breast Cancer","relevance":"HIGH"},{"id":"M14850","name":"Recurrence","relevance":"LOW"},{"id":"M12307","name":"Neoplasm Metastasis","asFound":"Metastatic Disease","relevance":"HIGH"},{"id":"M477","name":"Unilateral Breast Neoplasms","relevance":"LOW"},{"id":"M5218","name":"Breast Diseases","relevance":"LOW"},{"id":"M15674","name":"Skin Diseases","relevance":"LOW"},{"id":"M12330","name":"Neoplastic Processes","relevance":"LOW"}],"browseBranches":[{"abbrev":"BC04","name":"Neoplasms"},{"abbrev":"BC17","name":"Skin and Connective Tissue Diseases"},{"abbrev":"All","name":"All Conditions"},{"abbrev":"BC23","name":"Symptoms and General Pathology"}]},"interventionBrowseModule":{"meshes":[{"id":"D000077289","term":"Letrozole"},{"id":"C500026","term":"Palbociclib"}],"ancestors":[{"id":"D000970","term":"Antineoplastic Agents"},{"id":"D047072","term":"Aromatase Inhibitors"},{"id":"D065088","term":"Steroid Synthesis Inhibitors"},{"id":"D004791","term":"Enzyme Inhibitors"},{"id":"D045504","term":"Molecular Mechanisms of Pharmacological Action"},{"id":"D004965","term":"Estrogen Antagonists"},{"id":"D006727","term":"Hormone Antagonists"},{"id":"D006730","term":"Hormones, Hormone Substitutes, and Hormone Antagonists"},{"id":"D045505","term":"Physiological Effects of Drugs"},{"id":"D047428","term":"Protein Kinase Inhibitors"}],"browseLeaves":[{"id":"M8116","name":"Estrogens","relevance":"LOW"},{"id":"M9789","name":"Hormones","relevance":"LOW"},{"id":"M1743","name":"Letrozole","asFound":"How","relevance":"HIGH"},{"id":"M11900","name":"Mitogens","relevance":"LOW"},{"id":"M223893","name":"Palbociclib","asFound":"Conditioning","relevance":"HIGH"},{"id":"M14245","name":"Progesterone","relevance":"LOW"},{"id":"M25769","name":"Aromatase Inhibitors","relevance":"LOW"},{"id":"M7951","name":"Enzyme Inhibitors","relevance":"LOW"},{"id":"M8114","name":"Estrogen Antagonists","relevance":"LOW"},{"id":"M30483","name":"Estrogen Receptor Antagonists","relevance":"LOW"},{"id":"M9788","name":"Hormone Antagonists","relevance":"LOW"},{"id":"M25820","name":"Protein Kinase Inhibitors","relevance":"LOW"}],"browseBranches":[{"abbrev":"All","name":"All Drugs and Chemicals"},{"abbrev":"ANeo","name":"Antineoplastic Agents"}]}},"hasResults":false}