{"protocolSection":{"identificationModule":{"nctId":"NCT06120491","orgStudyIdInfo":{"id":"D9723C00001"},"secondaryIdInfos":[{"id":"2023-504214-30-00","type":"OTHER","domain":"EU CTIS"}],"organization":{"fullName":"AstraZeneca","class":"INDUSTRY"},"briefTitle":"Saruparib (AZD5305) vs Placebo in Men With Metastatic Castration-Sensitive Prostate Cancer Receiving Physician's Choice New Hormonal Agents","officialTitle":"A Randomized, 2-cohort, Double-blind, Placebo-controlled, Phase III Study of Saruparib (AZD5305) in Combination With Physician's Choice New Hormonal Agents in Patients With HRRm and Non-HRRm Metastatic Castration-Sensitive Prostate Cancer (EvoPAR-Prostate01)","acronym":"EvoPAR-PR01"},"statusModule":{"statusVerifiedDate":"2025-06","overallStatus":"RECRUITING","expandedAccessInfo":{"hasExpandedAccess":false},"startDateStruct":{"date":"2023-11-21","type":"ACTUAL"},"primaryCompletionDateStruct":{"date":"2028-01-11","type":"ESTIMATED"},"completionDateStruct":{"date":"2031-04-30","type":"ESTIMATED"},"studyFirstSubmitDate":"2023-10-17","studyFirstSubmitQcDate":"2023-11-06","studyFirstPostDateStruct":{"date":"2023-11-07","type":"ACTUAL"},"lastUpdateSubmitDate":"2025-06-25","lastUpdatePostDateStruct":{"date":"2025-06-26","type":"ACTUAL"}},"sponsorCollaboratorsModule":{"responsibleParty":{"type":"SPONSOR"},"leadSponsor":{"name":"AstraZeneca","class":"INDUSTRY"}},"oversightModule":{"oversightHasDmc":true,"isFdaRegulatedDrug":true,"isFdaRegulatedDevice":false},"descriptionModule":{"briefSummary":"The intention of the study is to demonstrate superiority of Saruparib (AZD5305) + physician's choice NHA relative to placebo + physician's choice NHA by assessment of radiographic progression-free survival (rPFS) in participants with mCSPC.","detailedDescription":"Approximately 1800 adult participants with mCSPC will be assigned to one of two cohorts (550 HRRm and 1250 non-HRRm) and randomized in a 1:1 ratio to receive either Saruparib (AZD5305) with NHA or placebo with NHA. They will receive their assigned treatment and regular tumor evaluation scans until disease progression, or until treatment is stopped for another reason.\n\nAll patients will be followed for survival until the end of the study. Independent data monitoring committee (DMC) composed of independent experts will be convened to confirm the safety and tolerability of Saruparib (AZD5305) + physicians choice NHA."},"conditionsModule":{"conditions":["Metastatic Castration-Sensitive Prostate Cancer"],"keywords":["AZD5305; Saruparib; HRRm; non-HRRm; mCSPC; Prostate Cancer"]},"designModule":{"studyType":"INTERVENTIONAL","phases":["PHASE3"],"designInfo":{"allocation":"RANDOMIZED","interventionModel":"PARALLEL","interventionModelDescription":"within each cohort (HRRm and non-HRRm), participants are randomised in 1:1 ratio to one of two treatment arms","primaryPurpose":"TREATMENT","maskingInfo":{"masking":"QUADRUPLE","maskingDescription":"Double-blind","whoMasked":["PARTICIPANT","CARE_PROVIDER","INVESTIGATOR","OUTCOMES_ASSESSOR"]}},"enrollmentInfo":{"count":1800,"type":"ESTIMATED"}},"armsInterventionsModule":{"armGroups":[{"label":"Arm 1: Saruparib (AZD5305) + Physician's Choice NHA","type":"EXPERIMENTAL","description":"Saruparib (AZD5305) + physician's choice NHA (Abiraterone, Darolutamide, or Enzalutamide)","interventionNames":["Drug: Saruparib","Drug: Abiraterone Acetate","Drug: Darolutamide","Drug: Enzalutamide"]},{"label":"Arm 2: Placebo + Physician's Choice NHA","type":"PLACEBO_COMPARATOR","description":"Placebo + physician's choice NHA (Abiraterone, Darolutamide, or Enzalutamide)","interventionNames":["Drug: Placebo","Drug: Abiraterone Acetate","Drug: Darolutamide","Drug: Enzalutamide"]}],"interventions":[{"type":"DRUG","name":"Saruparib","description":"Oral","armGroupLabels":["Arm 1: Saruparib (AZD5305) + Physician's Choice NHA"],"otherNames":["AZD5305"]},{"type":"DRUG","name":"Placebo","description":"Oral","armGroupLabels":["Arm 2: Placebo + Physician's Choice NHA"]},{"type":"DRUG","name":"Abiraterone Acetate","description":"Oral","armGroupLabels":["Arm 1: Saruparib (AZD5305) + Physician's Choice NHA","Arm 2: Placebo + Physician's Choice NHA"],"otherNames":["Zytiga"]},{"type":"DRUG","name":"Darolutamide","description":"Oral","armGroupLabels":["Arm 1: Saruparib (AZD5305) + Physician's Choice NHA","Arm 2: Placebo + Physician's Choice NHA"],"otherNames":["Nubequa"]},{"type":"DRUG","name":"Enzalutamide","description":"Oral","armGroupLabels":["Arm 1: Saruparib (AZD5305) + Physician's Choice NHA","Arm 2: Placebo + Physician's Choice NHA"],"otherNames":["Xtandi"]}]},"outcomesModule":{"primaryOutcomes":[{"measure":"Radiographic Progression-Free Survival (rPFS)","description":"rPFS is defined as the time from randomisation to radiographic progression, as assessed by the investigator per RECIST 1.1 (soft tissue) and/or PCWG3 criteria (bone), or, death due to any cause.","timeFrame":"up to approximately 50 months"}],"secondaryOutcomes":[{"measure":"Overall Survival (OS)","description":"OS is defined as the time from randomisation until the date of death due to any cause.","timeFrame":"up to approximately 90 months"},{"measure":"Second Progression-Free Survival (PFS2)","description":"Time from randomisation to PFS2 is defined as the time from randomisation to the earliest of progression (defined as radiographic progression, clinical progression, or PSA progression) after initiation of first subsequent treatment following the initial investigator-assessed progression or death.","timeFrame":"up to approximately 50 months"},{"measure":"Time to First Subsequent Therapy or Death (TFST)","description":"TFST is defined as the time from randomisation to the start date of the first subsequent anticancer therapy after discontinuation of randomised treatment, or death due to any cause.","timeFrame":"up to approximately 50 months"},{"measure":"Symptomatic Skeletal Event-Free Survival (SSE-FS)","description":"SSE-FS is defined as the time from randomisation to the earliest of the following:\n\n* Use of radiation therapy to prevent or relieve skeletal symptoms.\n* Occurrence of new symptomatic pathological bone fractures (vertebral or non-vertebral).\n* Occurrence of spinal cord compression.\n* Orthopaedic surgical intervention for bone metastasis.\n* Death due to any cause.","timeFrame":"up to approximately 50 months"},{"measure":"Time to the First Castration-Resistant Event (TTCR)","description":"TTCR is defined as the time from randomisation to the first castration resistant event (radiographic disease progression per RECIST 1.1 \\[soft tissue\\] and/or PCWG3 criteria \\[bone\\], PSA progression per PCWG3, or SSE, PSA progression per PCWG3, or SSE), whichever occurs first, with castrate levels of testosterone (below 50 ng/dL).","timeFrame":"up to approximately 50 months"},{"measure":"Time to Pain Progression (TTPP)","description":"TTPP is defined as the time from randomisation to clinically meaningful pain progression based on a 2-point increase from baseline in the Brief Pain Inventory - Short Form (BPI-SF) Item 3 'worst pain in 24 hours' score and/or initiation of/increase in opioid analgesic use.","timeFrame":"up to approximately 50 months"},{"measure":"Time To Deterioration in Urinary Symptoms (TTDUS)","description":"TTDUS is defined as the time from randomisation to deterioration in European Organisation for Research and Treatment of Cancer (EORTC) Quality of Life Prostate Questionnaire (Urinary Symptoms) (QLQPR25 \\[US\\]) subscale scores.","timeFrame":"up to approximately 50 months"},{"measure":"Time to Deterioration in Fatigue (TTDF)","description":"TTDF is defined as the time from randomisation to deterioration in Patient-Reported Outcomes Measurement Information System (PROMIS) Fatigue Short Form 7A scores.","timeFrame":"up to approximately 50 months"},{"measure":"Time to Deterioration in Physical Function (TTDPF)","description":"TTDPF is defined as the time from randomisation to deterioration in PROMIS Physical Function Short Form 8C scores.","timeFrame":"up to approximately 50 months"},{"measure":"Health-related Quality of Life (HrQoL)","description":"Change from baseline in BPI-SF worst pain score, pain severity, and interference domain scores.","timeFrame":"up to approximately 50 months"},{"measure":"BRCA and other HRR gene mutation status.","timeFrame":"at screening"},{"measure":"Plasma concentrations of AZD5305","timeFrame":"up to approximately 10 months"},{"measure":"Samples will be used to develop complementary or companion diagnostics by analyzing their performance characteristics and calculate their consistency with clinical trial assays used for enrolment onto the study.","description":"Samples will be tested by a CDx to certify consistency with assays used in the study.","timeFrame":"up to approximately 50 months"},{"measure":"Assessment of PSA (prostate-specific antigen) in participants in mCSPC","description":"proportion of participants achieving a \\>= 50% or \\>=90% decrease in PSA from baseline; proportion of participants with undetectable PSA (\\< 0.2 ng/mL); time to PSA progression","timeFrame":"up to approximately 50 months"}],"otherOutcomes":[{"measure":"Number of TEAEs (treatment emergent adverse events), SAEs (serious adverse events), and AEs (adverse events) leading to dose modifications","timeFrame":"up to approximately 50 months"}]},"eligibilityModule":{"eligibilityCriteria":"Inclusion Criteria:\n\n* Male ≥ 18 years of age.\n* Histologically documented prostate adenocarcinoma which is de novo or recurrent and castration-sensitive. Participants with pathologic features of small cell, neuroendocrine, sarcomatoid, spindle cell, or signet cell histology are not eligible.\n* Metastatic disease as documented by the investigator prior to randomisation, with clear evidence of ≥ 1 bone lesion and/or ≥ 1 soft tissue lesion that is suitable for repeated assessment with CT and/or MRI.\n* Participant is receiving ADT with a GnRH analogue or has undergone bilateral orchiectomy starting ≥ 14 days and \\< 4 months prior to randomisation.\n* ECOG performance status of 0 or 1 with no deterioration over the 2 weeks prior to randomisation.\n* Provision of FFPE tumour tissue sample and blood sample (for ctDNA).\n* Confirmed HRRm status by central tumour tissue and/or ctDNA test is required to determine cohort eligibility.\n* Adequate organ and bone marrow function as described in study protocol.\n* Participants must not father children or donate sperm from signing ICF, during the study intervention and for 6 months after the last dose of study intervention.\n* Participants must use a condom from signing ICF, during study intervention, and for 6 months after the last dose of study drug, with all sexual partners.\n\nExclusion Criteria:\n\n* Participants with a history of MDS/AML or with features suggestive of MDS/AML (as determined by prior diagnostic investigation). In case there is no clinical MDS/AML suspicion, no specific screening for MDS/AML (by BM/bone biopsy) is required.\n* Participants with any known predisposition to bleeding.\n* Any history of persisting (\\> 2 weeks) severe cytopenia.\n* Refractory nausea and vomiting, chronic gastrointestinal diseases, inability to swallow the formulated product or previous significant bowel resection that would preclude adequate absorption of AZD5305 and/or the assigned NHA.\n* History of another primary malignancy, with exceptions.\n* Persistent toxicities (CTCAE Grade ≥ 2) caused by previous anticancer therapy.\n* Spinal cord compression or brain metastases unless asymptomatic, stable, and not requiring steroids for at least 4 weeks prior to start of study intervention.\n* Cardiac criteria, including history of arrhythmia and cardiovascular disease.\n* Any prior anticancer pharmacotherapy or surgery for metastatic prostate cancer, with exceptions.\n* Prior treatment within 14 days with blood product support or growth factor support.\n* Participants who are unevaluable for both bone and soft tissue progression.","healthyVolunteers":false,"sex":"MALE","genderBased":true,"genderDescription":"Male participants","minimumAge":"18 Years","maximumAge":"130 Years","stdAges":["ADULT","OLDER_ADULT"]},"contactsLocationsModule":{"centralContacts":[{"name":"AstraZeneca Clinical Study Information Center","role":"CONTACT","phone":"1-877-240-9479","email":"information.center@astrazeneca.com"}],"overallOfficials":[{"name":"Kim Nguyen Chi, MD","affiliation":"BC Cancer, Canada","role":"PRINCIPAL_INVESTIGATOR"},{"name":"Arun Azad, MD","affiliation":"Peter MacCallum Cancer Centre, Australia","role":"PRINCIPAL_INVESTIGATOR"}],"locations":[{"facility":"Research Site","status":"RECRUITING","city":"Chandler","state":"Arizona","zip":"85224","country":"United States","geoPoint":{"lat":33.30616,"lon":-111.84125}},{"facility":"Research Site","status":"RECRUITING","city":"Gilbert","state":"Arizona","zip":"85234","country":"United States","geoPoint":{"lat":33.35283,"lon":-111.78903}},{"facility":"Research Site","status":"RECRUITING","city":"Phoenix","state":"Arizona","zip":"85054","country":"United States","geoPoint":{"lat":33.44838,"lon":-112.07404}},{"facility":"Research Site","status":"RECRUITING","city":"Tucson","state":"Arizona","zip":"85741","country":"United States","geoPoint":{"lat":32.22174,"lon":-110.92648}},{"facility":"Research Site","status":"RECRUITING","city":"Little Rock","state":"Arkansas","zip":"72205","country":"United States","geoPoint":{"lat":34.74648,"lon":-92.28959}},{"facility":"Research Site","status":"RECRUITING","city":"Springdale","state":"Arkansas","zip":"72762","country":"United States","geoPoint":{"lat":36.18674,"lon":-94.12881}},{"facility":"Research Site","status":"RECRUITING","city":"Bakersfield","state":"California","zip":"93301","country":"United States","geoPoint":{"lat":35.37329,"lon":-119.01871}},{"facility":"Research Site","status":"RECRUITING","city":"Fountain Valley","state":"California","zip":"92708","country":"United States","geoPoint":{"lat":33.70918,"lon":-117.95367}},{"facility":"Research Site","status":"RECRUITING","city":"Fullerton","state":"California","zip":"92835","country":"United States","geoPoint":{"lat":33.87029,"lon":-117.92534}},{"facility":"Research Site","status":"RECRUITING","city":"Los Angeles","state":"California","zip":"90073","country":"United States","geoPoint":{"lat":34.05223,"lon":-118.24368}},{"facility":"Research Site","status":"WITHDRAWN","city":"Los Angeles","state":"California","zip":"90095","country":"United States","geoPoint":{"lat":34.05223,"lon":-118.24368}},{"facility":"Research Site","status":"RECRUITING","city":"Montebello","state":"California","zip":"90640","country":"United States","geoPoint":{"lat":34.00946,"lon":-118.10535}},{"facility":"Research Site","status":"WITHDRAWN","city":"Pasadena","state":"California","zip":"91101","country":"United States","geoPoint":{"lat":34.14778,"lon":-118.14452}},{"facility":"Research Site","status":"WITHDRAWN","city":"Pomona","state":"California","zip":"91767","country":"United States","geoPoint":{"lat":34.05529,"lon":-117.75228}},{"facility":"Research Site","status":"WITHDRAWN","city":"Sacramento","state":"California","zip":"95816","country":"United States","geoPoint":{"lat":38.58157,"lon":-121.4944}},{"facility":"Research Site","status":"WITHDRAWN","city":"San Diego","state":"California","zip":"92123","country":"United States","geoPoint":{"lat":32.71533,"lon":-117.15726}},{"facility":"Research Site","status":"RECRUITING","city":"San Francisco","state":"California","zip":"94115","country":"United States","geoPoint":{"lat":37.77493,"lon":-122.41942}},{"facility":"Research Site","status":"RECRUITING","city":"Santa Barbara","state":"California","zip":"93105","country":"United States","geoPoint":{"lat":34.42083,"lon":-119.69819}},{"facility":"Research Site","status":"RECRUITING","city":"Santa Monica","state":"California","zip":"90404","country":"United States","geoPoint":{"lat":34.01945,"lon":-118.49119}},{"facility":"Research Site","status":"RECRUITING","city":"Santa Rosa","state":"California","zip":"95403","country":"United States","geoPoint":{"lat":38.44047,"lon":-122.71443}},{"facility":"Research Site","status":"RECRUITING","city":"Golden","state":"Colorado","zip":"80401","country":"United States","geoPoint":{"lat":39.75554,"lon":-105.2211}},{"facility":"Research Site","status":"RECRUITING","city":"Lakewood","state":"Colorado","zip":"80228","country":"United States","geoPoint":{"lat":39.70471,"lon":-105.08137}},{"facility":"Research Site","status":"RECRUITING","city":"New Haven","state":"Connecticut","zip":"06510","country":"United States","geoPoint":{"lat":41.30815,"lon":-72.92816}},{"facility":"Research Site","status":"WITHDRAWN","city":"Norwich","state":"Connecticut","zip":"06360","country":"United States","geoPoint":{"lat":41.52426,"lon":-72.07591}},{"facility":"Research Site","status":"WITHDRAWN","city":"Newark","state":"Delaware","zip":"19713","country":"United States","geoPoint":{"lat":39.68372,"lon":-75.74966}},{"facility":"Research Site","status":"WITHDRAWN","city":"Jacksonville","state":"Florida","zip":"32209","country":"United States","geoPoint":{"lat":30.33218,"lon":-81.65565}},{"facility":"Research Site","status":"WITHDRAWN","city":"Jacksonville","state":"Florida","zip":"32224","country":"United States","geoPoint":{"lat":30.33218,"lon":-81.65565}},{"facility":"Research Site","status":"WITHDRAWN","city":"Palm Bay","state":"Florida","zip":"32909","country":"United States","geoPoint":{"lat":28.03446,"lon":-80.58866}},{"facility":"Research Site","status":"WITHDRAWN","city":"Saint Petersburg","state":"Florida","zip":"33705","country":"United States","geoPoint":{"lat":27.77086,"lon":-82.67927}},{"facility":"Research Site","status":"WITHDRAWN","city":"Tampa","state":"Florida","zip":"33612","country":"United States","geoPoint":{"lat":27.94752,"lon":-82.45843}},{"facility":"Research Site","status":"RECRUITING","city":"Atlanta","state":"Georgia","zip":"30318","country":"United States","geoPoint":{"lat":33.749,"lon":-84.38798}},{"facility":"Research Site","status":"RECRUITING","city":"Glenview","state":"Illinois","zip":"60026","country":"United States","geoPoint":{"lat":42.06975,"lon":-87.78784}},{"facility":"Research Site","status":"RECRUITING","city":"Lake Barrington","state":"Illinois","zip":"60010","country":"United States","geoPoint":{"lat":42.21252,"lon":-88.15258}},{"facility":"Research Site","status":"RECRUITING","city":"Fort Wayne","state":"Indiana","zip":"46804","country":"United States","geoPoint":{"lat":41.1306,"lon":-85.12886}},{"facility":"Research Site","status":"RECRUITING","city":"Indianapolis","state":"Indiana","zip":"46202","country":"United States","geoPoint":{"lat":39.76838,"lon":-86.15804}},{"facility":"Research Site","status":"WITHDRAWN","city":"Des Moines","state":"Iowa","zip":"50309","country":"United States","geoPoint":{"lat":41.60054,"lon":-93.60911}},{"facility":"Research Site","status":"RECRUITING","city":"Westwood","state":"Kansas","zip":"66205","country":"United States","geoPoint":{"lat":39.04056,"lon":-94.6169}},{"facility":"Research Site","status":"WITHDRAWN","city":"Wichita","state":"Kansas","zip":"67226","country":"United States","geoPoint":{"lat":37.69224,"lon":-97.33754}},{"facility":"Research Site","status":"WITHDRAWN","city":"Lexington","state":"Kentucky","zip":"40503","country":"United States","geoPoint":{"lat":37.98869,"lon":-84.47772}},{"facility":"Research Site","status":"WITHDRAWN","city":"Louisville","state":"Kentucky","zip":"40202","country":"United States","geoPoint":{"lat":38.25424,"lon":-85.75941}},{"facility":"Research Site","status":"RECRUITING","city":"Shreveport","state":"Louisiana","zip":"71103","country":"United States","geoPoint":{"lat":32.52515,"lon":-93.75018}},{"facility":"Research Site","status":"RECRUITING","city":"Scarborough","state":"Maine","zip":"04074","country":"United States","geoPoint":{"lat":43.57814,"lon":-70.32172}},{"facility":"Research Site","status":"RECRUITING","city":"Baltimore","state":"Maryland","zip":"21201","country":"United States","geoPoint":{"lat":39.29038,"lon":-76.61219}},{"facility":"Research Site","status":"RECRUITING","city":"Baltimore","state":"Maryland","zip":"21287","country":"United States","geoPoint":{"lat":39.29038,"lon":-76.61219}},{"facility":"Research Site","status":"RECRUITING","city":"Bethesda","state":"Maryland","zip":"20817","country":"United States","geoPoint":{"lat":38.98067,"lon":-77.10026}},{"facility":"Research Site","status":"RECRUITING","city":"Towson","state":"Maryland","zip":"21204","country":"United States","geoPoint":{"lat":39.4015,"lon":-76.60191}},{"facility":"Research Site","status":"RECRUITING","city":"Upper Marlboro","state":"Maryland","zip":"20774","country":"United States","geoPoint":{"lat":38.81595,"lon":-76.74969}},{"facility":"Research Site","status":"RECRUITING","city":"Grand Rapids","state":"Michigan","zip":"49503","country":"United States","geoPoint":{"lat":42.96336,"lon":-85.66809}},{"facility":"Research Site","status":"RECRUITING","city":"Troy","state":"Michigan","zip":"48084","country":"United States","geoPoint":{"lat":42.60559,"lon":-83.14993}},{"facility":"Research Site","status":"RECRUITING","city":"Rochester","state":"Minnesota","zip":"55905","country":"United States","geoPoint":{"lat":44.02163,"lon":-92.4699}},{"facility":"Research Site","status":"WITHDRAWN","city":"Columbia","state":"Missouri","zip":"65212","country":"United States","geoPoint":{"lat":38.95171,"lon":-92.33407}},{"facility":"Research Site","status":"WITHDRAWN","city":"Billings","state":"Montana","zip":"59102","country":"United States","geoPoint":{"lat":45.78329,"lon":-108.50069}},{"facility":"Research Site","status":"RECRUITING","city":"Bozeman","state":"Montana","zip":"59715","country":"United States","geoPoint":{"lat":45.67965,"lon":-111.03856}},{"facility":"Research Site","status":"RECRUITING","city":"Las Vegas","state":"Nevada","zip":"89102","country":"United States","geoPoint":{"lat":36.17497,"lon":-115.13722}},{"facility":"Research Site","status":"RECRUITING","city":"Las Vegas","state":"Nevada","zip":"89148","country":"United States","geoPoint":{"lat":36.17497,"lon":-115.13722}},{"facility":"Research Site","status":"WITHDRAWN","city":"Belleville","state":"New Jersey","zip":"07109","country":"United States","geoPoint":{"lat":40.79371,"lon":-74.15014}},{"facility":"Research Site","status":"WITHDRAWN","city":"Brick","state":"New Jersey","zip":"08724","country":"United States","geoPoint":{"lat":40.05928,"lon":-74.13708}},{"facility":"Research Site","status":"RECRUITING","city":"Camden","state":"New Jersey","zip":"08103","country":"United States","geoPoint":{"lat":39.92595,"lon":-75.11962}},{"facility":"Research Site","status":"WITHDRAWN","city":"East Brunswick","state":"New Jersey","zip":"08816","country":"United States","geoPoint":{"lat":40.42788,"lon":-74.41598}},{"facility":"Research Site","status":"WITHDRAWN","city":"Voorhees","state":"New Jersey","zip":"08043","country":"United States","geoPoint":{"lat":40.48122,"lon":-74.48321}},{"facility":"Research Site","status":"RECRUITING","city":"Albuquerque","state":"New Mexico","zip":"87109","country":"United States","geoPoint":{"lat":35.08449,"lon":-106.65114}},{"facility":"Research Site","status":"WITHDRAWN","city":"Albuquerque","state":"New Mexico","zip":"87110","country":"United States","geoPoint":{"lat":35.08449,"lon":-106.65114}},{"facility":"Research Site","status":"WITHDRAWN","city":"Rio Rancho","state":"New Mexico","zip":"87124","country":"United States","geoPoint":{"lat":35.24721,"lon":-106.68609}},{"facility":"Research Site","status":"WITHDRAWN","city":"Albany","state":"New York","zip":"12206","country":"United States","geoPoint":{"lat":42.65258,"lon":-73.75623}},{"facility":"Research Site","status":"WITHDRAWN","city":"Bronx","state":"New York","zip":"10469","country":"United States","geoPoint":{"lat":40.84985,"lon":-73.86641}},{"facility":"Research Site","status":"RECRUITING","city":"East Syracuse","state":"New York","zip":"13057","country":"United States","geoPoint":{"lat":43.06534,"lon":-76.07853}},{"facility":"Research Site","status":"RECRUITING","city":"New Hyde Park","state":"New York","zip":"11042","country":"United States","geoPoint":{"lat":40.7351,"lon":-73.68791}},{"facility":"Research Site","status":"WITHDRAWN","city":"New York","state":"New York","zip":"10028","country":"United States","geoPoint":{"lat":40.71427,"lon":-74.00597}},{"facility":"Research Site","status":"RECRUITING","city":"New York","state":"New York","zip":"10029","country":"United States","geoPoint":{"lat":40.71427,"lon":-74.00597}},{"facility":"Research Site","status":"WITHDRAWN","city":"Shirley","state":"New York","zip":"11967","country":"United States","geoPoint":{"lat":40.80149,"lon":-72.8676}},{"facility":"Research Site","status":"RECRUITING","city":"Syracuse","state":"New York","zip":"13210","country":"United States","geoPoint":{"lat":43.04812,"lon":-76.14742}},{"facility":"Research Site","status":"RECRUITING","city":"Durham","state":"North Carolina","zip":"27710","country":"United States","geoPoint":{"lat":35.99403,"lon":-78.89862}},{"facility":"Research Site","status":"WITHDRAWN","city":"Fayetteville","state":"North Carolina","zip":"28303","country":"United States","geoPoint":{"lat":35.05266,"lon":-78.87836}},{"facility":"Research Site","status":"RECRUITING","city":"Cincinnati","state":"Ohio","zip":"45212","country":"United States","geoPoint":{"lat":39.12713,"lon":-84.51435}},{"facility":"Research Site","status":"RECRUITING","city":"Cincinnati","state":"Ohio","zip":"45219","country":"United States","geoPoint":{"lat":39.12713,"lon":-84.51435}},{"facility":"Research Site","status":"WITHDRAWN","city":"Cleveland","state":"Ohio","zip":"44109","country":"United States","geoPoint":{"lat":41.4995,"lon":-81.69541}},{"facility":"Research Site","status":"RECRUITING","city":"Cleveland","state":"Ohio","zip":"44111","country":"United States","geoPoint":{"lat":41.4995,"lon":-81.69541}},{"facility":"Research Site","status":"RECRUITING","city":"Cleveland","state":"Ohio","zip":"44124","country":"United States","geoPoint":{"lat":41.4995,"lon":-81.69541}},{"facility":"Research Site","status":"WITHDRAWN","city":"Cleveland","state":"Ohio","zip":"44130","country":"United States","geoPoint":{"lat":41.4995,"lon":-81.69541}},{"facility":"Research Site","status":"RECRUITING","city":"Columbus","state":"Ohio","zip":"43210","country":"United States","geoPoint":{"lat":39.96118,"lon":-82.99879}},{"facility":"Research Site","status":"WITHDRAWN","city":"Independence","state":"Ohio","zip":"44131","country":"United States","geoPoint":{"lat":41.36866,"lon":-81.6379}},{"facility":"Research Site","status":"WITHDRAWN","city":"Wooster","state":"Ohio","zip":"44691","country":"United States","geoPoint":{"lat":40.80517,"lon":-81.93646}},{"facility":"Research Site","status":"WITHDRAWN","city":"Florence","state":"Oregon","zip":"97439","country":"United States","geoPoint":{"lat":43.98262,"lon":-124.09984}},{"facility":"Research Site","status":"RECRUITING","city":"Portland","state":"Oregon","zip":"97227","country":"United States","geoPoint":{"lat":45.52345,"lon":-122.67621}},{"facility":"Research Site","status":"WITHDRAWN","city":"Portland","state":"Oregon","zip":"97239","country":"United States","geoPoint":{"lat":45.52345,"lon":-122.67621}},{"facility":"Research Site","status":"RECRUITING","city":"Bala-Cynwyd","state":"Pennsylvania","zip":"19004-1017","country":"United States","geoPoint":{"lat":40.00761,"lon":-75.23407}},{"facility":"Research Site","status":"RECRUITING","city":"Philadelphia","state":"Pennsylvania","zip":"19104","country":"United States","geoPoint":{"lat":39.95233,"lon":-75.16379}},{"facility":"Research Site","status":"RECRUITING","city":"Pittsburgh","state":"Pennsylvania","zip":"15212","country":"United States","geoPoint":{"lat":40.44062,"lon":-79.99589}},{"facility":"Research Site","status":"WITHDRAWN","city":"Pittsburgh","state":"Pennsylvania","zip":"15213","country":"United States","geoPoint":{"lat":40.44062,"lon":-79.99589}},{"facility":"Research Site","status":"WITHDRAWN","city":"York","state":"Pennsylvania","zip":"17403","country":"United States","geoPoint":{"lat":39.9626,"lon":-76.72774}},{"facility":"Research Site","status":"RECRUITING","city":"Providence","state":"Rhode Island","zip":"02903","country":"United States","geoPoint":{"lat":41.82399,"lon":-71.41283}},{"facility":"Research Site","status":"RECRUITING","city":"Myrtle Beach","state":"South Carolina","zip":"29572","country":"United States","geoPoint":{"lat":33.68906,"lon":-78.88669}},{"facility":"Research Site","status":"RECRUITING","city":"North Charleston","state":"South Carolina","zip":"29406","country":"United States","geoPoint":{"lat":32.85462,"lon":-79.97481}},{"facility":"Research Site","status":"RECRUITING","city":"Sioux Falls","state":"South Dakota","zip":"57105","country":"United States","geoPoint":{"lat":43.54997,"lon":-96.70033}},{"facility":"Research Site","status":"RECRUITING","city":"Germantown","state":"Tennessee","zip":"38138","country":"United States","geoPoint":{"lat":35.08676,"lon":-89.81009}},{"facility":"Research Site","status":"RECRUITING","city":"Nashville","state":"Tennessee","zip":"37203","country":"United States","geoPoint":{"lat":36.16589,"lon":-86.78444}},{"facility":"Research Site","status":"RECRUITING","city":"Dallas","state":"Texas","zip":"75231","country":"United States","geoPoint":{"lat":32.78306,"lon":-96.80667}},{"facility":"Research Site","status":"WITHDRAWN","city":"Dallas","state":"Texas","zip":"75246","country":"United States","geoPoint":{"lat":32.78306,"lon":-96.80667}},{"facility":"Research Site","status":"WITHDRAWN","city":"Denton","state":"Texas","zip":"76201","country":"United States","geoPoint":{"lat":33.21484,"lon":-97.13307}},{"facility":"Research Site","status":"WITHDRAWN","city":"Flower Mound","state":"Texas","zip":"75028","country":"United States","geoPoint":{"lat":33.01457,"lon":-97.09696}},{"facility":"Research Site","status":"WITHDRAWN","city":"Grapevine","state":"Texas","zip":"76051","country":"United States","geoPoint":{"lat":32.93429,"lon":-97.07807}},{"facility":"Research Site","status":"RECRUITING","city":"Houston","state":"Texas","zip":"77025","country":"United States","geoPoint":{"lat":29.76328,"lon":-95.36327}},{"facility":"Research Site","status":"WITHDRAWN","city":"Houston","state":"Texas","zip":"77027","country":"United States","geoPoint":{"lat":29.76328,"lon":-95.36327}},{"facility":"Research Site","status":"WITHDRAWN","city":"Houston","state":"Texas","zip":"77030","country":"United States","geoPoint":{"lat":29.76328,"lon":-95.36327}},{"facility":"Research Site","status":"WITHDRAWN","city":"Plano","state":"Texas","zip":"75093","country":"United States","geoPoint":{"lat":33.01984,"lon":-96.69889}},{"facility":"Research Site","status":"WITHDRAWN","city":"San Antonio","state":"Texas","zip":"78217","country":"United States","geoPoint":{"lat":29.42412,"lon":-98.49363}},{"facility":"Research Site","status":"RECRUITING","city":"San Antonio","state":"Texas","zip":"78229","country":"United States","geoPoint":{"lat":29.42412,"lon":-98.49363}},{"facility":"Research Site","status":"RECRUITING","city":"Sugar Land","state":"Texas","zip":"77479","country":"United States","geoPoint":{"lat":29.61968,"lon":-95.63495}},{"facility":"Research Site","status":"RECRUITING","city":"Tyler","state":"Texas","zip":"75702","country":"United States","geoPoint":{"lat":32.35126,"lon":-95.30106}},{"facility":"Research Site","status":"RECRUITING","city":"Wichita Falls","state":"Texas","zip":"76310","country":"United States","geoPoint":{"lat":33.91371,"lon":-98.49339}},{"facility":"Research Site","status":"RECRUITING","city":"Saint George","state":"Utah","zip":"84790","country":"United States","geoPoint":{"lat":37.10415,"lon":-113.58412}},{"facility":"Research Site","status":"RECRUITING","city":"Salt Lake City","state":"Utah","zip":"84106","country":"United States","geoPoint":{"lat":40.76078,"lon":-111.89105}},{"facility":"Research Site","status":"RECRUITING","city":"Salt Lake City","state":"Utah","zip":"84132","country":"United States","geoPoint":{"lat":40.76078,"lon":-111.89105}},{"facility":"Research Site","status":"RECRUITING","city":"Fairfax","state":"Virginia","zip":"22031","country":"United States","geoPoint":{"lat":38.84622,"lon":-77.30637}},{"facility":"Research Site","status":"WITHDRAWN","city":"Winchester","state":"Virginia","zip":"22601","country":"United States","geoPoint":{"lat":39.18566,"lon":-78.16333}},{"facility":"Research Site","status":"WITHDRAWN","city":"Spokane Valley","state":"Washington","zip":"99216","country":"United States","geoPoint":{"lat":47.67323,"lon":-117.23937}},{"facility":"Research Site","status":"RECRUITING","city":"Spokane","state":"Washington","zip":"99202","country":"United States","geoPoint":{"lat":47.65966,"lon":-117.42908}},{"facility":"Research Site","status":"RECRUITING","city":"Tacoma","state":"Washington","zip":"98405","country":"United States","geoPoint":{"lat":47.25288,"lon":-122.44429}},{"facility":"Research Site","status":"RECRUITING","city":"Chermside","zip":"4032","country":"Australia","geoPoint":{"lat":-27.38472,"lon":153.03062}},{"facility":"Research Site","status":"TERMINATED","city":"Darlinghurst","zip":"2010","country":"Australia","geoPoint":{"lat":-33.87939,"lon":151.21925}},{"facility":"Research Site","status":"RECRUITING","city":"Hyde Park","zip":"4812","country":"Australia","geoPoint":{"lat":-19.27691,"lon":146.79653}},{"facility":"Research Site","status":"RECRUITING","city":"Kurralta Park","zip":"5037","country":"Australia","geoPoint":{"lat":-34.95142,"lon":138.56702}},{"facility":"Research Site","status":"RECRUITING","city":"Melbourne","zip":"3000","country":"Australia","geoPoint":{"lat":-37.814,"lon":144.96332}},{"facility":"Research Site","status":"WITHDRAWN","city":"Randwick","zip":"2031","country":"Australia","geoPoint":{"lat":-33.91439,"lon":151.24895}},{"facility":"Research Site","status":"RECRUITING","city":"South Brisbane","zip":"4101","country":"Australia","geoPoint":{"lat":-27.48034,"lon":153.02049}},{"facility":"Research Site","status":"RECRUITING","city":"Graz","zip":"8036","country":"Austria","geoPoint":{"lat":47.06667,"lon":15.45}},{"facility":"Research Site","status":"RECRUITING","city":"Innsbruck","zip":"6020","country":"Austria","geoPoint":{"lat":47.26266,"lon":11.39454}},{"facility":"Research Site","status":"RECRUITING","city":"Krems an der Donau","zip":"3500","country":"Austria","geoPoint":{"lat":48.40921,"lon":15.61415}},{"facility":"Research Site","status":"RECRUITING","city":"Linz","zip":"4020","country":"Austria","geoPoint":{"lat":48.30639,"lon":14.28611}},{"facility":"Research Site","status":"RECRUITING","city":"Wien","zip":"1020","country":"Austria","geoPoint":{"lat":48.20849,"lon":16.37208}},{"facility":"Research Site","status":"RECRUITING","city":"Wien","zip":"1090","country":"Austria","geoPoint":{"lat":48.20849,"lon":16.37208}},{"facility":"Research Site","status":"WITHDRAWN","city":"Charleroi","zip":"6060","country":"Belgium","geoPoint":{"lat":50.41136,"lon":4.44448}},{"facility":"Research Site","status":"RECRUITING","city":"Gent","zip":"9000","country":"Belgium","geoPoint":{"lat":51.05,"lon":3.71667}},{"facility":"Research Site","status":"RECRUITING","city":"Kortrijk","zip":"8500","country":"Belgium","geoPoint":{"lat":50.82803,"lon":3.26487}},{"facility":"Research Site","status":"RECRUITING","city":"Leuven","zip":"3000","country":"Belgium","geoPoint":{"lat":50.87959,"lon":4.70093}},{"facility":"Research Site","status":"RECRUITING","city":"Curitiba","zip":"80810-050","country":"Brazil","geoPoint":{"lat":-25.42778,"lon":-49.27306}},{"facility":"Research Site","status":"RECRUITING","city":"Pelotas","zip":"96020-080","country":"Brazil","geoPoint":{"lat":-31.77194,"lon":-52.3425}},{"facility":"Research Site","status":"RECRUITING","city":"Porto Alegre","zip":"90035-001","country":"Brazil","geoPoint":{"lat":-30.03306,"lon":-51.23}},{"facility":"Research Site","status":"WITHDRAWN","city":"Porto Alegre","zip":"91350-200","country":"Brazil","geoPoint":{"lat":-30.03306,"lon":-51.23}},{"facility":"Research Site","status":"RECRUITING","city":"Rio de Janeiro","zip":"22775-001","country":"Brazil","geoPoint":{"lat":-22.90278,"lon":-43.2075}},{"facility":"Research Site","status":"RECRUITING","city":"Salvador","zip":"41950-640","country":"Brazil","geoPoint":{"lat":-12.97111,"lon":-38.51083}},{"facility":"Research Site","status":"WITHDRAWN","city":"Sao Luis","zip":"65060-645","country":"Brazil","geoPoint":{"lat":-2.52972,"lon":-44.30278}},{"facility":"Research Site","status":"RECRUITING","city":"Sao Paulo","zip":"01246-000","country":"Brazil","geoPoint":{"lat":-23.5475,"lon":-46.63611}},{"facility":"Research Site","status":"RECRUITING","city":"Sao Paulo","zip":"01323-903","country":"Brazil","geoPoint":{"lat":-23.5475,"lon":-46.63611}},{"facility":"Research Site","status":"RECRUITING","city":"São Paulo","zip":"05652000","country":"Brazil","geoPoint":{"lat":-23.5475,"lon":-46.63611}},{"facility":"Research Site","status":"RECRUITING","city":"Calgary","state":"Alberta","zip":"T2N 5G2","country":"Canada","geoPoint":{"lat":51.05011,"lon":-114.08529}},{"facility":"Research Site","status":"RECRUITING","city":"Calgary","state":"Alberta","zip":"T2V 1P9","country":"Canada","geoPoint":{"lat":51.05011,"lon":-114.08529}},{"facility":"Research Site","status":"WITHDRAWN","city":"Edmonton","state":"Alberta","zip":"T6G 1Z2","country":"Canada","geoPoint":{"lat":53.55014,"lon":-113.46871}},{"facility":"Research Site","status":"RECRUITING","city":"Abbotsford","state":"British Columbia","zip":"V2T 1X8","country":"Canada","geoPoint":{"lat":49.05798,"lon":-122.25257}},{"facility":"Research Site","status":"RECRUITING","city":"Kelowna","state":"British Columbia","zip":"V1Y 5L3","country":"Canada","geoPoint":{"lat":49.88307,"lon":-119.48568}},{"facility":"Research Site","status":"RECRUITING","city":"Vancouver","state":"British Columbia","zip":"V5Z 1H7","country":"Canada","geoPoint":{"lat":49.24966,"lon":-123.11934}},{"facility":"Research Site","status":"WITHDRAWN","city":"Winnipeg","state":"Manitoba","zip":"R3E 0V9","country":"Canada","geoPoint":{"lat":49.8844,"lon":-97.14704}},{"facility":"Research Site","status":"WITHDRAWN","city":"Halifax","state":"Nova Scotia","zip":"B3H 2Y9","country":"Canada","geoPoint":{"lat":44.64533,"lon":-63.57239}},{"facility":"Research Site","status":"RECRUITING","city":"Kingston","state":"Ontario","zip":"K7L 5P9","country":"Canada","geoPoint":{"lat":44.22976,"lon":-76.48101}},{"facility":"Research Site","status":"WITHDRAWN","city":"London","state":"Ontario","zip":"N6A 5W9","country":"Canada","geoPoint":{"lat":42.98339,"lon":-81.23304}},{"facility":"Research Site","status":"RECRUITING","city":"Mississauga","state":"Ontario","zip":"L5M 2N1","country":"Canada","geoPoint":{"lat":43.5789,"lon":-79.6583}},{"facility":"Research Site","status":"RECRUITING","city":"Newmarket","state":"Ontario","zip":"L3Y 2P9","country":"Canada","geoPoint":{"lat":44.05011,"lon":-79.46631}},{"facility":"Research Site","status":"RECRUITING","city":"Ottawa","state":"Ontario","zip":"K1H 8L6","country":"Canada","geoPoint":{"lat":45.41117,"lon":-75.69812}},{"facility":"Research Site","status":"RECRUITING","city":"Toronto","state":"Ontario","zip":"M4N 3M5","country":"Canada","geoPoint":{"lat":43.70011,"lon":-79.4163}},{"facility":"Research Site","status":"RECRUITING","city":"Toronto","state":"Ontario","zip":"M5G 2M9","country":"Canada","geoPoint":{"lat":43.70011,"lon":-79.4163}},{"facility":"Research Site","status":"RECRUITING","city":"Chicoutimi","state":"Quebec","zip":"G7H 5H6","country":"Canada","geoPoint":{"lat":48.41963,"lon":-71.06369}},{"facility":"Research Site","status":"RECRUITING","city":"Greenfield Park","state":"Quebec","zip":"J4V 2H1","country":"Canada","geoPoint":{"lat":45.48649,"lon":-73.46223}},{"facility":"Research Site","status":"RECRUITING","city":"Montreal","state":"Quebec","zip":"H2X 3E4","country":"Canada","geoPoint":{"lat":45.50884,"lon":-73.58781}},{"facility":"Research Site","status":"RECRUITING","city":"Montreal","state":"Quebec","zip":"H3T 1E2","country":"Canada","geoPoint":{"lat":45.50884,"lon":-73.58781}},{"facility":"Research Site","status":"RECRUITING","city":"Montreal","state":"Quebec","zip":"H4A 3J1","country":"Canada","geoPoint":{"lat":45.50884,"lon":-73.58781}},{"facility":"Research Site","status":"RECRUITING","city":"Saskatoon","state":"Saskatchewan","zip":"S7N 4H4","country":"Canada","geoPoint":{"lat":52.13238,"lon":-106.66892}},{"facility":"Research Site","status":"RECRUITING","city":"Quebec","zip":"G1J 1Z4","country":"Canada","geoPoint":{"lat":46.81228,"lon":-71.21454}},{"facility":"Research Site","status":"RECRUITING","city":"Concepcion","zip":"4070196","country":"Chile","geoPoint":{"lat":-36.82699,"lon":-73.04977}},{"facility":"Research Site","status":"RECRUITING","city":"La Serena","zip":"1720430","country":"Chile","geoPoint":{"lat":-29.90453,"lon":-71.24894}},{"facility":"Research Site","status":"RECRUITING","city":"Santiago","zip":"7500787","country":"Chile","geoPoint":{"lat":-33.45694,"lon":-70.64827}},{"facility":"Research Site","status":"WITHDRAWN","city":"Santiago","zip":"7500921","country":"Chile","geoPoint":{"lat":-33.45694,"lon":-70.64827}},{"facility":"Research Site","status":"RECRUITING","city":"Santiago","zip":"7520349","country":"Chile","geoPoint":{"lat":-33.45694,"lon":-70.64827}},{"facility":"Research Site","status":"RECRUITING","city":"Santiago","zip":"8241479","country":"Chile","geoPoint":{"lat":-33.45694,"lon":-70.64827}},{"facility":"Research Site","status":"RECRUITING","city":"Santiago","zip":"8330032","country":"Chile","geoPoint":{"lat":-33.45694,"lon":-70.64827}},{"facility":"Research Site","status":"RECRUITING","city":"Temuco","zip":"4781156","country":"Chile","geoPoint":{"lat":-38.73965,"lon":-72.59842}},{"facility":"Research Site","status":"RECRUITING","city":"Viña del Mar","zip":"2540488","country":"Chile","geoPoint":{"lat":-33.02457,"lon":-71.55183}},{"facility":"Research Site","status":"ACTIVE_NOT_RECRUITING","city":"Beijing","zip":"100021","country":"China","geoPoint":{"lat":39.9075,"lon":116.39723}},{"facility":"Research Site","status":"ACTIVE_NOT_RECRUITING","city":"Beijing","zip":"100034","country":"China","geoPoint":{"lat":39.9075,"lon":116.39723}},{"facility":"Research Site","status":"RECRUITING","city":"Beijing","zip":"100050","country":"China","geoPoint":{"lat":39.9075,"lon":116.39723}},{"facility":"Research Site","status":"ACTIVE_NOT_RECRUITING","city":"Beijing","zip":"100142","country":"China","geoPoint":{"lat":39.9075,"lon":116.39723}},{"facility":"Research Site","status":"ACTIVE_NOT_RECRUITING","city":"Beijing","zip":"CN-100730","country":"China","geoPoint":{"lat":39.9075,"lon":116.39723}},{"facility":"Research Site","status":"ACTIVE_NOT_RECRUITING","city":"Changchun","zip":"130021","country":"China","geoPoint":{"lat":43.88,"lon":125.32278}},{"facility":"Research Site","status":"ACTIVE_NOT_RECRUITING","city":"Changsha","zip":"410013","country":"China","geoPoint":{"lat":28.19874,"lon":112.97087}},{"facility":"Research Site","status":"ACTIVE_NOT_RECRUITING","city":"Chengdu","zip":"610041","country":"China","geoPoint":{"lat":30.66667,"lon":104.06667}},{"facility":"Research Site","status":"ACTIVE_NOT_RECRUITING","city":"Chongqing","zip":"400030","country":"China","geoPoint":{"lat":29.56278,"lon":106.55278}},{"facility":"Research Site","status":"ACTIVE_NOT_RECRUITING","city":"Chongqing","zip":"400038","country":"China","geoPoint":{"lat":29.56278,"lon":106.55278}},{"facility":"Research Site","status":"ACTIVE_NOT_RECRUITING","city":"Dongguan","zip":"523009","country":"China","geoPoint":{"lat":23.01797,"lon":113.74866}},{"facility":"Research Site","status":"ACTIVE_NOT_RECRUITING","city":"Guangzhou","zip":"510180","country":"China","geoPoint":{"lat":23.11667,"lon":113.25}},{"facility":"Research Site","status":"WITHDRAWN","city":"Guangzhou","zip":"510515","country":"China","geoPoint":{"lat":23.11667,"lon":113.25}},{"facility":"Research Site","status":"ACTIVE_NOT_RECRUITING","city":"Guilin","zip":"541000","country":"China","geoPoint":{"lat":25.28194,"lon":110.28639}},{"facility":"Research Site","status":"ACTIVE_NOT_RECRUITING","city":"Hangzhou","zip":"310009","country":"China","geoPoint":{"lat":30.29365,"lon":120.16142}},{"facility":"Research Site","status":"ACTIVE_NOT_RECRUITING","city":"Hangzhou","zip":"310022","country":"China","geoPoint":{"lat":30.29365,"lon":120.16142}},{"facility":"Research Site","status":"RECRUITING","city":"Harbin","zip":"150081","country":"China","geoPoint":{"lat":45.75,"lon":126.65}},{"facility":"Research Site","status":"ACTIVE_NOT_RECRUITING","city":"Jiaxing","zip":"314001","country":"China","geoPoint":{"lat":30.7522,"lon":120.75}},{"facility":"Research Site","status":"ACTIVE_NOT_RECRUITING","city":"Jinan","zip":"250021","country":"China","geoPoint":{"lat":36.66833,"lon":116.99722}},{"facility":"Research Site","status":"ACTIVE_NOT_RECRUITING","city":"Lanzhou","zip":"730030","country":"China","geoPoint":{"lat":36.05701,"lon":103.83987}},{"facility":"Research Site","status":"ACTIVE_NOT_RECRUITING","city":"Nanchang","zip":"330000","country":"China","geoPoint":{"lat":28.68396,"lon":115.85306}},{"facility":"Research Site","status":"ACTIVE_NOT_RECRUITING","city":"Nanchang","zip":"330029","country":"China","geoPoint":{"lat":28.68396,"lon":115.85306}},{"facility":"Research Site","status":"ACTIVE_NOT_RECRUITING","city":"Nanjing","zip":"2100008","country":"China","geoPoint":{"lat":32.06167,"lon":118.77778}},{"facility":"Research Site","status":"ACTIVE_NOT_RECRUITING","city":"Nantong","zip":"226361","country":"China","geoPoint":{"lat":32.03028,"lon":120.87472}},{"facility":"Research Site","status":"ACTIVE_NOT_RECRUITING","city":"Ningbo","zip":"315010","country":"China","geoPoint":{"lat":29.87819,"lon":121.54945}},{"facility":"Research Site","status":"ACTIVE_NOT_RECRUITING","city":"Shandong","country":"China"},{"facility":"Research Site","status":"ACTIVE_NOT_RECRUITING","city":"Shanghai","zip":"200002","country":"China","geoPoint":{"lat":31.22222,"lon":121.45806}},{"facility":"Research Site","status":"ACTIVE_NOT_RECRUITING","city":"Shanghai","zip":"200080","country":"China","geoPoint":{"lat":31.22222,"lon":121.45806}},{"facility":"Research Site","status":"WITHDRAWN","city":"Shenyang","zip":"110001","country":"China","geoPoint":{"lat":41.79222,"lon":123.43278}},{"facility":"Research Site","status":"ACTIVE_NOT_RECRUITING","city":"Shenyang","zip":"110001","country":"China","geoPoint":{"lat":41.79222,"lon":123.43278}},{"facility":"Research Site","status":"RECRUITING","city":"Shenyang","zip":"110004","country":"China","geoPoint":{"lat":41.79222,"lon":123.43278}},{"facility":"Research Site","status":"ACTIVE_NOT_RECRUITING","city":"Suining","zip":"629000","country":"China","geoPoint":{"lat":30.50802,"lon":105.57332}},{"facility":"Research Site","status":"ACTIVE_NOT_RECRUITING","city":"Taiyuan","zip":"030000","country":"China","geoPoint":{"lat":37.86944,"lon":112.56028}},{"facility":"Research Site","status":"ACTIVE_NOT_RECRUITING","city":"Tianjin","zip":"300211","country":"China","geoPoint":{"lat":39.14222,"lon":117.17667}},{"facility":"Research Site","status":"WITHDRAWN","city":"Weifang","zip":"261000","country":"China","geoPoint":{"lat":36.71,"lon":119.10194}},{"facility":"Research Site","status":"ACTIVE_NOT_RECRUITING","city":"Wenzhou","zip":"325000","country":"China","geoPoint":{"lat":27.99942,"lon":120.66682}},{"facility":"Research Site","status":"COMPLETED","city":"Wuhan","zip":"430079","country":"China","geoPoint":{"lat":30.58333,"lon":114.26667}},{"facility":"Research Site","status":"ACTIVE_NOT_RECRUITING","city":"Xi'an","zip":"710061","country":"China","geoPoint":{"lat":34.25833,"lon":108.92861}},{"facility":"Research Site","status":"ACTIVE_NOT_RECRUITING","city":"Yantai","zip":"264000","country":"China","geoPoint":{"lat":37.47649,"lon":121.44081}},{"facility":"Research Site","status":"ACTIVE_NOT_RECRUITING","city":"Zhengzhou","zip":"450008","country":"China","geoPoint":{"lat":34.75778,"lon":113.64861}},{"facility":"Research Site","status":"WITHDRAWN","city":"Helsinki","zip":"00290","country":"Finland","geoPoint":{"lat":60.16952,"lon":24.93545}},{"facility":"Research Site","status":"WITHDRAWN","city":"Tampere","zip":"33521","country":"Finland","geoPoint":{"lat":61.49911,"lon":23.78712}},{"facility":"Research Site","status":"WITHDRAWN","city":"Turku","zip":"20520","country":"Finland","geoPoint":{"lat":60.45148,"lon":22.26869}},{"facility":"Research Site","status":"RECRUITING","city":"Angers","zip":"49055","country":"France","geoPoint":{"lat":47.46667,"lon":-0.55}},{"facility":"Research Site","status":"RECRUITING","city":"Bayonne","zip":"64109","country":"France","geoPoint":{"lat":43.48333,"lon":-1.48333}},{"facility":"Research Site","status":"RECRUITING","city":"Bordeaux Cedex","zip":"33000","country":"France","geoPoint":{"lat":44.84044,"lon":-0.5805}},{"facility":"Research Site","status":"RECRUITING","city":"Caen Cedex 5","zip":"41076","country":"France","geoPoint":{"lat":49.18585,"lon":-0.35912}},{"facility":"Research Site","status":"RECRUITING","city":"Clermont Ferrand","zip":"63011","country":"France","geoPoint":{"lat":45.77966,"lon":3.08628}},{"facility":"Research Site","status":"RECRUITING","city":"Creteil","zip":"94000","country":"France","geoPoint":{"lat":48.78333,"lon":2.46667}},{"facility":"Research Site","status":"RECRUITING","city":"Lyon","zip":"69373","country":"France","geoPoint":{"lat":45.74848,"lon":4.84669}},{"facility":"Research Site","status":"RECRUITING","city":"Montpellier","zip":"34298","country":"France","geoPoint":{"lat":43.61092,"lon":3.87723}},{"facility":"Research Site","status":"RECRUITING","city":"Nice","zip":"06100","country":"France","geoPoint":{"lat":43.70313,"lon":7.26608}},{"facility":"Research Site","status":"RECRUITING","city":"Nîmes","zip":"30029","country":"France","geoPoint":{"lat":43.83333,"lon":4.35}},{"facility":"Research Site","status":"RECRUITING","city":"Paris","zip":"75679","country":"France","geoPoint":{"lat":48.85341,"lon":2.3488}},{"facility":"Research Site","status":"RECRUITING","city":"Pierre Bénite","zip":"69495","country":"France","geoPoint":{"lat":45.7009,"lon":4.82511}},{"facility":"Research Site","status":"RECRUITING","city":"Poitiers Cedex","zip":"86021","country":"France","geoPoint":{"lat":46.58333,"lon":0.33333}},{"facility":"Research Site","status":"RECRUITING","city":"Quimper Cedex","zip":"29107","country":"France","geoPoint":{"lat":48.0,"lon":-4.1}},{"facility":"Research Site","status":"RECRUITING","city":"Rennes Cedex 9","zip":"35033","country":"France","geoPoint":{"lat":48.11198,"lon":-1.67429}},{"facility":"Research Site","status":"RECRUITING","city":"Strasbourg","zip":"67033","country":"France","geoPoint":{"lat":48.58392,"lon":7.74553}},{"facility":"Research Site","status":"RECRUITING","city":"Tours","zip":"37000","country":"France","geoPoint":{"lat":47.38333,"lon":0.68333}},{"facility":"Research Site","status":"RECRUITING","city":"Vandoeuvre les Nancy","zip":"54519","country":"France","geoPoint":{"lat":48.65,"lon":6.18333}},{"facility":"Research Site","status":"RECRUITING","city":"Bergisch Gladbach","zip":"51465","country":"Germany","geoPoint":{"lat":50.9856,"lon":7.13298}},{"facility":"Research Site","status":"RECRUITING","city":"Berlin","zip":"10117","country":"Germany","geoPoint":{"lat":52.52437,"lon":13.41053}},{"facility":"Research Site","status":"WITHDRAWN","city":"Bonn","zip":"53113","country":"Germany","geoPoint":{"lat":50.73438,"lon":7.09549}},{"facility":"Research Site","status":"RECRUITING","city":"Braunschweig","zip":"38126","country":"Germany","geoPoint":{"lat":52.26594,"lon":10.52673}},{"facility":"Research Site","status":"RECRUITING","city":"Dresden","zip":"01307","country":"Germany","geoPoint":{"lat":51.05089,"lon":13.73832}},{"facility":"Research Site","status":"RECRUITING","city":"Duisburg","zip":"47169","country":"Germany","geoPoint":{"lat":51.43247,"lon":6.76516}},{"facility":"Research Site","status":"RECRUITING","city":"Erlangen","zip":"91054","country":"Germany","geoPoint":{"lat":49.59099,"lon":11.00783}},{"facility":"Research Site","status":"RECRUITING","city":"Frankfurt am Main","zip":"60590","country":"Germany","geoPoint":{"lat":50.11552,"lon":8.68417}},{"facility":"Research Site","status":"RECRUITING","city":"Frankfurt","zip":"60488","country":"Germany","geoPoint":{"lat":50.11552,"lon":8.68417}},{"facility":"Research Site","status":"RECRUITING","city":"Freiburg","zip":"79106","country":"Germany","geoPoint":{"lat":47.9959,"lon":7.85222}},{"facility":"Research Site","status":"WITHDRAWN","city":"Göttingen","zip":"37075","country":"Germany","geoPoint":{"lat":51.53443,"lon":9.93228}},{"facility":"Research Site","status":"RECRUITING","city":"Hamburg","zip":"20246","country":"Germany","geoPoint":{"lat":53.57532,"lon":10.01534}},{"facility":"Research Site","status":"RECRUITING","city":"Heidelberg","zip":"69120","country":"Germany","geoPoint":{"lat":49.40768,"lon":8.69079}},{"facility":"Research Site","status":"RECRUITING","city":"Herne","zip":"44625","country":"Germany","geoPoint":{"lat":51.5388,"lon":7.22572}},{"facility":"Research Site","status":"RECRUITING","city":"Homburg","zip":"66421","country":"Germany","geoPoint":{"lat":49.32637,"lon":7.33867}},{"facility":"Research Site","status":"RECRUITING","city":"Köln","zip":"50968","country":"Germany","geoPoint":{"lat":50.93333,"lon":6.95}},{"facility":"Research Site","status":"RECRUITING","city":"Magdeburg","zip":"39120","country":"Germany","geoPoint":{"lat":52.12773,"lon":11.62916}},{"facility":"Research Site","status":"RECRUITING","city":"Mannheim","zip":"68167","country":"Germany","geoPoint":{"lat":49.4891,"lon":8.46694}},{"facility":"Research Site","status":"RECRUITING","city":"Marburg","zip":"35043","country":"Germany","geoPoint":{"lat":50.80904,"lon":8.77069}},{"facility":"Research Site","status":"RECRUITING","city":"Mettmann","zip":"40822","country":"Germany","geoPoint":{"lat":51.2504,"lon":6.97536}},{"facility":"Research Site","status":"RECRUITING","city":"München","zip":"81675","country":"Germany","geoPoint":{"lat":48.13743,"lon":11.57549}},{"facility":"Research Site","status":"RECRUITING","city":"Münster","zip":"48149","country":"Germany","geoPoint":{"lat":51.96236,"lon":7.62571}},{"facility":"Research Site","status":"RECRUITING","city":"Nürtingen","zip":"72622","country":"Germany","geoPoint":{"lat":48.62565,"lon":9.34203}},{"facility":"Research Site","status":"WITHDRAWN","city":"Oldenburg","zip":"26133","country":"Germany","geoPoint":{"lat":53.14118,"lon":8.21467}},{"facility":"Research Site","status":"RECRUITING","city":"Regensburg","zip":"93053","country":"Germany","geoPoint":{"lat":49.01513,"lon":12.10161}},{"facility":"Research Site","status":"WITHDRAWN","city":"Stuttgart","zip":"70176","country":"Germany","geoPoint":{"lat":48.78232,"lon":9.17702}},{"facility":"Research Site","status":"RECRUITING","city":"Trier","zip":"54292","country":"Germany","geoPoint":{"lat":49.75565,"lon":6.63935}},{"facility":"Research Site","status":"RECRUITING","city":"Tübingen","zip":"72076","country":"Germany","geoPoint":{"lat":48.52266,"lon":9.05222}},{"facility":"Research Site","status":"RECRUITING","city":"Ulm","zip":"89081","country":"Germany","geoPoint":{"lat":48.39841,"lon":9.99155}},{"facility":"Research Site","status":"WITHDRAWN","city":"Budapest","zip":"1062","country":"Hungary","geoPoint":{"lat":47.49801,"lon":19.03991}},{"facility":"Research Site","status":"RECRUITING","city":"Budapest","zip":"1122","country":"Hungary","geoPoint":{"lat":47.49801,"lon":19.03991}},{"facility":"Research Site","status":"WITHDRAWN","city":"Budapest","zip":"1125","country":"Hungary","geoPoint":{"lat":47.49801,"lon":19.03991}},{"facility":"Research Site","status":"RECRUITING","city":"Budapest","zip":"1145","country":"Hungary","geoPoint":{"lat":47.49801,"lon":19.03991}},{"facility":"Research Site","status":"RECRUITING","city":"Debrecen","zip":"4032","country":"Hungary","geoPoint":{"lat":47.53333,"lon":21.63333}},{"facility":"Research Site","status":"WITHDRAWN","city":"Győr","zip":"9024","country":"Hungary","geoPoint":{"lat":47.68333,"lon":17.63512}},{"facility":"Research Site","status":"RECRUITING","city":"Miskolc","zip":"3526","country":"Hungary","geoPoint":{"lat":48.1,"lon":20.78333}},{"facility":"Research Site","status":"WITHDRAWN","city":"Nyíregyháza","zip":"4400","country":"Hungary","geoPoint":{"lat":47.95539,"lon":21.71671}},{"facility":"Research Site","status":"RECRUITING","city":"Szeged","zip":"6725","country":"Hungary","geoPoint":{"lat":46.253,"lon":20.14824}},{"facility":"Research Site","status":"RECRUITING","city":"Szekszárd","zip":"7100","country":"Hungary","geoPoint":{"lat":46.35014,"lon":18.70905}},{"facility":"Research Site","status":"RECRUITING","city":"Bangalore","zip":"560027","country":"India","geoPoint":{"lat":12.97194,"lon":77.59369}},{"facility":"Research Site","status":"RECRUITING","city":"Calicut","zip":"673601","country":"India","geoPoint":{"lat":11.24802,"lon":75.7804}},{"facility":"Research Site","status":"WITHDRAWN","city":"Delhi","zip":"110029","country":"India","geoPoint":{"lat":28.65195,"lon":77.23149}},{"facility":"Research Site","status":"RECRUITING","city":"Hyderabad","zip":"500032","country":"India","geoPoint":{"lat":17.38405,"lon":78.45636}},{"facility":"Research Site","status":"WITHDRAWN","city":"JAipur","zip":"302022","country":"India","geoPoint":{"lat":26.91962,"lon":75.78781}},{"facility":"Research Site","status":"RECRUITING","city":"Kanpur","zip":"208005","country":"India","geoPoint":{"lat":26.46523,"lon":80.34975}},{"facility":"Research Site","status":"RECRUITING","city":"Kolkata","zip":"700099","country":"India","geoPoint":{"lat":22.56263,"lon":88.36304}},{"facility":"Research Site","status":"WITHDRAWN","city":"Kolkata","zip":"700160","country":"India","geoPoint":{"lat":22.56263,"lon":88.36304}},{"facility":"Research Site","status":"WITHDRAWN","city":"Mohali","zip":"160055","country":"India","geoPoint":{"lat":30.67995,"lon":76.72211}},{"facility":"Research Site","status":"RECRUITING","city":"Nagpur","zip":"440001","country":"India","geoPoint":{"lat":21.14631,"lon":79.08491}},{"facility":"Research Site","status":"RECRUITING","city":"New Delhi","zip":"110085","country":"India","geoPoint":{"lat":28.63576,"lon":77.22445}},{"facility":"Research Site","status":"RECRUITING","city":"New Delhi","zip":"11029","country":"India","geoPoint":{"lat":28.63576,"lon":77.22445}},{"facility":"Research Site","status":"RECRUITING","city":"Pune","zip":"411004","country":"India","geoPoint":{"lat":18.51957,"lon":73.85535}},{"facility":"Research Site","status":"WITHDRAWN","city":"Surat","zip":"395002","country":"India","geoPoint":{"lat":21.19594,"lon":72.83023}},{"facility":"Research Site","status":"RECRUITING","city":"Vadodara","zip":"391760","country":"India","geoPoint":{"lat":22.29941,"lon":73.20812}},{"facility":"Research Site","status":"RECRUITING","city":"Varanasi","zip":"221005","country":"India","geoPoint":{"lat":25.31668,"lon":83.01041}},{"facility":"Research Site","status":"RECRUITING","city":"Bari","zip":"70124","country":"Italy","geoPoint":{"lat":41.11148,"lon":16.8554}},{"facility":"Research Site","status":"RECRUITING","city":"Genoa","zip":"16132","country":"Italy","geoPoint":{"lat":44.40478,"lon":8.94438}},{"facility":"Research Site","status":"RECRUITING","city":"Meldola","zip":"47014","country":"Italy","geoPoint":{"lat":44.12775,"lon":12.0626}},{"facility":"Research Site","status":"RECRUITING","city":"Milano","zip":"20132","country":"Italy","geoPoint":{"lat":45.46427,"lon":9.18951}},{"facility":"Research Site","status":"RECRUITING","city":"Milano","zip":"20133","country":"Italy","geoPoint":{"lat":45.46427,"lon":9.18951}},{"facility":"Research Site","status":"RECRUITING","city":"Napoli","zip":"80131","country":"Italy","geoPoint":{"lat":40.85216,"lon":14.26811}},{"facility":"Research Site","status":"RECRUITING","city":"Padova","zip":"35128","country":"Italy","geoPoint":{"lat":45.40797,"lon":11.88586}},{"facility":"Research Site","status":"RECRUITING","city":"Rome","zip":"00168","country":"Italy","geoPoint":{"lat":41.89193,"lon":12.51133}},{"facility":"Research Site","status":"RECRUITING","city":"Rozzano","zip":"20089","country":"Italy","geoPoint":{"lat":45.38193,"lon":9.1559}},{"facility":"Research Site","status":"RECRUITING","city":"Terni","zip":"05100","country":"Italy","geoPoint":{"lat":42.56335,"lon":12.64329}},{"facility":"Research Site","status":"RECRUITING","city":"Trento","zip":"38100","country":"Italy","geoPoint":{"lat":46.06787,"lon":11.12108}},{"facility":"Research Site","status":"RECRUITING","city":"Chiba-shi","zip":"260-8717","country":"Japan","geoPoint":{"lat":35.6,"lon":140.11667}},{"facility":"Research Site","status":"RECRUITING","city":"Fukuoka-shi","zip":"811-1347","country":"Japan","geoPoint":{"lat":33.6,"lon":130.41667}},{"facility":"Research Site","status":"RECRUITING","city":"Fukuoka","zip":"812-8582","country":"Japan","geoPoint":{"lat":33.6,"lon":130.41667}},{"facility":"Research Site","status":"RECRUITING","city":"Hirakata-shi","zip":"573-1191","country":"Japan","geoPoint":{"lat":34.81352,"lon":135.64914}},{"facility":"Research Site","status":"RECRUITING","city":"Hirosaki-shi","zip":"036-8563","country":"Japan","geoPoint":{"lat":40.59306,"lon":140.4725}},{"facility":"Research Site","status":"RECRUITING","city":"Kanazawa-shi","zip":"920-8641","country":"Japan","geoPoint":{"lat":36.6,"lon":136.61667}},{"facility":"Research Site","status":"RECRUITING","city":"Kashihara-shi","zip":"634-8522","country":"Japan","geoPoint":{"lat":34.50896,"lon":135.7929}},{"facility":"Research Site","status":"RECRUITING","city":"Kawagoe-shi","zip":"350-8550","country":"Japan","geoPoint":{"lat":35.90861,"lon":139.48528}},{"facility":"Research Site","status":"RECRUITING","city":"Kisarazu-shi","zip":"292-8535","country":"Japan","geoPoint":{"lat":35.38329,"lon":139.93254}},{"facility":"Research Site","status":"RECRUITING","city":"Kita-gun","zip":"761-0793","country":"Japan"},{"facility":"Research Site","status":"RECRUITING","city":"Kobe-shi","zip":"650-0047","country":"Japan","geoPoint":{"lat":34.6913,"lon":135.183}},{"facility":"Research Site","status":"RECRUITING","city":"Kumamoto-shi","zip":"860-0008","country":"Japan","geoPoint":{"lat":32.80589,"lon":130.69182}},{"facility":"Research Site","status":"RECRUITING","city":"Kyoto-shi","zip":"606-8507","country":"Japan","geoPoint":{"lat":35.02107,"lon":135.75385}},{"facility":"Research Site","status":"RECRUITING","city":"Maebashi-shi","zip":"371-8811","country":"Japan","geoPoint":{"lat":36.4,"lon":139.08333}},{"facility":"Research Site","status":"RECRUITING","city":"Nagano-shi","zip":"381-8551","country":"Japan","geoPoint":{"lat":36.65,"lon":138.18333}},{"facility":"Research Site","status":"RECRUITING","city":"Nagasaki-shi","zip":"852-8501","country":"Japan","geoPoint":{"lat":32.75,"lon":129.88333}},{"facility":"Research Site","status":"RECRUITING","city":"Nagoya-shi","zip":"466-8560","country":"Japan","geoPoint":{"lat":35.18147,"lon":136.90641}},{"facility":"Research Site","status":"RECRUITING","city":"Nagoya","zip":"466-8650","country":"Japan","geoPoint":{"lat":35.18147,"lon":136.90641}},{"facility":"Research Site","status":"RECRUITING","city":"Osaka-shi","zip":"541-8567","country":"Japan","geoPoint":{"lat":34.69374,"lon":135.50218}},{"facility":"Research Site","status":"RECRUITING","city":"Osakasayama-shi","zip":"589-8511","country":"Japan","geoPoint":{"lat":34.69374,"lon":135.50218}},{"facility":"Research Site","status":"RECRUITING","city":"Sagamihara-shi","zip":"252-0375","country":"Japan","geoPoint":{"lat":35.54899,"lon":139.26064}},{"facility":"Research Site","status":"RECRUITING","city":"Sakura-shi","zip":"285-8741","country":"Japan","geoPoint":{"lat":35.71667,"lon":140.23333}},{"facility":"Research Site","status":"RECRUITING","city":"Sapporo-shi","zip":"060-8638","country":"Japan","geoPoint":{"lat":43.06667,"lon":141.35}},{"facility":"Research Site","status":"RECRUITING","city":"Shiwa-gun","zip":"028-3695","country":"Japan","geoPoint":{"lat":33.23058,"lon":133.24871}},{"facility":"Research Site","status":"RECRUITING","city":"Suita-shi","zip":"565-0871","country":"Japan","geoPoint":{"lat":34.76143,"lon":135.51567}},{"facility":"Research Site","status":"RECRUITING","city":"Tsu-shi","zip":"514-8507","country":"Japan","geoPoint":{"lat":34.73333,"lon":136.51667}},{"facility":"Research Site","status":"RECRUITING","city":"Yokohama-shi","zip":"232-0024","country":"Japan","geoPoint":{"lat":35.43333,"lon":139.65}},{"facility":"Research Site","status":"RECRUITING","city":"Yufu-shi","zip":"879-5593","country":"Japan","geoPoint":{"lat":33.1956,"lon":131.37829}},{"facility":"Research Site","status":"RECRUITING","city":"Daejeon","zip":"35015","country":"Korea, Republic of","geoPoint":{"lat":36.32139,"lon":127.41972}},{"facility":"Research Site","status":"RECRUITING","city":"Seongnam-si","zip":"13620","country":"Korea, Republic of","geoPoint":{"lat":37.43861,"lon":127.13778}},{"facility":"Research Site","status":"RECRUITING","city":"Seoul","zip":"03080","country":"Korea, Republic of","geoPoint":{"lat":37.566,"lon":126.9784}},{"facility":"Research Site","status":"RECRUITING","city":"Seoul","zip":"03722","country":"Korea, Republic of","geoPoint":{"lat":37.566,"lon":126.9784}},{"facility":"Research Site","status":"RECRUITING","city":"Seoul","zip":"05505","country":"Korea, Republic of","geoPoint":{"lat":37.566,"lon":126.9784}},{"facility":"Research Site","status":"RECRUITING","city":"Seoul","zip":"06351","country":"Korea, Republic of","geoPoint":{"lat":37.566,"lon":126.9784}},{"facility":"Research Site","status":"RECRUITING","city":"Seoul","zip":"06591","country":"Korea, Republic of","geoPoint":{"lat":37.566,"lon":126.9784}},{"facility":"Research Site","status":"RECRUITING","city":"Suwon","zip":"16247","country":"Korea, Republic of","geoPoint":{"lat":37.29111,"lon":127.00889}},{"facility":"Research Site","status":"RECRUITING","city":"George Town","zip":"10450","country":"Malaysia","geoPoint":{"lat":5.41123,"lon":100.33543}},{"facility":"Research Site","status":"RECRUITING","city":"Johor Bahru","zip":"81100","country":"Malaysia","geoPoint":{"lat":1.4655,"lon":103.7578}},{"facility":"Research Site","status":"RECRUITING","city":"Kota Kinabalu","zip":"88996","country":"Malaysia","geoPoint":{"lat":5.9749,"lon":116.0724}},{"facility":"Research Site","status":"RECRUITING","city":"Kuala Lumpur","zip":"50586","country":"Malaysia","geoPoint":{"lat":3.1412,"lon":101.68653}},{"facility":"Research Site","status":"RECRUITING","city":"Kuala Lumpur","zip":"59100","country":"Malaysia","geoPoint":{"lat":3.1412,"lon":101.68653}},{"facility":"Research Site","status":"RECRUITING","city":"Kuching","zip":"93586","country":"Malaysia","geoPoint":{"lat":1.54999,"lon":110.33333}},{"facility":"Research Site","status":"RECRUITING","city":"Amsterdam","zip":"1066 CX","country":"Netherlands","geoPoint":{"lat":52.37403,"lon":4.88969}},{"facility":"Research Site","status":"RECRUITING","city":"Hilversum","zip":"1213 XZ","country":"Netherlands","geoPoint":{"lat":52.22333,"lon":5.17639}},{"facility":"Research Site","status":"RECRUITING","city":"Nijmegen","zip":"6525 GA","country":"Netherlands","geoPoint":{"lat":51.8425,"lon":5.85278}},{"facility":"Research Site","status":"RECRUITING","city":"Arequipa","zip":"AREQUIPA01","country":"Peru","geoPoint":{"lat":-16.39889,"lon":-71.535}},{"facility":"Research Site","status":"RECRUITING","city":"Bellavista","zip":"CALLAO 2","country":"Peru","geoPoint":{"lat":-7.05614,"lon":-76.5911}},{"facility":"Research Site","status":"RECRUITING","city":"Lima","zip":"15036","country":"Peru","geoPoint":{"lat":-12.04318,"lon":-77.02824}},{"facility":"Research Site","status":"RECRUITING","city":"Lima","zip":"15082","country":"Peru","geoPoint":{"lat":-12.04318,"lon":-77.02824}},{"facility":"Research Site","status":"RECRUITING","city":"Lima","zip":"15102","country":"Peru","geoPoint":{"lat":-12.04318,"lon":-77.02824}},{"facility":"Research Site","status":"RECRUITING","city":"Lima","zip":"34","country":"Peru","geoPoint":{"lat":-12.04318,"lon":-77.02824}},{"facility":"Research Site","status":"RECRUITING","city":"Lima","zip":"LIMA 29","country":"Peru","geoPoint":{"lat":-12.04318,"lon":-77.02824}},{"facility":"Research Site","status":"RECRUITING","city":"Bydgoszcz","zip":"85-796","country":"Poland","geoPoint":{"lat":53.1235,"lon":18.00762}},{"facility":"Research Site","status":"RECRUITING","city":"Koszalin","zip":"75-581","country":"Poland","geoPoint":{"lat":54.19438,"lon":16.17222}},{"facility":"Research Site","status":"RECRUITING","city":"Poznań","zip":"61-731","country":"Poland","geoPoint":{"lat":52.40692,"lon":16.92993}},{"facility":"Research Site","status":"RECRUITING","city":"Rzeszów","zip":"35-001","country":"Poland","geoPoint":{"lat":50.04132,"lon":21.99901}},{"facility":"Research Site","status":"WITHDRAWN","city":"Szczecin","zip":"71-730","country":"Poland","geoPoint":{"lat":53.42894,"lon":14.55302}},{"facility":"Research Site","status":"RECRUITING","city":"Warszawa","zip":"04-073","country":"Poland","geoPoint":{"lat":52.22977,"lon":21.01178}},{"facility":"Research Site","status":"RECRUITING","city":"Wrocław","zip":"53-329","country":"Poland","geoPoint":{"lat":51.1,"lon":17.03333}},{"facility":"Research Site","status":"WITHDRAWN","city":"Żory","zip":"44-240","country":"Poland","geoPoint":{"lat":50.04523,"lon":18.70062}},{"facility":"Research Site","status":"WITHDRAWN","city":"San Juan","zip":"00927","country":"Puerto Rico","geoPoint":{"lat":18.46633,"lon":-66.10572}},{"facility":"Research Site","status":"RECRUITING","city":"Barcelona","zip":"08035","country":"Spain","geoPoint":{"lat":41.38879,"lon":2.15899}},{"facility":"Research Site","status":"RECRUITING","city":"Córdoba","zip":"14004","country":"Spain","geoPoint":{"lat":37.89155,"lon":-4.77275}},{"facility":"Research Site","status":"RECRUITING","city":"L'Hospitalet de Llobregat","zip":"08908","country":"Spain","geoPoint":{"lat":41.35967,"lon":2.10028}},{"facility":"Research Site","status":"RECRUITING","city":"Lugo","zip":"27003","country":"Spain","geoPoint":{"lat":43.00992,"lon":-7.55602}},{"facility":"Research Site","status":"RECRUITING","city":"Madrid","zip":"28034","country":"Spain","geoPoint":{"lat":40.4165,"lon":-3.70256}},{"facility":"Research Site","status":"RECRUITING","city":"Madrid","zip":"28040","country":"Spain","geoPoint":{"lat":40.4165,"lon":-3.70256}},{"facility":"Research Site","status":"RECRUITING","city":"Madrid","zip":"28041","country":"Spain","geoPoint":{"lat":40.4165,"lon":-3.70256}},{"facility":"Research Site","status":"RECRUITING","city":"Sabadell","zip":"08208","country":"Spain","geoPoint":{"lat":41.54329,"lon":2.10942}},{"facility":"Research Site","status":"RECRUITING","city":"Valencia","zip":"46014","country":"Spain","geoPoint":{"lat":39.46975,"lon":-0.37739}},{"facility":"Research Site","status":"WITHDRAWN","city":"Göteborg","zip":"413 45","country":"Sweden","geoPoint":{"lat":57.70716,"lon":11.96679}},{"facility":"Research Site","status":"WITHDRAWN","city":"Malmo","zip":"20502","country":"Sweden","geoPoint":{"lat":55.60587,"lon":13.00073}},{"facility":"Research Site","status":"WITHDRAWN","city":"Solna","zip":"171 64","country":"Sweden","geoPoint":{"lat":59.36004,"lon":18.00086}},{"facility":"Research Site","status":"WITHDRAWN","city":"Stockholm","zip":"118 83","country":"Sweden","geoPoint":{"lat":59.33258,"lon":18.0649}},{"facility":"Research Site","status":"RECRUITING","city":"Kaohsiung city","zip":"833","country":"Taiwan","geoPoint":{"lat":22.61626,"lon":120.31333}},{"facility":"Research Site","status":"RECRUITING","city":"Kaohsiung","zip":"80756","country":"Taiwan","geoPoint":{"lat":22.61626,"lon":120.31333}},{"facility":"Research Site","status":"RECRUITING","city":"Taichung","zip":"40447","country":"Taiwan","geoPoint":{"lat":24.1469,"lon":120.6839}},{"facility":"Research Site","status":"RECRUITING","city":"Taichung","zip":"43503","country":"Taiwan","geoPoint":{"lat":24.1469,"lon":120.6839}},{"facility":"Research Site","status":"RECRUITING","city":"Taoyuan","zip":"333","country":"Taiwan","geoPoint":{"lat":24.95233,"lon":121.20193}},{"facility":"Research Site","status":"RECRUITING","city":"Yung Kang City","zip":"71044","country":"Taiwan"},{"facility":"Research Site","status":"ACTIVE_NOT_RECRUITING","city":"Bangkok","zip":"10210","country":"Thailand","geoPoint":{"lat":13.75398,"lon":100.50144}},{"facility":"Research Site","status":"ACTIVE_NOT_RECRUITING","city":"Bangkok","zip":"10330","country":"Thailand","geoPoint":{"lat":13.75398,"lon":100.50144}},{"facility":"Research Site","status":"ACTIVE_NOT_RECRUITING","city":"Bangkok","zip":"10700","country":"Thailand","geoPoint":{"lat":13.75398,"lon":100.50144}},{"facility":"Research Site","status":"ACTIVE_NOT_RECRUITING","city":"Chiang Mai","zip":"50200","country":"Thailand","geoPoint":{"lat":18.79038,"lon":98.98468}},{"facility":"Research Site","status":"ACTIVE_NOT_RECRUITING","city":"Khlong Luang","zip":"12120","country":"Thailand","geoPoint":{"lat":14.06467,"lon":100.64578}},{"facility":"Research Site","status":"ACTIVE_NOT_RECRUITING","city":"Songkla","zip":"90110","country":"Thailand","geoPoint":{"lat":7.19882,"lon":100.5951}},{"facility":"Research Site","status":"RECRUITING","city":"Ankara","zip":"06340","country":"Turkey","geoPoint":{"lat":39.91987,"lon":32.85427}},{"facility":"Research Site","status":"RECRUITING","city":"Ankara","zip":"06590","country":"Turkey","geoPoint":{"lat":39.91987,"lon":32.85427}},{"facility":"Research Site","status":"RECRUITING","city":"Bornova-Izmir","zip":"35100","country":"Turkey"},{"facility":"Research Site","status":"RECRUITING","city":"Fatih-Istanbul","zip":"34098","country":"Turkey"},{"facility":"Research Site","status":"RECRUITING","city":"Istanbul","zip":"34722","country":"Turkey","geoPoint":{"lat":41.01384,"lon":28.94966}},{"facility":"Research Site","status":"RECRUITING","city":"Karsiyaka","zip":"35575","country":"Turkey","geoPoint":{"lat":40.6936,"lon":29.94154}},{"facility":"Research Site","status":"RECRUITING","city":"Aberdeen","zip":"AB25 2ZN","country":"United Kingdom","geoPoint":{"lat":57.14369,"lon":-2.09814}},{"facility":"Research Site","status":"RECRUITING","city":"Birmingham","zip":"B15 2GW","country":"United Kingdom","geoPoint":{"lat":52.48142,"lon":-1.89983}},{"facility":"Research Site","status":"RECRUITING","city":"Cambridge","zip":"CB2 0QQ","country":"United Kingdom","geoPoint":{"lat":52.2,"lon":0.11667}},{"facility":"Research Site","status":"RECRUITING","city":"Glasgow","zip":"G12 0YN","country":"United Kingdom","geoPoint":{"lat":55.86515,"lon":-4.25763}},{"facility":"Research Site","status":"RECRUITING","city":"Guildford","zip":"GU2 7XX","country":"United Kingdom","geoPoint":{"lat":51.23536,"lon":-0.57427}},{"facility":"Research Site","status":"RECRUITING","city":"London","zip":"EC1A 7BE","country":"United Kingdom","geoPoint":{"lat":51.50853,"lon":-0.12574}},{"facility":"Research Site","status":"RECRUITING","city":"London","zip":"W6 8RF","country":"United Kingdom","geoPoint":{"lat":51.50853,"lon":-0.12574}},{"facility":"Research Site","status":"RECRUITING","city":"Manchester","zip":"M20 4BX","country":"United Kingdom","geoPoint":{"lat":53.48095,"lon":-2.23743}},{"facility":"Research Site","status":"RECRUITING","city":"Newcastle upon Tyne","zip":"NE7 7AF","country":"United Kingdom","geoPoint":{"lat":54.97328,"lon":-1.61396}},{"facility":"Research Site","status":"RECRUITING","city":"Oxford","zip":"OX3 7LE","country":"United Kingdom","geoPoint":{"lat":51.75222,"lon":-1.25596}},{"facility":"Research Site","status":"RECRUITING","city":"Plymouth","zip":"PL6 8DH","country":"United Kingdom","geoPoint":{"lat":50.37153,"lon":-4.14305}},{"facility":"Research Site","status":"RECRUITING","city":"Preston","zip":"PR2 9HT","country":"United Kingdom","geoPoint":{"lat":53.76282,"lon":-2.70452}},{"facility":"Research Site","status":"WITHDRAWN","city":"Swansea","zip":"SA2 8QA","country":"United Kingdom","geoPoint":{"lat":51.62079,"lon":-3.94323}},{"facility":"Research Site","status":"RECRUITING","city":"Truro","zip":"TR1 3LJ","country":"United Kingdom","geoPoint":{"lat":50.26526,"lon":-5.05436}}]},"ipdSharingStatementModule":{"ipdSharing":"YES","description":"Qualified researchers can request access to anonymized individual patient-level data from AstraZeneca group of companies sponsored clinical trials via the request portal. All request will be evaluated as per the AZ disclosure commitment: https://astrazenecagrouptrials.pharmacm.com/ST/Submission/Disclosure.","infoTypes":["STUDY_PROTOCOL","SAP"],"timeFrame":"AstraZeneca will meet or exceed data availability as per the commitments made to the EFPIA Pharma Data Sharing Principles. For details of our timelines, please rerefer to our disclosure commitment at https://astrazenecagrouptrials.pharmacm.com/ST/Submission/Disclosure.","accessCriteria":"When a request has been approved AstraZeneca will provide access to the de-identified individual patient-level data in an approved sponsored tool. Signed Data Sharing Agreement (non-negotiable contract for data accessors) must be in place before accessing requested information. Additionally, all users will need to accept the terms and conditions of the SAS MSE to gain access. For additional details, please review the Disclosure Statements at https://astrazenecagrouptrials.pharmacm.com/ST/Submission/Disclosure.","url":"https://astrazenecagroup-dt.pharmacm.com/DT/Home"}},"derivedSection":{"miscInfoModule":{"versionHolder":"2025-07-07"},"conditionBrowseModule":{"meshes":[{"id":"D011471","term":"Prostatic Neoplasms"},{"id":"D006967","term":"Hypersensitivity"}],"ancestors":[{"id":"D005834","term":"Genital Neoplasms, Male"},{"id":"D014565","term":"Urogenital Neoplasms"},{"id":"D009371","term":"Neoplasms by Site"},{"id":"D009369","term":"Neoplasms"},{"id":"D005832","term":"Genital Diseases, Male"},{"id":"D000091662","term":"Genital Diseases"},{"id":"D000091642","term":"Urogenital Diseases"},{"id":"D011469","term":"Prostatic Diseases"},{"id":"D052801","term":"Male Urogenital Diseases"},{"id":"D007154","term":"Immune System Diseases"}],"browseLeaves":[{"id":"M14335","name":"Prostatic Neoplasms","asFound":"Prostate Cancer","relevance":"HIGH"},{"id":"M10018","name":"Hypersensitivity","asFound":"Sensitive","relevance":"HIGH"},{"id":"M8946","name":"Genital Neoplasms, Male","relevance":"LOW"},{"id":"M17315","name":"Urogenital Neoplasms","relevance":"LOW"},{"id":"M2876","name":"Genital Diseases","relevance":"LOW"},{"id":"M8944","name":"Genital Diseases, Male","relevance":"LOW"},{"id":"M2875","name":"Urogenital Diseases","relevance":"LOW"},{"id":"M14333","name":"Prostatic Diseases","relevance":"LOW"},{"id":"M27095","name":"Male Urogenital Diseases","relevance":"LOW"},{"id":"M10200","name":"Immune System Diseases","relevance":"LOW"}],"browseBranches":[{"abbrev":"BC04","name":"Neoplasms"},{"abbrev":"BXS","name":"Urinary Tract, Sexual Organs, and Pregnancy Conditions"},{"abbrev":"All","name":"All Conditions"},{"abbrev":"BC20","name":"Immune System Diseases"}]},"interventionBrowseModule":{"meshes":[{"id":"D000069501","term":"Abiraterone Acetate"}],"ancestors":[{"id":"D000970","term":"Antineoplastic Agents"},{"id":"D065088","term":"Steroid Synthesis Inhibitors"},{"id":"D004791","term":"Enzyme Inhibitors"},{"id":"D045504","term":"Molecular Mechanisms of Pharmacological Action"},{"id":"D006727","term":"Hormone Antagonists"},{"id":"D006730","term":"Hormones, Hormone Substitutes, and Hormone Antagonists"},{"id":"D045505","term":"Physiological Effects of Drugs"},{"id":"D065607","term":"Cytochrome P-450 Enzyme Inhibitors"}],"browseLeaves":[{"id":"M451","name":"Abiraterone Acetate","asFound":"mCi","relevance":"HIGH"},{"id":"M7951","name":"Enzyme Inhibitors","relevance":"LOW"},{"id":"M9789","name":"Hormones","relevance":"LOW"},{"id":"M9788","name":"Hormone Antagonists","relevance":"LOW"},{"id":"M30537","name":"Cytochrome P-450 Enzyme Inhibitors","relevance":"LOW"}],"browseBranches":[{"abbrev":"ANeo","name":"Antineoplastic Agents"},{"abbrev":"All","name":"All Drugs and Chemicals"}]}},"hasResults":false}