{"protocolSection":{"identificationModule":{"nctId":"NCT06646276","orgStudyIdInfo":{"id":"CA245-0001"},"organization":{"fullName":"Bristol-Myers Squibb","class":"INDUSTRY"},"briefTitle":"A Study to Compare the Efficacy and Safety of BMS-986489 (BMS-986012+ Nivolumab Fixed Dose Combination) in Combination With Carboplatin Plus Etoposide to That of Atezolizumab With Carboplatin Plus Etoposide as First-Line Therapy in Participants With Extensive-Stage Small Cell Lung Cancer (TIGOS).","officialTitle":"A Randomized, Double Blind, Multicenter Phase 3 Trial of BMS-986489 (BMS-986012+Nivolumab Fixed Dose Combination) in Combination With Carboplatin Plus Etoposide vs Atezolizumab in Combination With Carboplatin Plus Etoposide as First-Line Therapy in Participants With Extensive-Stage Small Cell Lung Cancer (TIGOS)."},"statusModule":{"statusVerifiedDate":"2025-06","overallStatus":"RECRUITING","expandedAccessInfo":{"hasExpandedAccess":false},"startDateStruct":{"date":"2025-02-25","type":"ACTUAL"},"primaryCompletionDateStruct":{"date":"2028-04-06","type":"ESTIMATED"},"completionDateStruct":{"date":"2031-09-05","type":"ESTIMATED"},"studyFirstSubmitDate":"2024-10-16","studyFirstSubmitQcDate":"2024-10-16","studyFirstPostDateStruct":{"date":"2024-10-17","type":"ACTUAL"},"lastUpdateSubmitDate":"2025-06-25","lastUpdatePostDateStruct":{"date":"2025-06-27","type":"ACTUAL"}},"sponsorCollaboratorsModule":{"responsibleParty":{"type":"SPONSOR"},"leadSponsor":{"name":"Bristol-Myers Squibb","class":"INDUSTRY"}},"oversightModule":{"oversightHasDmc":true,"isFdaRegulatedDrug":true,"isFdaRegulatedDevice":false},"descriptionModule":{"briefSummary":"The Purpose of the Study is to Compare the Efficacy and Safety of BMS-986489 (Anti-fucosyl-GM1+ Nivolumab Fixed Dose Combination) in Combination with Carboplatin plus Etoposide to that of Atezolizumab with Carboplatin plus Etoposide as First-Line Therapy in Participants with Extensive-Stage Small Cell Lung Cancer."},"conditionsModule":{"conditions":["Extensive-Stage Small Cell Lung Cancer"],"keywords":["BMS-986489","BMS-986012","Extensive-Stage Small Cell Lung Cancer","Etoposide","Carboplatin","Nivolumab","TIGOS","fucGM1","SCLC","ES-SCLC","atigotatug"]},"designModule":{"studyType":"INTERVENTIONAL","phases":["PHASE3"],"designInfo":{"allocation":"RANDOMIZED","interventionModel":"PARALLEL","primaryPurpose":"TREATMENT","maskingInfo":{"masking":"QUADRUPLE","whoMasked":["PARTICIPANT","CARE_PROVIDER","INVESTIGATOR","OUTCOMES_ASSESSOR"]}},"enrollmentInfo":{"count":530,"type":"ESTIMATED"}},"armsInterventionsModule":{"armGroups":[{"label":"Arm A","type":"EXPERIMENTAL","interventionNames":["Biological: BMS-986489 (BMS-986012+Nivolumab)","Drug: Carboplatin","Drug: Etoposide"]},{"label":"Arm B","type":"ACTIVE_COMPARATOR","interventionNames":["Biological: Atezolizumab","Drug: Carboplatin","Drug: Etoposide"]}],"interventions":[{"type":"BIOLOGICAL","name":"BMS-986489 (BMS-986012+Nivolumab)","description":"Specified dose on specified days","armGroupLabels":["Arm A"]},{"type":"BIOLOGICAL","name":"Atezolizumab","description":"Specified dose on specified days","armGroupLabels":["Arm B"]},{"type":"DRUG","name":"Carboplatin","description":"Specified dose on specified days","armGroupLabels":["Arm A","Arm B"]},{"type":"DRUG","name":"Etoposide","description":"Specified dose on specified days","armGroupLabels":["Arm A","Arm B"]}]},"outcomesModule":{"primaryOutcomes":[{"measure":"Overall Survival (OS)","timeFrame":"Up to 5 years"}],"secondaryOutcomes":[{"measure":"Time to definitive deterioration (TTDD)based on the LCSS ASBI defined as the time from randomization until a definitive clinically meaningful decline (≥ 10 point increase from baseline in LCSS ASBI score).","timeFrame":"Up to 5 years"},{"measure":"Number of participants with Adverse Events (AEs)","timeFrame":"Up to 135 days after last treatment"},{"measure":"Number of Participants with Serious Adverse Events (SAEs)","timeFrame":"Up to 135 days after last treatment"},{"measure":"Number of Participants with Adverse Events (AEs) leading to discontinuation and death","timeFrame":"Up to 135 days after last treatment"},{"measure":"Objective Response (OR)","timeFrame":"Up to 5 years"},{"measure":"Duration of Response (DOR)","timeFrame":"Up to 5 years"},{"measure":"Progression Free Survival (PFS)","timeFrame":"Up to 5 years"}]},"eligibilityModule":{"eligibilityCriteria":"Inclusion Criteria:\n\n* Participants must have diagnosis of Extensive-Stage Small Cell Lung Cancer (ES-SCLC).\n* Participants must be Healthy enough to do their normal activities with little or no help based on the ECOG performance scale.\n* Participants must have at least one tumor that can be measured using special imaging techniques like a CT scan or MRI at a site other than the brain and nervous system\n\nExclusion Criteria:\n\n* Participants have already received certain types of treatment for extensive stage small cell lung cancer\n* Participants have certain health conditions, like spread of small cell lung cancer to the brain that are causing symptoms, certain lung diseases, heart diseases, infections, autoimmune diseases, other cancers, or a type of nerve damage called peripheral sensory neuropathy\n* Other protocol-defined Inclusion/Exclusion criteria apply.","healthyVolunteers":false,"sex":"ALL","minimumAge":"18 Years","stdAges":["ADULT","OLDER_ADULT"]},"contactsLocationsModule":{"centralContacts":[{"name":"BMS Clinical Trials Contact Center www.BMSClinicaltrials.com","role":"CONTACT","phone":"855-907-3286","email":"Clinical.Trials@BMS.com"},{"name":"First line of the email MUST contain the NCT# and Site#","role":"CONTACT"}],"overallOfficials":[{"name":"Bristol-Myers Squibb","affiliation":"Bristol-Myers Squibb","role":"STUDY_DIRECTOR"}],"locations":[{"facility":"Local Institution - 0337","status":"NOT_YET_RECRUITING","city":"Daphne","state":"Alabama","zip":"36526","country":"United States","contacts":[{"name":"Site 0337","role":"CONTACT"}],"geoPoint":{"lat":30.60353,"lon":-87.9036}},{"facility":"Local Institution - 0283","status":"COMPLETED","city":"Hot Springs","state":"Arkansas","zip":"71913","country":"United States","geoPoint":{"lat":34.5037,"lon":-93.05518}},{"facility":"Florida Cancer Specialists - South","status":"RECRUITING","city":"Fort Myers","state":"Florida","zip":"33901","country":"United States","contacts":[{"name":"Alexander Glick, Site 0245","role":"CONTACT","phone":"239-274-9930"}],"geoPoint":{"lat":26.62168,"lon":-81.84059}},{"facility":"Mid Florida Hematology and Oncology Center","status":"RECRUITING","city":"Orange City","state":"Florida","zip":"32763","country":"United States","contacts":[{"name":"Santosh Nair, Site 0009","role":"CONTACT","phone":"407-353-1915"}],"geoPoint":{"lat":28.94888,"lon":-81.29867}},{"facility":"Florida Cancer Specialists - North","status":"RECRUITING","city":"Saint Petersburg","state":"Florida","zip":"33705","country":"United States","contacts":[{"name":"Maen Hussein, Site 0020","role":"CONTACT","phone":"727-216-1143"}],"geoPoint":{"lat":27.77086,"lon":-82.67927}},{"facility":"Northwest Georgia Oncology Centers, a Service of Wellstar Cobb Hospital","status":"RECRUITING","city":"Marietta","state":"Georgia","zip":"30060","country":"United States","contacts":[{"name":"Steven McCune, Site 0013","role":"CONTACT","phone":"770-281-5100"}],"geoPoint":{"lat":33.9526,"lon":-84.54993}},{"facility":"Illinois Cancer Care","status":"RECRUITING","city":"Peoria","state":"Illinois","zip":"61615","country":"United States","contacts":[{"name":"Gary MacVicar, Site 0019","role":"CONTACT","phone":"309-243-3000"}],"geoPoint":{"lat":40.69365,"lon":-89.58899}},{"facility":"Local Institution - 0037","status":"WITHDRAWN","city":"Minneapolis","state":"Minnesota","zip":"55407","country":"United States","geoPoint":{"lat":44.97997,"lon":-93.26384}},{"facility":"University of New Mexico Comprehensive Cancer Center","status":"RECRUITING","city":"Albuquerque","state":"New Mexico","zip":"87106","country":"United States","contacts":[{"name":"Moises Harari Turquie, Site 0033","role":"CONTACT","phone":"505-272-4946"}],"geoPoint":{"lat":35.08449,"lon":-106.65114}},{"facility":"Local Institution - 0029","status":"NOT_YET_RECRUITING","city":"Durham","state":"North Carolina","zip":"27710","country":"United States","contacts":[{"name":"Site 0029","role":"CONTACT"}],"geoPoint":{"lat":35.99403,"lon":-78.89862}},{"facility":"Oncology Hematology Care","status":"RECRUITING","city":"Cincinnati","state":"Ohio","zip":"45242","country":"United States","contacts":[{"name":"Patrick Ward, Site 0284","role":"CONTACT","phone":"513-751-2273"}],"geoPoint":{"lat":39.12713,"lon":-84.51435}},{"facility":"Local Institution - 0239","status":"NOT_YET_RECRUITING","city":"Cleveland","state":"Ohio","zip":"44106","country":"United States","contacts":[{"name":"Site 0239","role":"CONTACT"}],"geoPoint":{"lat":41.4995,"lon":-81.69541}},{"facility":"Sanford Cancer Center","status":"RECRUITING","city":"Sioux Falls","state":"South Dakota","zip":"57104","country":"United States","contacts":[{"name":"Allison Watson, Site 0231","role":"CONTACT","phone":"605-209-4092"}],"geoPoint":{"lat":43.54997,"lon":-96.70033}},{"facility":"Local Institution - 0307","status":"NOT_YET_RECRUITING","city":"Knoxville","state":"Tennessee","zip":"37909","country":"United States","contacts":[{"name":"Site 0307","role":"CONTACT"}],"geoPoint":{"lat":35.96064,"lon":-83.92074}},{"facility":"SCRI Oncology Partners","status":"RECRUITING","city":"Nashville","state":"Tennessee","zip":"37203","country":"United States","contacts":[{"name":"Melissa Johnson, Site 0008","role":"CONTACT","phone":"615-329-7274"}],"geoPoint":{"lat":36.16589,"lon":-86.78444}},{"facility":"Texas Oncology - Central/South Texas","status":"RECRUITING","city":"Austin","state":"Texas","zip":"78705","country":"United States","contacts":[{"name":"James Uyeki, Site 0001","role":"CONTACT","phone":"512-427-9400"}],"geoPoint":{"lat":30.26715,"lon":-97.74306}},{"facility":"Texas Oncology - Northeast Texas","status":"RECRUITING","city":"Tyler","state":"Texas","zip":"75702","country":"United States","contacts":[{"name":"Sarah Wang, Site 0281","role":"CONTACT","phone":"903-579-9800"}],"geoPoint":{"lat":32.35126,"lon":-95.30106}},{"facility":"Oncology & Hematology Associates of Southwest Virginia, Inc.","status":"RECRUITING","city":"Roanoke","state":"Virginia","zip":"24014","country":"United States","contacts":[{"name":"Jerome Goldschmidt, Site 0246","role":"CONTACT","phone":"540-381-5291"}],"geoPoint":{"lat":37.27097,"lon":-79.94143}},{"facility":"Swedish Medical Center","status":"RECRUITING","city":"Seattle","state":"Washington","zip":"98104","country":"United States","contacts":[{"name":"Siddhartha Devarakonda, Site 0026","role":"CONTACT","phone":"206-386-2457"}],"geoPoint":{"lat":47.60621,"lon":-122.33207}},{"facility":"Local Institution - 0007","status":"NOT_YET_RECRUITING","city":"Tacoma","state":"Washington","zip":"98405","country":"United States","contacts":[{"name":"Site 0007","role":"CONTACT"}],"geoPoint":{"lat":47.25288,"lon":-122.44429}},{"facility":"Instituto Alexander Fleming","status":"RECRUITING","city":"Ciudad Autónoma de Buenos Aires","state":"Buenos Aires","zip":"C1426ANZ","country":"Argentina","contacts":[{"name":"Diego Enrico, Site 0079","role":"CONTACT","phone":"+5491132218900"}],"geoPoint":{"lat":-34.61315,"lon":-58.37723}},{"facility":"Hospital Italiano de Buenos Aires","status":"RECRUITING","city":"ABB","state":"Ciudad Autónoma De Buenos Aires","zip":"C1199ABB","country":"Argentina","contacts":[{"name":"Yamila Ferreira, Site 0077","role":"CONTACT","phone":"11-49590200ext8159"}]},{"facility":"Local Institution - 0100","status":"NOT_YET_RECRUITING","city":"Buenos Aires","state":"Ciudad Autónoma De Buenos Aires","zip":"C1417DTB","country":"Argentina","contacts":[{"name":"Site 0100","role":"CONTACT"}],"geoPoint":{"lat":-34.61315,"lon":-58.37723}},{"facility":"Clinica Adventista Belgrano","status":"RECRUITING","city":"Caba","state":"Ciudad Autónoma De Buenos Aires","zip":"C1430EGF","country":"Argentina","contacts":[{"name":"Aldo Perfetti, Site 0080","role":"CONTACT","phone":"5491132682903"}],"geoPoint":{"lat":-34.61315,"lon":-58.37723}},{"facility":"Instituto Médico Río Cuarto","status":"RECRUITING","city":"Río Cuarto","state":"Córdoba","zip":"X5800AEV","country":"Argentina","contacts":[{"name":"Saul Del Grecco, Site 0094","role":"CONTACT","phone":"03512446211"}],"geoPoint":{"lat":-33.13067,"lon":-64.34992}},{"facility":"GenesisCare - Campbelltown","status":"RECRUITING","city":"Campbelltown","state":"New South Wales","zip":"2560","country":"Australia","contacts":[{"name":"Jessica Smith, Site 0202","role":"CONTACT","phone":"61418478198"}],"geoPoint":{"lat":-34.06667,"lon":150.81667}},{"facility":"Nepean Hospital","status":"RECRUITING","city":"Penrith","state":"New South Wales","zip":"2750","country":"Australia","contacts":[{"name":"Deme Karikios, Site 0106","role":"CONTACT","phone":"61247343500"}],"geoPoint":{"lat":-33.75,"lon":150.7}},{"facility":"Gallipoli Medical Research Ltd","status":"RECRUITING","city":"Brisbane","state":"Queensland","zip":"4120","country":"Australia","contacts":[{"name":"Kenneth O'Byrne, Site 0105","role":"CONTACT","phone":"0731766505"}],"geoPoint":{"lat":-27.46794,"lon":153.02809}},{"facility":"Grampians Health","status":"RECRUITING","city":"Ballarat Central","state":"Victoria","zip":"3350","country":"Australia","contacts":[{"name":"Wasek Faisal, Site 0190","role":"CONTACT","phone":"61353208500"}],"geoPoint":{"lat":-37.56206,"lon":143.85082}},{"facility":"St. John of God Murdoch Hospital","status":"RECRUITING","city":"Murdoch","state":"Western Australia","zip":"6150","country":"Australia","contacts":[{"name":"Adeoluwa FREEMAN, Site 0175","role":"CONTACT","phone":"0421579890"}],"geoPoint":{"lat":-32.06987,"lon":115.83757}},{"facility":"Klinikum Wels-Grieskirchen GmbH","status":"RECRUITING","city":"Wels","state":"Oberösterreich","zip":"4600","country":"Austria","contacts":[{"name":"Philipp Vinatzer, Site 0251","role":"CONTACT","phone":"4372424152382"}],"geoPoint":{"lat":48.16667,"lon":14.03333}},{"facility":"Medizinische Universität Graz","status":"RECRUITING","city":"Graz","state":"Steiermark","zip":"8036","country":"Austria","contacts":[{"name":"Nikolaus Kneidinger, Site 0253","role":"CONTACT","phone":"+4331638512183"}],"geoPoint":{"lat":47.06667,"lon":15.45}},{"facility":"Kepler Universitätsklinikum","status":"RECRUITING","city":"Linz","zip":"4021","country":"Austria","contacts":[{"name":"David Lang, Site 0252","role":"CONTACT","phone":"4373278066910"}],"geoPoint":{"lat":48.30639,"lon":14.28611}},{"facility":"Landeskrankenhaus Rankweil","status":"RECRUITING","city":"Rankweil","zip":"6830","country":"Austria","contacts":[{"name":"Thomas Winder, Site 0255","role":"CONTACT","phone":"004355223032681"}],"geoPoint":{"lat":47.27108,"lon":9.64308}},{"facility":"Local Institution - 0250","status":"NOT_YET_RECRUITING","city":"Wien","zip":"1210","country":"Austria","contacts":[{"name":"Site 0250","role":"CONTACT"}],"geoPoint":{"lat":48.20849,"lon":16.37208}},{"facility":"Local Institution - 0198","status":"NOT_YET_RECRUITING","city":"Brussels","state":"Bruxelles-Capitale, Région De","zip":"1200","country":"Belgium","contacts":[{"name":"Site 0198","role":"CONTACT"}],"geoPoint":{"lat":50.85045,"lon":4.34878}},{"facility":"Local Institution - 0091","status":"NOT_YET_RECRUITING","city":"Gent","state":"Oost-Vlaanderen","zip":"9000","country":"Belgium","contacts":[{"name":"Site 0091","role":"CONTACT"}],"geoPoint":{"lat":51.05,"lon":3.71667}},{"facility":"Local Institution - 0187","status":"NOT_YET_RECRUITING","city":"Sint-Niklaas","state":"Oost-Vlaanderen","zip":"B-9100","country":"Belgium","contacts":[{"name":"Site 0187","role":"CONTACT"}],"geoPoint":{"lat":51.16509,"lon":4.1437}},{"facility":"Local Institution - 0180","status":"NOT_YET_RECRUITING","city":"Leuven","state":"Vlaams-Brabant","zip":"3000","country":"Belgium","contacts":[{"name":"Site 0180","role":"CONTACT"}],"geoPoint":{"lat":50.87959,"lon":4.70093}},{"facility":"Local Institution - 0092","status":"NOT_YET_RECRUITING","city":"Liège","zip":"4000","country":"Belgium","contacts":[{"name":"Site 0092","role":"CONTACT"}],"geoPoint":{"lat":50.63373,"lon":5.56749}},{"facility":"Local Institution - 0166","status":"NOT_YET_RECRUITING","city":"Fortaleza","state":"Ceará","zip":"60135-237","country":"Brazil","contacts":[{"name":"Site 0166","role":"CONTACT"}],"geoPoint":{"lat":-3.71722,"lon":-38.54306}},{"facility":"Local Institution - 0165","status":"NOT_YET_RECRUITING","city":"Porto Alegre","state":"Rio Grande Do Sul","zip":"90035-903","country":"Brazil","contacts":[{"name":"Site 0165","role":"CONTACT"}],"geoPoint":{"lat":-30.03306,"lon":-51.23}},{"facility":"Local Institution - 0169","status":"NOT_YET_RECRUITING","city":"Porto Alegre","state":"Rio Grande Do Sul","zip":"90610-000","country":"Brazil","contacts":[{"name":"Site 0169","role":"CONTACT"}],"geoPoint":{"lat":-30.03306,"lon":-51.23}},{"facility":"Local Institution - 0170","status":"NOT_YET_RECRUITING","city":"Santa Cruz do Sul","state":"Rio Grande Do Sul","zip":"96830-180","country":"Brazil","contacts":[{"name":"Site 0170","role":"CONTACT"}],"geoPoint":{"lat":-29.7175,"lon":-52.42583}},{"facility":"Local Institution - 0163","status":"NOT_YET_RECRUITING","city":"Itajaí","state":"Santa Catarina","zip":"88301-220","country":"Brazil","contacts":[{"name":"Site 0163","role":"CONTACT"}],"geoPoint":{"lat":-26.90778,"lon":-48.66194}},{"facility":"Local Institution - 0178","status":"NOT_YET_RECRUITING","city":"Barretos","state":"São Paulo","zip":"14784400","country":"Brazil","contacts":[{"name":"Site 0178","role":"CONTACT"}],"geoPoint":{"lat":-20.55722,"lon":-48.56778}},{"facility":"Local Institution - 0111","status":"NOT_YET_RECRUITING","city":"Sao Paulo","state":"São Paulo","zip":"01509-010","country":"Brazil","contacts":[{"name":"Site 0111","role":"CONTACT"}],"geoPoint":{"lat":-23.5475,"lon":-46.63611}},{"facility":"Local Institution - 0289","status":"NOT_YET_RECRUITING","city":"Edmonton","state":"Alberta","zip":"T6G 1Z2","country":"Canada","contacts":[{"name":"Site 0289","role":"CONTACT"}],"geoPoint":{"lat":53.55014,"lon":-113.46871}},{"facility":"CIUSSS- saguenay-Lac-Saint-Jean","status":"RECRUITING","city":"Chicoutimi","state":"Quebec","zip":"G7H 5H6","country":"Canada","contacts":[{"name":"Marc Trudeau, Site 0290","role":"CONTACT","phone":"+15814474898"}],"geoPoint":{"lat":48.41963,"lon":-71.06369}},{"facility":"Centre intégré de santé et de services sociaux du Bas Saint-Laurent- Hôpital régional de Rimouski","status":"RECRUITING","city":"Rimouski","state":"Quebec","zip":"G5L 5T1","country":"Canada","contacts":[{"name":"Samuel Nadeau, Site 0287","role":"CONTACT","phone":"4187243000"}],"geoPoint":{"lat":48.44879,"lon":-68.52396}},{"facility":"IUCPQ","status":"RECRUITING","city":"Quebec","zip":"G1V 4G5","country":"Canada","contacts":[{"name":"Marie-Helene Denault, Site 0288","role":"CONTACT","phone":"4186568711"}],"geoPoint":{"lat":46.81228,"lon":-71.21454}},{"facility":"Orlandi Oncologia","status":"RECRUITING","city":"Santiago","state":"Región Metropolitana De Santiago","zip":"0","country":"Chile","contacts":[{"name":"Francisco Orlandi, Site 0086","role":"CONTACT","phone":"56992214787"}],"geoPoint":{"lat":-33.45694,"lon":-70.64827}},{"facility":"Fundacion Arturo Lopez Perez (FALP)","status":"RECRUITING","city":"Santiago","state":"Región Metropolitana De Santiago","zip":"7500921","country":"Chile","contacts":[{"name":"Christian Caglevic, Site 0085","role":"CONTACT","phone":"56224457254"}],"geoPoint":{"lat":-33.45694,"lon":-70.64827}},{"facility":"Pontificia Universidad Catolica de Chile","status":"RECRUITING","city":"Santiago","state":"Región Metropolitana De Santiago","zip":"8330032","country":"Chile","contacts":[{"name":"Hector Galindo, Site 0083","role":"CONTACT","phone":"+56963413803"}],"geoPoint":{"lat":-33.45694,"lon":-70.64827}},{"facility":"Bradfordhill","status":"RECRUITING","city":"Santiago","state":"Región Metropolitana De Santiago","zip":"8420383","country":"Chile","contacts":[{"name":"Carlos Rojas, Site 0084","role":"CONTACT","phone":"+56998744662"}],"geoPoint":{"lat":-33.45694,"lon":-70.64827}},{"facility":"Oncocentro Apys","status":"RECRUITING","city":"Viña del Mar","state":"Valparaíso","zip":"2520598","country":"Chile","contacts":[{"name":"Alejandro Acevedo Gaete, Site 0082","role":"CONTACT","phone":"+56992369820"}],"geoPoint":{"lat":-33.02457,"lon":-71.55183}},{"facility":"Local Institution - 0204","status":"NOT_YET_RECRUITING","city":"Beijing","state":"Beijing","zip":"100142","country":"China","contacts":[{"name":"Site 0204","role":"CONTACT"}],"geoPoint":{"lat":39.9075,"lon":116.39723}},{"facility":"Local Institution - 0336","status":"NOT_YET_RECRUITING","city":"Beijing","state":"Beijing","zip":"101149","country":"China","contacts":[{"name":"Site 0336","role":"CONTACT"}],"geoPoint":{"lat":39.9075,"lon":116.39723}},{"facility":"Chongqing University Cancer Hospital","status":"RECRUITING","city":"Chongqing","state":"Chongqing","zip":"400030","country":"China","contacts":[{"name":"Huiwen Ma, Site 0203","role":"CONTACT","phone":"+8618223397897"}],"geoPoint":{"lat":29.56278,"lon":106.55278}},{"facility":"Fujian Cancer Hospital","status":"RECRUITING","city":"Fuzhou","state":"Fujian","zip":"350014","country":"China","contacts":[{"name":"Zhiyong He, Site 0308","role":"CONTACT","phone":"13805086391"}],"geoPoint":{"lat":26.06139,"lon":119.30611}},{"facility":"Local Institution - 0212","status":"NOT_YET_RECRUITING","city":"Xiamen","state":"Fujian","zip":"361003","country":"China","contacts":[{"name":"Site 0212","role":"CONTACT"}],"geoPoint":{"lat":24.47979,"lon":118.08187}},{"facility":"Cancer Hospital of Shantou University Medical College","status":"RECRUITING","city":"Shantou","state":"Guangdong","zip":"515000","country":"China","contacts":[{"name":"Wen Lin, Site 0234","role":"CONTACT","phone":"13612388011"}],"geoPoint":{"lat":23.36814,"lon":116.71479}},{"facility":"Local Institution - 0227","status":"NOT_YET_RECRUITING","city":"Harbin","state":"Heilongjiang","zip":"150081","country":"China","contacts":[{"name":"Site 0227","role":"CONTACT"}],"geoPoint":{"lat":45.75,"lon":126.65}},{"facility":"Local Institution - 0208","status":"NOT_YET_RECRUITING","city":"Wuhan","state":"Hubei","zip":"430030","country":"China","contacts":[{"name":"Site 0208","role":"CONTACT"}],"geoPoint":{"lat":30.58333,"lon":114.26667}},{"facility":"Local Institution - 0209","status":"NOT_YET_RECRUITING","city":"Wuhan","state":"Hubei","zip":"430079","country":"China","contacts":[{"name":"Site 0209","role":"CONTACT"}],"geoPoint":{"lat":30.58333,"lon":114.26667}},{"facility":"Local Institution - 0216","status":"NOT_YET_RECRUITING","city":"Changsha","state":"Hunan","zip":"410013","country":"China","contacts":[{"name":"Site 0216","role":"CONTACT"}],"geoPoint":{"lat":28.19874,"lon":112.97087}},{"facility":"Local Institution - 0233","status":"NOT_YET_RECRUITING","city":"Nanchang","state":"Jiangxi","zip":"330006","country":"China","contacts":[{"name":"Site 0233","role":"CONTACT"}],"geoPoint":{"lat":28.68396,"lon":115.85306}},{"facility":"Local Institution - 0244","status":"NOT_YET_RECRUITING","city":"Changchun","state":"Jilin","zip":"132000","country":"China","contacts":[{"name":"Site 0244","role":"CONTACT"}],"geoPoint":{"lat":43.88,"lon":125.32278}},{"facility":"Local Institution - 0235","status":"NOT_YET_RECRUITING","city":"Shenyang","state":"Liaoning","zip":"110042","country":"China","contacts":[{"name":"Site 0235","role":"CONTACT"}],"geoPoint":{"lat":41.79222,"lon":123.43278}},{"facility":"Xi'an International Medical Center Hospital","status":"RECRUITING","city":"Xi'an","state":"Shaanxi","zip":"710126","country":"China","contacts":[{"name":"Kejun Nan, Site 0335","role":"CONTACT","phone":"8613319286228"}],"geoPoint":{"lat":34.25833,"lon":108.92861}},{"facility":"Shandong Cancer Hospital","status":"RECRUITING","city":"Jinan","state":"Shandong","zip":"250117","country":"China","contacts":[{"name":"Ligang Xing, Site 0200","role":"CONTACT","phone":"86-15553181309"}],"geoPoint":{"lat":36.66833,"lon":116.99722}},{"facility":"Local Institution - 0206","status":"NOT_YET_RECRUITING","city":"Shanghai","state":"Shanghai","zip":"200030","country":"China","contacts":[{"name":"Site 0206","role":"CONTACT"}],"geoPoint":{"lat":31.22222,"lon":121.45806}},{"facility":"Local Institution - 0210","status":"NOT_YET_RECRUITING","city":"Shanghai","state":"Shanghai","zip":"200032","country":"China","contacts":[{"name":"Site 0210","role":"CONTACT"}],"geoPoint":{"lat":31.22222,"lon":121.45806}},{"facility":"Sichuan Cancer hospital","status":"RECRUITING","city":"Chengdu","state":"Sichuan","zip":"610041","country":"China","contacts":[{"name":"Juan Li, Site 0330","role":"CONTACT","phone":"+8613880276636"}],"geoPoint":{"lat":30.66667,"lon":104.06667}},{"facility":"Tianjin Medical University Cancer Institute & Hospital","status":"RECRUITING","city":"Tianjin","state":"Tianjin","zip":"300060","country":"China","contacts":[{"name":"Dingzhi Huang, Site 0213","role":"CONTACT","phone":"18622221232"}],"geoPoint":{"lat":39.14222,"lon":117.17667}},{"facility":"Sir Run Run Shaw Hospital of Zhejiang University School of Medicine","status":"RECRUITING","city":"Hangzhou","state":"Zhejiang","zip":"310016","country":"China","contacts":[{"name":"Enguo Chen, Site 0236","role":"CONTACT","phone":"13588706779"}],"geoPoint":{"lat":30.29365,"lon":120.16142}},{"facility":"Zhejiang Cancer Hospital","status":"RECRUITING","city":"Hangzhou","state":"Zhejiang","zip":"310022","country":"China","contacts":[{"name":"Yun Fan, Site 0237","role":"CONTACT","phone":"8657188122188"}],"geoPoint":{"lat":30.29365,"lon":120.16142}},{"facility":"Taizhou Hospital of Zhejiang Province","status":"RECRUITING","city":"Linhai","state":"Zhejiang","zip":"317000","country":"China","contacts":[{"name":"Dongqing LV, Site 0229","role":"CONTACT","phone":"13867622009"}],"geoPoint":{"lat":28.85535,"lon":121.14469}},{"facility":"Shanghai East Hospital","status":"RECRUITING","city":"Shanghai","zip":"200120","country":"China","contacts":[{"name":"Caicun Zhou, Site 0186","role":"CONTACT","phone":"8613301825532"}],"geoPoint":{"lat":31.22222,"lon":121.45806}},{"facility":"Masarykuv onkologicky ustav","status":"RECRUITING","city":"Brno","state":"Brno-město","zip":"656 53","country":"Czechia","contacts":[{"name":"Jan Podhorec, Site 0114","role":"CONTACT","phone":"+420543132203"}],"geoPoint":{"lat":49.19522,"lon":16.60796}},{"facility":"Nemocnice AGEL Ostrava - Vitkovice a.s.","status":"RECRUITING","city":"Ostrava","state":"Ostrava Město","zip":"703 00","country":"Czechia","contacts":[{"name":"Jaromir Roubec, Site 0117","role":"CONTACT","phone":"00420595633400"}],"geoPoint":{"lat":49.83465,"lon":18.28204}},{"facility":"Local Institution - 0113","status":"NOT_YET_RECRUITING","city":"Prague","state":"Praha 4","zip":"14059","country":"Czechia","contacts":[{"name":"Site 0113","role":"CONTACT"}],"geoPoint":{"lat":50.08804,"lon":14.42076}},{"facility":"Local Institution - 0116","status":"NOT_YET_RECRUITING","city":"Olomouc","zip":"779 00","country":"Czechia","contacts":[{"name":"Site 0116","role":"CONTACT"}],"geoPoint":{"lat":49.59552,"lon":17.25175}},{"facility":"Hôpital Arnaud de Villeneuve - CHU Montpellier","status":"RECRUITING","city":"Montpellier","state":"Hérault","zip":"34090","country":"France","contacts":[{"name":"Benoit Roch, Site 0048","role":"CONTACT","phone":"+33467330759"}],"geoPoint":{"lat":43.61092,"lon":3.87723}},{"facility":"Chu Grenoble Alpes","status":"RECRUITING","city":"La Tronche","state":"Isère","zip":"38700","country":"France","contacts":[{"name":"Denis Moro-Sibilot, Site 0040","role":"CONTACT","phone":"33476765467"}],"geoPoint":{"lat":45.20429,"lon":5.73645}},{"facility":"CHU Lille - Institut Coeur Poumon","status":"RECRUITING","city":"Lille Cedex","state":"Nord","zip":"59037","country":"France","contacts":[{"name":"Arnaud Scherpereel, Site 0052","role":"CONTACT","phone":"33320444998"}],"geoPoint":{"lat":50.63297,"lon":3.05858}},{"facility":"L Hopital Nord Ouest","status":"RECRUITING","city":"Gleize","state":"Rhône","zip":"69400","country":"France","contacts":[{"name":"LIONEL FALCHERO, Site 0044","role":"CONTACT","phone":"+33642346915"}],"geoPoint":{"lat":45.99082,"lon":4.70071}},{"facility":"Centre Hospitalier Lyon Sud","status":"RECRUITING","city":"Pierre-Bénite","state":"Rhône","zip":"69310","country":"France","contacts":[{"name":"Sebastien Couraud, Site 0051","role":"CONTACT","phone":"33478865924"}],"geoPoint":{"lat":45.7009,"lon":4.82511}},{"facility":"Centre Hospitalier Intercommunal de Créteil","status":"RECRUITING","city":"Créteil","state":"Val-de-Marne","zip":"94010","country":"France","contacts":[{"name":"Christos Chouaid, Site 0047","role":"CONTACT","phone":"33157022070"}],"geoPoint":{"lat":48.78333,"lon":2.46667}},{"facility":"Gustave Roussy","status":"RECRUITING","city":"Villejuif","state":"Val-de-Marne","zip":"94800","country":"France","contacts":[{"name":"Pernelle Lavaud, Site 0038","role":"CONTACT","phone":"000-000-0000"}],"geoPoint":{"lat":48.7939,"lon":2.35992}},{"facility":"Assistance Publique Hôpitaux de Marseille - Hôpital Nord","status":"RECRUITING","city":"Marseille","zip":"13915","country":"France","contacts":[{"name":"Laurent Greillier, Site 0043","role":"CONTACT","phone":"33491324400"}],"geoPoint":{"lat":43.29551,"lon":5.38958}},{"facility":"Institut Curie","status":"RECRUITING","city":"Paris","zip":"75248","country":"France","contacts":[{"name":"nicolas girard, Site 0050","role":"CONTACT","phone":"+33624456290"}],"geoPoint":{"lat":48.85341,"lon":2.3488}},{"facility":"Centre Hospitalier de Cornouaille Quimper - Concarneau","status":"RECRUITING","city":"Quimper","zip":"29000","country":"France","contacts":[{"name":"Romain Corre, Site 0215","role":"CONTACT","phone":"33899282481"}],"geoPoint":{"lat":48.0,"lon":-4.1}},{"facility":"Institut für Klinisch Onkologische Forschung","status":"RECRUITING","city":"Frankfurt","state":"Hessen","zip":"60488","country":"Germany","contacts":[{"name":"Akin Atmaca, Site 0256","role":"CONTACT","phone":"496976013297"}],"geoPoint":{"lat":50.11552,"lon":8.68417}},{"facility":"Pius Hospital Oldenburg","status":"RECRUITING","city":"Oldenburg","state":"Niedersachsen","zip":"26121","country":"Germany","contacts":[{"name":"Frank Griesinger, Site 0262","role":"CONTACT","phone":"494412291611"}],"geoPoint":{"lat":53.14118,"lon":8.21467}},{"facility":"Klinikum Köln-Merheim","status":"RECRUITING","city":"Köln","state":"Nordrhein-Westfalen","zip":"51109","country":"Germany","contacts":[{"name":"Eva-Lotte Buchmeier, Site 0261","role":"CONTACT","phone":"+49221890713962"}],"geoPoint":{"lat":50.93333,"lon":6.95}},{"facility":"Krankenhaus Martha-Maria Halle-Dölau","status":"RECRUITING","city":"Halle","state":"Sachsen-Anhalt","zip":"06120","country":"Germany","contacts":[{"name":"Miriam Moeller, Site 0265","role":"CONTACT","phone":"00493455591440"}],"geoPoint":{"lat":51.48159,"lon":11.97948}},{"facility":"Local Institution - 0257","status":"NOT_YET_RECRUITING","city":"Bad Berka","state":"Thüringen","zip":"99437","country":"Germany","contacts":[{"name":"Site 0257","role":"CONTACT"}],"geoPoint":{"lat":50.89982,"lon":11.28245}},{"facility":"Local Institution - 0263","status":"NOT_YET_RECRUITING","city":"Berlin","zip":"14165","country":"Germany","contacts":[{"name":"Site 0263","role":"CONTACT"}],"geoPoint":{"lat":52.52437,"lon":13.41053}},{"facility":"Asklepios Klinik Gauting GmbH","status":"RECRUITING","city":"Gauting","zip":"82131","country":"Germany","contacts":[{"name":"Niels Reinmuth, Site 0258","role":"CONTACT","phone":"004989857914001"}],"geoPoint":{"lat":48.06919,"lon":11.37703}},{"facility":"LungenClinic Grosshansdorf","status":"RECRUITING","city":"Grosshansdorf","zip":"22927","country":"Germany","contacts":[{"name":"Martin Reck, Site 0259","role":"CONTACT","phone":"041026012101"}],"geoPoint":{"lat":53.66667,"lon":10.28333}},{"facility":"Local Institution - 0260","status":"NOT_YET_RECRUITING","city":"Heidelberg","zip":"69126","country":"Germany","contacts":[{"name":"Site 0260","role":"CONTACT"}],"geoPoint":{"lat":49.40768,"lon":8.69079}},{"facility":"Robert Bosch Krankenhaus GmbH","status":"RECRUITING","city":"Stuttgart","zip":"70736","country":"Germany","contacts":[{"name":"Martin Kimmich, Site 0264","role":"CONTACT","phone":"4971181017719"}],"geoPoint":{"lat":48.78232,"lon":9.17702}},{"facility":"Errikos Dunant Hospital Center","status":"RECRUITING","city":"Athens","state":"Attikí","zip":"115 26","country":"Greece","contacts":[{"name":"IOANNIS MOUNTZIOS, Site 0063","role":"CONTACT","phone":"+306983519989"}],"geoPoint":{"lat":37.97945,"lon":23.71622}},{"facility":"Local Institution - 0064","status":"NOT_YET_RECRUITING","city":"Athens","state":"Attikí","zip":"115 27","country":"Greece","contacts":[{"name":"Site 0064","role":"CONTACT"}],"geoPoint":{"lat":37.97945,"lon":23.71622}},{"facility":"Local Institution - 0062","status":"NOT_YET_RECRUITING","city":"Thessaloniki","state":"Kentrikí Makedonía","zip":"540 07","country":"Greece","contacts":[{"name":"Site 0062","role":"CONTACT"}],"geoPoint":{"lat":40.64361,"lon":22.93086}},{"facility":"European Interbalkan Medical Center","status":"RECRUITING","city":"Thessaloniki","state":"Thessaloníki","zip":"570 01","country":"Greece","contacts":[{"name":"Sofia Baka, Site 0058","role":"CONTACT","phone":"306942608228"}],"geoPoint":{"lat":40.64361,"lon":22.93086}},{"facility":"Local Institution - 0059","status":"NOT_YET_RECRUITING","city":"Larissa","state":"Thessalía","zip":"41110","country":"Greece","contacts":[{"name":"Site 0059","role":"CONTACT"}],"geoPoint":{"lat":39.63689,"lon":22.41761}},{"facility":"Local Institution - 0278","status":"NOT_YET_RECRUITING","city":"New Delhi","state":"Delhi","zip":"110029","country":"India","contacts":[{"name":"Site 0278","role":"CONTACT"}],"geoPoint":{"lat":28.63576,"lon":77.22445}},{"facility":"Local Institution - 0274","status":"NOT_YET_RECRUITING","city":"Bengaluru","state":"Karnataka","zip":"560017","country":"India","contacts":[{"name":"Site 0274","role":"CONTACT"}],"geoPoint":{"lat":12.97194,"lon":77.59369}},{"facility":"Local Institution - 0271","status":"NOT_YET_RECRUITING","city":"Madurai","state":"Tamil Nadu","zip":"625107","country":"India","contacts":[{"name":"Site 0271","role":"CONTACT"}],"geoPoint":{"lat":9.91769,"lon":78.11898}},{"facility":"Local Institution - 0277","status":"NOT_YET_RECRUITING","city":"Varanasi","state":"Uttar Pradesh","zip":"221005","country":"India","contacts":[{"name":"Site 0277","role":"CONTACT"}],"geoPoint":{"lat":25.31668,"lon":83.01041}},{"facility":"Local Institution - 0273","status":"NOT_YET_RECRUITING","city":"Kolkata","state":"West Bengal","zip":"700094","country":"India","contacts":[{"name":"Site 0273","role":"CONTACT"}],"geoPoint":{"lat":22.56263,"lon":88.36304}},{"facility":"Istituto Nazionale Tumori IRCCS Fondazione Pascale","status":"RECRUITING","city":"Napoli","state":"Campania","zip":"80131","country":"Italy","contacts":[{"name":"Alessandro Morabito, Site 0072","role":"CONTACT","phone":"390817770291"}],"geoPoint":{"lat":40.85216,"lon":14.26811}},{"facility":"Local Institution - 0068","status":"NOT_YET_RECRUITING","city":"Milan","state":"Lombardia","zip":"20133","country":"Italy","contacts":[{"name":"Site 0068","role":"CONTACT"}],"geoPoint":{"lat":45.46427,"lon":9.18951}},{"facility":"Istituto Nazionale Tumori Regina Elena","status":"RECRUITING","city":"Rome","state":"Roma","zip":"00144","country":"Italy","contacts":[{"name":"Federico Cappuzzo, Site 0069","role":"CONTACT","phone":"390586223189"}],"geoPoint":{"lat":41.89193,"lon":12.51133}},{"facility":"Local Institution - 0110","status":"NOT_YET_RECRUITING","city":"Perugia","state":"Umbria","zip":"06132","country":"Italy","contacts":[{"name":"Site 0110","role":"CONTACT"}],"geoPoint":{"lat":43.1122,"lon":12.38878}},{"facility":"Casa di Cura Dott. Pederzoli","status":"RECRUITING","city":"Peschiera del Garda","state":"Verona","zip":"37019","country":"Italy","contacts":[{"name":"ANTONIO SANTO, Site 0070","role":"CONTACT","phone":"0456444843"}],"geoPoint":{"lat":45.43912,"lon":10.68614}},{"facility":"Local Institution - 0074","status":"NOT_YET_RECRUITING","city":"Bologna","zip":"40138","country":"Italy","contacts":[{"name":"Site 0074","role":"CONTACT"}],"geoPoint":{"lat":44.49381,"lon":11.33875}},{"facility":"Istituto Europeo di Oncologia IRCCS","status":"RECRUITING","city":"Milano","zip":"20141","country":"Italy","contacts":[{"name":"Filippo de Marinis, Site 0067","role":"CONTACT","phone":"390257489440"}],"geoPoint":{"lat":45.46427,"lon":9.18951}},{"facility":"National Hospital Organization Shikoku Cancer Center","status":"RECRUITING","city":"Matsuyama","state":"Ehime","zip":"791-0280","country":"Japan","contacts":[{"name":"Takashi Ninomiya, Site 0319","role":"CONTACT","phone":"+81899991111"}],"geoPoint":{"lat":33.83916,"lon":132.76574}},{"facility":"Kurume University Hospital","status":"RECRUITING","city":"Kurume","state":"Fukuoka","zip":"830-0011","country":"Japan","contacts":[{"name":"Koichi Azuma, Site 0292","role":"CONTACT","phone":"81942317629"}],"geoPoint":{"lat":33.31667,"lon":130.51667}},{"facility":"Hokkaido University Hospital","status":"RECRUITING","city":"Sapporo","state":"Hokkaido","zip":"0608648","country":"Japan","contacts":[{"name":"Yasuyuki Ikezawa, Site 0313","role":"CONTACT","phone":"011-706-5911"}],"geoPoint":{"lat":43.06667,"lon":141.35}},{"facility":"Kobe City Medical Center General Hospital","status":"RECRUITING","city":"Kobe-shi","state":"Hyogo","zip":"650-0047","country":"Japan","contacts":[{"name":"Yuki Sato, Site 0323","role":"CONTACT","phone":"0783024321"}],"geoPoint":{"lat":34.6913,"lon":135.183}},{"facility":"Kanazawa University Hospital","status":"RECRUITING","city":"Kanazawa","state":"Ishikawa","zip":"920-8641","country":"Japan","contacts":[{"name":"Seiji Yano, Site 0321","role":"CONTACT","phone":"81762652000"}],"geoPoint":{"lat":36.6,"lon":136.61667}},{"facility":"Kanagawa Cardiovascular and Respiratory Center","status":"RECRUITING","city":"Yokohama","state":"Kanagawa","zip":"236-0051","country":"Japan","contacts":[{"name":"Satoshi Ikeda, Site 0316","role":"CONTACT","phone":"0457019581"}],"geoPoint":{"lat":35.43333,"lon":139.65}},{"facility":"Sendai Kousei Hospital","status":"RECRUITING","city":"Sendai","state":"Miyagi","zip":"9810914","country":"Japan","contacts":[{"name":"Shunichi Sugawara, Site 0291","role":"CONTACT","phone":"81227288000"}],"geoPoint":{"lat":38.26667,"lon":140.86667}},{"facility":"Nara Medical University Hospital","status":"RECRUITING","city":"Kashihara city","state":"Nara","zip":"634-8522","country":"Japan","contacts":[{"name":"Masayuki Takeda, Site 0324","role":"CONTACT","phone":"81744223051"}],"geoPoint":{"lat":34.50896,"lon":135.7929}},{"facility":"Kurashiki Central Hospital","status":"RECRUITING","city":"Kurashiki","state":"Okayama","zip":"710-8602","country":"Japan","contacts":[{"name":"Yasushi Fukuda, Site 0328","role":"CONTACT","phone":"+8186-422-0210"}],"geoPoint":{"lat":34.58333,"lon":133.76667}},{"facility":"Kansai Medical University Hospital","status":"RECRUITING","city":"Hirakata","state":"Osaka","zip":"573-1191","country":"Japan","contacts":[{"name":"Takayasu Kurata, Site 0317","role":"CONTACT","phone":"81728042503"}],"geoPoint":{"lat":34.81352,"lon":135.64914}},{"facility":"Local Institution - 0314","status":"NOT_YET_RECRUITING","city":"Osakasayama","state":"Osaka","zip":"589-8511","country":"Japan","contacts":[{"name":"Site 0314","role":"CONTACT"}],"geoPoint":{"lat":34.69374,"lon":135.50218}},{"facility":"Osaka Medical and Pharmaceutical University Hospital","status":"RECRUITING","city":"Takatsuki","state":"Osaka","zip":"569-8686","country":"Japan","contacts":[{"name":"Yasuhito Fujisaka, Site 0325","role":"CONTACT","phone":"+81726831221"}],"geoPoint":{"lat":34.84833,"lon":135.61678}},{"facility":"Saitama Medical University International Medical Center","status":"RECRUITING","city":"Hidaka","state":"Saitama","zip":"350-1298","country":"Japan","contacts":[{"name":"Hiroshi Kagamu, Site 0320","role":"CONTACT","phone":"819014217189"}]},{"facility":"Local Institution - 0318","status":"NOT_YET_RECRUITING","city":"Ina-machi","state":"Saitama","zip":"362-0806","country":"Japan","contacts":[{"name":"Site 0318","role":"CONTACT"}]},{"facility":"Hamamatsu University Hospital","status":"RECRUITING","city":"Hamamatsu","state":"Shizuoka","zip":"431-3192","country":"Japan","contacts":[{"name":"Naoki Inui, Site 0322","role":"CONTACT","phone":"81534352356"}],"geoPoint":{"lat":34.7,"lon":137.73333}},{"facility":"Nippon Medical School Hospital","status":"RECRUITING","city":"Bunkyo-ku","state":"Tokyo","zip":"1138603","country":"Japan","contacts":[{"name":"Kazuo Kasahara, Site 0326","role":"CONTACT","phone":"81338222131"}],"geoPoint":{"lat":35.37517,"lon":139.92991}},{"facility":"The Cancer Institute Hospital of JFCR","status":"RECRUITING","city":"Koto","state":"Tokyo","zip":"135-8550","country":"Japan","contacts":[{"name":"Ryo Ariyasu, Site 0315","role":"CONTACT","phone":"81335200111"}],"geoPoint":{"lat":35.66667,"lon":139.81718}},{"facility":"Fukushima Medical University","status":"RECRUITING","city":"Fukushima","zip":"960-1295","country":"Japan","contacts":[{"name":"Hiroyuki Suzuki, Site 0327","role":"CONTACT","phone":"81245471111"}],"geoPoint":{"lat":37.75,"lon":140.46667}},{"facility":"Chungbuk National University Hospital","status":"RECRUITING","city":"Cheongju-si","state":"Chungcheongbuk-do [Chungbuk]","zip":"28644","country":"Korea, Republic of","contacts":[{"name":"Ki Hyeong Lee, Site 0305","role":"CONTACT","phone":"82432696015"}],"geoPoint":{"lat":36.63722,"lon":127.48972}},{"facility":"Local Institution - 0286","status":"NOT_YET_RECRUITING","city":"Seongnam","state":"Kyǒnggi-do","zip":"13620","country":"Korea, Republic of","contacts":[{"name":"Site 0286","role":"CONTACT"}],"geoPoint":{"lat":37.43861,"lon":127.13778}},{"facility":"Local Institution - 0304","status":"NOT_YET_RECRUITING","city":"Suwon-si","state":"Kyǒnggi-do","zip":"16499","country":"Korea, Republic of","contacts":[{"name":"Site 0304","role":"CONTACT"}],"geoPoint":{"lat":37.29111,"lon":127.00889}},{"facility":"Local Institution - 0285","status":"NOT_YET_RECRUITING","city":"Seoul","state":"Seoul-teukbyeolsi [Seoul]","zip":"03722","country":"Korea, Republic of","contacts":[{"name":"Site 0285","role":"CONTACT"}],"geoPoint":{"lat":37.566,"lon":126.9784}},{"facility":"Local Institution - 0293","status":"NOT_YET_RECRUITING","city":"Seoul","state":"Seoul-teukbyeolsi [Seoul]","zip":"05505","country":"Korea, Republic of","contacts":[{"name":"Site 0293","role":"CONTACT"}],"geoPoint":{"lat":37.566,"lon":126.9784}},{"facility":"Local Institution - 0309","status":"NOT_YET_RECRUITING","city":"Daegu","state":"Taegu-Kwangyǒkshi","zip":"42601","country":"Korea, Republic of","contacts":[{"name":"Site 0309","role":"CONTACT"}],"geoPoint":{"lat":35.87028,"lon":128.59111}},{"facility":"Local Institution - 0311","status":"NOT_YET_RECRUITING","city":"Kuching","state":"Sarawak","zip":"93586","country":"Malaysia","contacts":[{"name":"Site 0311","role":"CONTACT"}],"geoPoint":{"lat":1.54999,"lon":110.33333}},{"facility":"Local Institution - 0310","status":"NOT_YET_RECRUITING","city":"Kuala Lumpur","state":"Wilayah Persekutuan Kuala Lumpur","zip":"50586","country":"Malaysia","contacts":[{"name":"Site 0310","role":"CONTACT"}],"geoPoint":{"lat":3.1412,"lon":101.68653}},{"facility":"Local Institution - 0312","status":"NOT_YET_RECRUITING","city":"Kuala Lumpur","state":"Wilayah Persekutuan Kuala Lumpur","zip":"50603","country":"Malaysia","contacts":[{"name":"Site 0312","role":"CONTACT"}],"geoPoint":{"lat":3.1412,"lon":101.68653}},{"facility":"Local Institution - 0148","status":"NOT_YET_RECRUITING","city":"Pachuca","state":"Hidalgo","zip":"42000","country":"Mexico","contacts":[{"name":"Site 0148","role":"CONTACT"}],"geoPoint":{"lat":20.11697,"lon":-98.73329}},{"facility":"Local Institution - 0146","status":"NOT_YET_RECRUITING","city":"Guadalajara","state":"Jalisco","zip":"44630","country":"Mexico","contacts":[{"name":"Site 0146","role":"CONTACT"}],"geoPoint":{"lat":20.66682,"lon":-103.39182}},{"facility":"Local Institution - 0147","status":"NOT_YET_RECRUITING","city":"Monterrey","state":"Nuevo León","zip":"66460","country":"Mexico","contacts":[{"name":"Site 0147","role":"CONTACT"}],"geoPoint":{"lat":25.67507,"lon":-100.31847}},{"facility":"Local Institution - 0145","status":"NOT_YET_RECRUITING","city":"Puebla","zip":"72424","country":"Mexico","contacts":[{"name":"Site 0145","role":"CONTACT"}],"geoPoint":{"lat":19.03793,"lon":-98.20346}},{"facility":"Local Institution - 0097","status":"NOT_YET_RECRUITING","city":"Amsterdam","state":"Noord-Holland","zip":"1081 HV","country":"Netherlands","contacts":[{"name":"Site 0097","role":"CONTACT"}],"geoPoint":{"lat":52.37403,"lon":4.88969}},{"facility":"Local Institution - 0099","status":"NOT_YET_RECRUITING","city":"Arnhem","zip":"6815 AD","country":"Netherlands","contacts":[{"name":"Site 0099","role":"CONTACT"}],"geoPoint":{"lat":51.98,"lon":5.91111}},{"facility":"University Medical Center Groningen","status":"RECRUITING","city":"Groningen","zip":"9713 GZ","country":"Netherlands","contacts":[{"name":"T.Jeroen Hiltermann, Site 0098","role":"CONTACT","phone":"(3150)361-3532"}],"geoPoint":{"lat":53.21917,"lon":6.56667}},{"facility":"Szpital Specjalistyczny w Prabutach Spolka z o.o.","status":"RECRUITING","city":"Prabuty","state":"Pomorskie","zip":"82-550","country":"Poland","contacts":[{"name":"Anna Lowczak, Site 0192","role":"CONTACT","phone":"+48503022396"}],"geoPoint":{"lat":53.755,"lon":19.20547}},{"facility":"Przychodnia Lekarska KOMED","status":"RECRUITING","city":"Konin","state":"Wielkopolskie","zip":"62-500","country":"Poland","contacts":[{"name":"Boguslawa Karaszewska, Site 0193","role":"CONTACT","phone":"48632428009"}],"geoPoint":{"lat":52.22338,"lon":18.25121}},{"facility":"Pratia Poznań","status":"RECRUITING","city":"Poznań","state":"Wielkopolskie","zip":"60-192","country":"Poland","contacts":[{"name":"Marek Kotlarski, Site 0241","role":"CONTACT","phone":"512491461"}],"geoPoint":{"lat":52.40692,"lon":16.92993}},{"facility":"Centrum Onkologii im. Prof. Franciszka Lukaszczyka","status":"RECRUITING","city":"Bydgoszcz","zip":"85796","country":"Poland","contacts":[{"name":"Bogdan Zurawski, Site 0195","role":"CONTACT","phone":"48501446778"}],"geoPoint":{"lat":53.1235,"lon":18.00762}},{"facility":"Instytut Centrum Zdrowia Matki Polki","status":"RECRUITING","city":"Łódź","state":"Łódzkie","zip":"93-338","country":"Poland","contacts":[{"name":"Ewa Kalinka, Site 0189","role":"CONTACT","phone":"+48530770073"}],"geoPoint":{"lat":51.75,"lon":19.46667}},{"facility":"SC Memorial Healthcare International SRL","status":"RECRUITING","city":"Bucharest","state":"București","zip":"013812","country":"Romania","contacts":[{"name":"Ingrid Iordan, Site 0133","role":"CONTACT","phone":"40721298677"}],"geoPoint":{"lat":44.43225,"lon":26.10626}},{"facility":"Institutul Oncologic Bucuresti","status":"RECRUITING","city":"Bucharest","state":"București","zip":"022328","country":"Romania","contacts":[{"name":"Aurelia Alexandru, Site 0135","role":"CONTACT","phone":"40723289606"}],"geoPoint":{"lat":44.43225,"lon":26.10626}},{"facility":"SC Radiotherapy Center Cluj SRL","status":"RECRUITING","city":"Florești","state":"Cluj","zip":"407280","country":"Romania","contacts":[{"name":"Andrei Ungureanu, Site 0137","role":"CONTACT","phone":"40742206212"}],"geoPoint":{"lat":45.05,"lon":25.78333}},{"facility":"Centrul de Oncologie \"Sfântul Nectarie\"","status":"RECRUITING","city":"Craiova","state":"Dolj","zip":"200542","country":"Romania","contacts":[{"name":"Michael Schenker, Site 0140","role":"CONTACT","phone":"40727774974"}],"geoPoint":{"lat":44.31667,"lon":23.8}},{"facility":"Institutul Oncologic Cluj","status":"RECRUITING","city":"Cluj","zip":"400015","country":"Romania","contacts":[{"name":"Tudor Ciuleanu, Site 0141","role":"CONTACT","phone":"40745646368"}],"geoPoint":{"lat":46.76667,"lon":23.6}},{"facility":"S.C. Centrul de Oncologie Euroclinic S.R.L.","status":"RECRUITING","city":"Iași","zip":"700106","country":"Romania","contacts":[{"name":"Constantin Volovat, Site 0139","role":"CONTACT","phone":"40746110096"}],"geoPoint":{"lat":47.16667,"lon":27.6}},{"facility":"Institutul Regional de Oncologie","status":"RECRUITING","city":"Iași","zip":"700483","country":"Romania","contacts":[{"name":"Dana Clement, Site 0132","role":"CONTACT","phone":"40744692062"}],"geoPoint":{"lat":47.16667,"lon":27.6}},{"facility":"CHUS - Hospital Clinico Universitario","status":"RECRUITING","city":"Santiago de Compostela","state":"A Coruña [La Coruña]","zip":"15706","country":"Spain","contacts":[{"name":"Jorge Garcia Gonzalez, Site 0300","role":"CONTACT","phone":"34981950511"}],"geoPoint":{"lat":42.88052,"lon":-8.54569}},{"facility":"Hospital Clínic de Barcelona","status":"RECRUITING","city":"Barcelona","state":"Catalunya [Cataluña]","zip":"08036","country":"Spain","contacts":[{"name":"Alejandro Navarro Mendivil, Site 0294","role":"CONTACT","phone":"34934894158"}],"geoPoint":{"lat":41.38879,"lon":2.15899}},{"facility":"Hospital de la Santa Creu i Sant Pau","status":"RECRUITING","city":"Barcelona","state":"Catalunya [Cataluña]","zip":"08041","country":"Spain","contacts":[{"name":"Margarita Majem Tarruella, Site 0302","role":"CONTACT","phone":"34935565651"}],"geoPoint":{"lat":41.38879,"lon":2.15899}},{"facility":"Hospital Universitario de Jaen","status":"RECRUITING","city":"Jaen","state":"Jaén","zip":"23007","country":"Spain","contacts":[{"name":"Ana Laura Ortega Granados, Site 0301","role":"CONTACT","phone":"0034953220306"}],"geoPoint":{"lat":37.76922,"lon":-3.79028}},{"facility":"Hospital Universitario Ramón y Cajal","status":"RECRUITING","city":"Madrid","state":"Madrid, Comunidad De","zip":"28034","country":"Spain","contacts":[{"name":"Maria Eugenia Olmedo Garcia, Site 0298","role":"CONTACT","phone":"34913368263"}],"geoPoint":{"lat":40.4165,"lon":-3.70256}},{"facility":"Hospital Universitario 12 de Octubre","status":"RECRUITING","city":"Madrid","state":"Madrid, Comunidad De","zip":"28041","country":"Spain","contacts":[{"name":"Luis Paz-Ares Rodriguez, Site 0296","role":"CONTACT","phone":"0034913908922"}],"geoPoint":{"lat":40.4165,"lon":-3.70256}},{"facility":"Hospital Universitario Puerta de Hierro Majadahonda","status":"RECRUITING","city":"Majadahonda","state":"Madrid, Comunidad De","zip":"28222","country":"Spain","contacts":[{"name":"Mariano Provencio Pulla, Site 0297","role":"CONTACT","phone":"34911917759"}],"geoPoint":{"lat":40.47353,"lon":-3.87182}},{"facility":"Hospital General Universitario de Valencia","status":"RECRUITING","city":"Valencia","state":"Valenciana, Comunitat","zip":"46014","country":"Spain","contacts":[{"name":"Paula Espinosa Olarte, Site 0303","role":"CONTACT","phone":"34963187527"}],"geoPoint":{"lat":39.46975,"lon":-0.37739}},{"facility":"Local Institution - 0299","status":"NOT_YET_RECRUITING","city":"Sevilla","zip":"41009","country":"Spain","contacts":[{"name":"Site 0299","role":"CONTACT"}],"geoPoint":{"lat":37.38283,"lon":-5.97317}},{"facility":"Hospital Universitario Virgen Del Rocio","status":"RECRUITING","city":"Sevilla","zip":"41013","country":"Spain","contacts":[{"name":"Reyes Bernabe Caro, Site 0295","role":"CONTACT","phone":"34955015273"}],"geoPoint":{"lat":37.38283,"lon":-5.97317}},{"facility":"Kantonsspital Graubünden","status":"RECRUITING","city":"Chur","zip":"7000","country":"Switzerland","contacts":[{"name":"Michael Mark, Site 0248","role":"CONTACT","phone":"0041812566646"}],"geoPoint":{"lat":46.84986,"lon":9.53287}},{"facility":"Kantonsspital Winterthur","status":"RECRUITING","city":"Winterthur","zip":"8401","country":"Switzerland","contacts":[{"name":"Laetitia Mauti, Site 0249","role":"CONTACT","phone":"41522662552"}],"geoPoint":{"lat":47.50564,"lon":8.72413}},{"facility":"UniversitätsSpital Zürich","status":"RECRUITING","city":"Zürich","zip":"8091","country":"Switzerland","contacts":[{"name":"Ulrich Richter, Site 0247","role":"CONTACT","phone":"+41432532265"}],"geoPoint":{"lat":47.36667,"lon":8.54999}},{"facility":"Local Institution - 0158","status":"NOT_YET_RECRUITING","city":"Cigli","state":"İzmir","zip":"35620","country":"Turkey","contacts":[{"name":"Site 0158","role":"CONTACT"}]},{"facility":"Local Institution - 0154","status":"NOT_YET_RECRUITING","city":"Adana","zip":"01370","country":"Turkey","contacts":[{"name":"Site 0154","role":"CONTACT"}],"geoPoint":{"lat":37.00167,"lon":35.32889}},{"facility":"Local Institution - 0157","status":"NOT_YET_RECRUITING","city":"Ankara","zip":"06010","country":"Turkey","contacts":[{"name":"Site 0157","role":"CONTACT"}],"geoPoint":{"lat":39.91987,"lon":32.85427}},{"facility":"Local Institution - 0177","status":"NOT_YET_RECRUITING","city":"Ankara","zip":"06280","country":"Turkey","contacts":[{"name":"Site 0177","role":"CONTACT"}],"geoPoint":{"lat":39.91987,"lon":32.85427}},{"facility":"Local Institution - 0153","status":"NOT_YET_RECRUITING","city":"Istanbul","zip":"34732","country":"Turkey","contacts":[{"name":"Site 0153","role":"CONTACT"}],"geoPoint":{"lat":41.01384,"lon":28.94966}},{"facility":"Local Institution - 0197","status":"NOT_YET_RECRUITING","city":"London","state":"London, City Of","zip":"SE1 9RT","country":"United Kingdom","contacts":[{"name":"Site 0197","role":"CONTACT"}],"geoPoint":{"lat":51.50853,"lon":-0.12574}},{"facility":"Local Institution - 0183","status":"NOT_YET_RECRUITING","city":"Central Middlesbrough","state":"Middlesbrough","zip":"TS4 3BW","country":"United Kingdom","contacts":[{"name":"Site 0183","role":"CONTACT"}]},{"facility":"Aberdeen Royal Infirmary","status":"RECRUITING","city":"Aberdeen","zip":"AB9 2ZB","country":"United Kingdom","contacts":[{"name":"Gillian Price, Site 0159","role":"CONTACT","phone":"441224553500"}],"geoPoint":{"lat":57.14369,"lon":-2.09814}},{"facility":"Local Institution - 0108","status":"NOT_YET_RECRUITING","city":"Leicester","zip":"LE1 5WW","country":"United Kingdom","contacts":[{"name":"Site 0108","role":"CONTACT"}],"geoPoint":{"lat":52.6386,"lon":-1.13169}},{"facility":"The Christie NHS Foundation Trust","status":"RECRUITING","city":"Manchester","zip":"M20 4BX","country":"United Kingdom","contacts":[{"name":"Raffaele Califano, Site 0101","role":"CONTACT","phone":"441614463745"}],"geoPoint":{"lat":53.48095,"lon":-2.23743}},{"facility":"The Clatterbridge Cancer Centre","status":"RECRUITING","city":"Wirral","zip":"CH63 4JY","country":"United Kingdom","contacts":[{"name":"Carles Escriu, Site 0226","role":"CONTACT","phone":"447887844080"}],"geoPoint":{"lat":53.37616,"lon":-3.10501}}]},"referencesModule":{"seeAlsoLinks":[{"label":"BMS Clinical Trial Information","url":"https://www.bms.com/researchers-and-partners/clinical-trials-and-research.html"},{"label":"BMS Clinical Trial Patient Recruiting","url":"https://www.bmsclinicaltrials.com/us/en/clinical-trials/NCT06646276.html"}]},"ipdSharingStatementModule":{"ipdSharing":"YES","description":"BMS will provide access to individual anonymized participant data upon request from qualified researchers, and subject to certain criteria. Additional information regarding Bristol-Myers Squibb's data sharing policy and process can be found at: https://www.bms.com/researchers-and-partners/clinical-trials-and-research/disclosure-commitment.html","infoTypes":["STUDY_PROTOCOL","SAP","CSR"],"timeFrame":"See plan description","accessCriteria":"See plan description","url":"https://www.bms.com/researchers-and-partners/clinical-trials-and-research/disclosure-commitment.html"}},"derivedSection":{"miscInfoModule":{"versionHolder":"2025-07-07"},"conditionBrowseModule":{"meshes":[{"id":"D008175","term":"Lung Neoplasms"},{"id":"D055752","term":"Small Cell Lung Carcinoma"}],"ancestors":[{"id":"D012142","term":"Respiratory Tract Neoplasms"},{"id":"D013899","term":"Thoracic Neoplasms"},{"id":"D009371","term":"Neoplasms by Site"},{"id":"D009369","term":"Neoplasms"},{"id":"D008171","term":"Lung Diseases"},{"id":"D012140","term":"Respiratory Tract Diseases"},{"id":"D002283","term":"Carcinoma, Bronchogenic"},{"id":"D001984","term":"Bronchial Neoplasms"}],"browseLeaves":[{"id":"M11172","name":"Lung Neoplasms","asFound":"Lung Cancer","relevance":"HIGH"},{"id":"M28323","name":"Small Cell Lung Carcinoma","asFound":"Small Cell Lung Cancer","relevance":"HIGH"},{"id":"M5534","name":"Carcinoma","relevance":"LOW"},{"id":"M14979","name":"Respiratory Tract Neoplasms","relevance":"LOW"},{"id":"M16658","name":"Thoracic Neoplasms","relevance":"LOW"},{"id":"M11168","name":"Lung Diseases","relevance":"LOW"},{"id":"M14977","name":"Respiratory Tract Diseases","relevance":"LOW"},{"id":"M5540","name":"Carcinoma, Bronchogenic","relevance":"LOW"},{"id":"M5260","name":"Bronchial Neoplasms","relevance":"LOW"},{"id":"T5271","name":"Small Cell Lung Cancer","asFound":"Small Cell Lung Cancer","relevance":"HIGH"}],"browseBranches":[{"abbrev":"BC04","name":"Neoplasms"},{"abbrev":"BC08","name":"Respiratory Tract (Lung and Bronchial) Diseases"},{"abbrev":"All","name":"All Conditions"},{"abbrev":"Rare","name":"Rare Diseases"}]},"interventionBrowseModule":{"meshes":[{"id":"D016190","term":"Carboplatin"},{"id":"D000077594","term":"Nivolumab"},{"id":"D005047","term":"Etoposide"},{"id":"C000594389","term":"Atezolizumab"}],"ancestors":[{"id":"D000970","term":"Antineoplastic Agents"},{"id":"D000074322","term":"Antineoplastic Agents, Immunological"},{"id":"D000082082","term":"Immune Checkpoint Inhibitors"},{"id":"D045504","term":"Molecular Mechanisms of Pharmacological Action"},{"id":"D000972","term":"Antineoplastic Agents, Phytogenic"},{"id":"D059005","term":"Topoisomerase II Inhibitors"},{"id":"D059003","term":"Topoisomerase Inhibitors"},{"id":"D004791","term":"Enzyme Inhibitors"}],"browseLeaves":[{"id":"M18650","name":"Carboplatin","asFound":"Total","relevance":"HIGH"},{"id":"M1854","name":"Nivolumab","asFound":"Application","relevance":"HIGH"},{"id":"M349417","name":"Atezolizumab","asFound":"Acupuncture","relevance":"HIGH"},{"id":"M8191","name":"Etoposide","asFound":"Information","relevance":"HIGH"},{"id":"M341643","name":"Etoposide phosphate","relevance":"LOW"},{"id":"M1346","name":"Antineoplastic Agents, Immunological","relevance":"LOW"},{"id":"M2342","name":"Immune Checkpoint Inhibitors","relevance":"LOW"},{"id":"M7951","name":"Enzyme Inhibitors","relevance":"LOW"}],"browseBranches":[{"abbrev":"ANeo","name":"Antineoplastic Agents"},{"abbrev":"All","name":"All Drugs and Chemicals"}]}},"hasResults":false}