{"protocolSection":{"identificationModule":{"nctId":"NCT05894239","orgStudyIdInfo":{"id":"WO44263"},"secondaryIdInfos":[{"id":"2022-502046-28-00","type":"REGISTRY","domain":"EU Clinical Trials"}],"organization":{"fullName":"Hoffmann-La Roche","class":"INDUSTRY"},"briefTitle":"A Study to Evaluate the Efficacy and Safety of Inavolisib in Combination With Phesgo Versus Placebo in Combination With Phesgo in Participants With PIK3CA-Mutated HER2-Positive Locally Advanced or Metastatic Breast Cancer","officialTitle":"A Phase III, Multicenter, Randomized, Double-Blind, Placebo-Controlled Study Evaluating the Efficacy and Safety of Inavolisib in Combination With Phesgo Versus Placebo in Combination With Phesgo As Maintenance Therapy After First Line Induction Therapy in Participants With PIK3CA-Mutated HER2-Positive Locally Advanced or Metastatic Breast Cancer","acronym":"INAVO122"},"statusModule":{"statusVerifiedDate":"2025-07","overallStatus":"RECRUITING","expandedAccessInfo":{"hasExpandedAccess":false},"startDateStruct":{"date":"2023-09-08","type":"ACTUAL"},"primaryCompletionDateStruct":{"date":"2026-09-28","type":"ESTIMATED"},"completionDateStruct":{"date":"2032-12-28","type":"ESTIMATED"},"studyFirstSubmitDate":"2023-05-24","studyFirstSubmitQcDate":"2023-06-07","studyFirstPostDateStruct":{"date":"2023-06-08","type":"ACTUAL"},"lastUpdateSubmitDate":"2025-07-03","lastUpdatePostDateStruct":{"date":"2025-07-04","type":"ACTUAL"}},"sponsorCollaboratorsModule":{"responsibleParty":{"type":"SPONSOR"},"leadSponsor":{"name":"Hoffmann-La Roche","class":"INDUSTRY"}},"oversightModule":{"oversightHasDmc":true,"isFdaRegulatedDrug":true,"isFdaRegulatedDevice":false},"descriptionModule":{"briefSummary":"This study will evaluate the efficacy and safety of inavolisib in combination with Phesgo (pertuzumab, trastuzumab, and rHuPH20 injection for subcutaneous use) compared with placebo in combination with Phesgo, as maintenance therapy, after induction therapy in participants with previously untreated HER2-positive advanced breast cancer (ABC)."},"conditionsModule":{"conditions":["Metastatic Breast Cancer"]},"designModule":{"studyType":"INTERVENTIONAL","phases":["PHASE3"],"designInfo":{"allocation":"RANDOMIZED","interventionModel":"PARALLEL","primaryPurpose":"TREATMENT","maskingInfo":{"masking":"DOUBLE","whoMasked":["PARTICIPANT","INVESTIGATOR"]}},"enrollmentInfo":{"count":230,"type":"ESTIMATED"}},"armsInterventionsModule":{"armGroups":[{"label":"Induction Therapy: Phesgo plus Taxane-Based Chemotherapy","type":"OTHER","description":"Participants will be administered the treatments as outlined in the interventions section.","interventionNames":["Drug: Phesgo","Drug: Taxane-based Chemotherapy"]},{"label":"Maintenance Therapy: Inavolisib plus Phesgo","type":"EXPERIMENTAL","description":"Participants will be administered the treatments as outlined in the interventions section.","interventionNames":["Drug: Inavolisib","Drug: Phesgo","Drug: Optional Endocrine Therapy of Investigator's Choice"]},{"label":"Maintenance Therapy: Placebo plus Phesgo","type":"ACTIVE_COMPARATOR","description":"Participants will be administered the treatments as outlined in the interventions section.","interventionNames":["Drug: Phesgo","Drug: Placebo","Drug: Optional Endocrine Therapy of Investigator's Choice"]}],"interventions":[{"type":"DRUG","name":"Inavolisib","description":"Participants will receive an inavolisib tablet to be taken orally (PO), once a day (QD), on Days 1-21 of each 21-day cycle, beginning on Day (D) 1 of Cycle (C) 1 of maintenance treatment.","armGroupLabels":["Maintenance Therapy: Inavolisib plus Phesgo"]},{"type":"DRUG","name":"Phesgo","description":"Phesgo will be administered to participants subcutaneously every 3 weeks (Q3W) on D1 of each 21-day cycle.","armGroupLabels":["Induction Therapy: Phesgo plus Taxane-Based Chemotherapy","Maintenance Therapy: Inavolisib plus Phesgo","Maintenance Therapy: Placebo plus Phesgo"]},{"type":"DRUG","name":"Placebo","description":"Inavolisib-matching tablet taken PO QD on Days 1-21 of each 21-day cycle, beginning on D1 C1 of maintenance treatment.","armGroupLabels":["Maintenance Therapy: Placebo plus Phesgo"]},{"type":"DRUG","name":"Taxane-based Chemotherapy","description":"During the induction therapy phase, the investigator's choice of taxane-based chemotherapy will be administered after Phesgo.","armGroupLabels":["Induction Therapy: Phesgo plus Taxane-Based Chemotherapy"],"otherNames":["non-investigational medicinal product (NIMP)"]},{"type":"DRUG","name":"Optional Endocrine Therapy of Investigator's Choice","description":"Optional endocrine therapy (ET) is allowed at the discretion of the investigator, based on the standard of care. Allowed ETs are tamoxifen, or one of the specified third-generation aromatase inhibitor (AI \\[anastrozole, letrozole, or exemestane\\]), or fulvestrant. The investigator will determine and supply the appropriate luteinizing hormone-releasing hormone (LHRH) agonist locally approved for use in breast cancer. The LHRH agonist will be administered according to local prescribing information.","armGroupLabels":["Maintenance Therapy: Inavolisib plus Phesgo","Maintenance Therapy: Placebo plus Phesgo"],"otherNames":["NIMP"]}]},"outcomesModule":{"primaryOutcomes":[{"measure":"Investigator-Assessed Progression-Free Survival (PFS)","timeFrame":"Up to approximately 40 months"}],"secondaryOutcomes":[{"measure":"Overall Survival (OS)","timeFrame":"Up to approximately 111 months"},{"measure":"Investigator-Assessed Objective Response Rate (ORR)","timeFrame":"Up to approximately 111 months"},{"measure":"Investigator-Assessed Duration of Response (DOR)","timeFrame":"Up to approximately 111 months"},{"measure":"Investigator-Assessed Clinical Benefit Rate (CBR)","timeFrame":"Up to approximately 111 months"},{"measure":"Investigator-Assessed PFS2","timeFrame":"Up to approximately 111 months"},{"measure":"Mean and Mean Changes from Baseline Score in Function and Health-Related Quality of Life (HRQoL)","description":"Assessed through the use of the Functional (Role, Physical) and Global Health Status (GHS)/Quality of Life (QoL) scales of the European Organisation for Research and Treatment of Cancer Quality of Life-Core 30 Questionnaire (EORTC QLQ-C30)","timeFrame":"Day 1 of Cycles 1 and 2 and beyond, 30-day safety follow up visit, post-treatment tumor assessment follow-up with PRO collection and survival follow up visit every 6 months (up to 111 months). Each cycle is 21 days."},{"measure":"Percentage of Participants with Adverse Events","timeFrame":"Day 1 until 30 days after the final dose of study treatment (up to approximately 111 months). Each cycle is 21 days."},{"measure":"Plasma Concentration of Inavolisib at Specified Timepoints","timeFrame":"Day 1 of Cycles 1 and 4. Each cycle is 21 days."}]},"eligibilityModule":{"eligibilityCriteria":"Inclusion Criteria:\n\n* Eastern Cooperative Oncology Group (ECOG) Performance Status 0 or 1\n* Histologically or cytologically confirmed and documented adenocarcinoma of the breast with metastatic or locally advanced disease not amenable to curative resection\n* Confirmation of HER2 biomarker eligibility based on valid results from central testing of tumor tissue documenting HER2-positivity\n* Confirmation of PIK3CA-mutation biomarker eligibility based on valid results from central testing of tumor tissue documenting PIK3CA-mutated tumor status\n* Disease-free interval from completion of adjuvant or neoadjuvant systemic non-hormonal treatment to recurrence of \\>= 6 months\n* LVEF (left ventricular ejection fraction) of at least 50% measured by echocardiogram (ECHO) or multiple-gated acquisition scan (MUGA)\n* Adequate hematologic and organ function prior to initiation of study treatment\n\nExclusion Criteria:\n\n* Prior treatment in the locally advanced or metastatic setting with any PI3K, AKT, or mTOR inhibitor or any agent whose mechanism of action is to inhibit the PI3K-AKT-mTOR pathway\n* Any prior systemic non-hormonal anti-cancer therapy for locally advanced or metastatic HER2-positive breast cancer prior to initiation of induction therapy\n* History or active inflammatory bowel disease\n* Disease progression within 6 months of receiving any HER2-targeted therapy\n* Type 2 diabetes requiring ongoing systemic treatment at the time of study entry; or any history of Type 1 diabetes\n* Participants with active HBV infection\n* Clinically significant and active liver disease, including severe liver impairment, viral or other hepatitis, current alcohol abuse, or cirrhosis\n* Symptomatic active lung disease, including pneumonitis or interstitial lung disease\n* Any history of leptomeningeal disease or carcinomatous meningitis\n* Serious infection requiring IV antibiotics within 7 days prior to Day 1 of Cycle 1\n* Any concurrent ocular or intraocular condition that, in the opinion of the investigator, would require medical or surgical intervention during the study period to prevent or treat vision loss that might result from that condition\n* Active inflammatory or infectious conditions in either eye or history of idiopathic or autoimmune-associated uveitis in either eye","healthyVolunteers":false,"sex":"ALL","minimumAge":"18 Years","stdAges":["ADULT","OLDER_ADULT"]},"contactsLocationsModule":{"centralContacts":[{"name":"Reference Study ID Number: WO44263 https://forpatients.roche.com/","role":"CONTACT","phone":"888-662-6728 (U.S. Only)","email":"global-roche-genentech-trials@gene.com"}],"overallOfficials":[{"name":"Clinical Trials","affiliation":"Hoffmann-La Roche","role":"STUDY_DIRECTOR"}],"locations":[{"facility":"Banner Health MD Anderson AZ","status":"RECRUITING","city":"Gilbert","state":"Arizona","zip":"85234","country":"United States","geoPoint":{"lat":33.35283,"lon":-111.78903}},{"facility":"Disney Family Cancer Center","status":"RECRUITING","city":"Burbank","state":"California","zip":"91505","country":"United States","geoPoint":{"lat":34.18084,"lon":-118.30897}},{"facility":"Ellison Institute of Technology","status":"RECRUITING","city":"Los Angeles","state":"California","zip":"90064","country":"United States","geoPoint":{"lat":34.05223,"lon":-118.24368}},{"facility":"Georgetown Uni Hospital","status":"RECRUITING","city":"Washington","state":"District of Columbia","zip":"20007","country":"United States","geoPoint":{"lat":38.89511,"lon":-77.03637}},{"facility":"Medstar Research Institute","status":"RECRUITING","city":"Hyattsville","state":"Maryland","zip":"20783","country":"United States","geoPoint":{"lat":38.95594,"lon":-76.94553}},{"facility":"Dana Farber Cancer Institute","status":"RECRUITING","city":"Boston","state":"Massachusetts","zip":"02215","country":"United States","geoPoint":{"lat":42.35843,"lon":-71.05977}},{"facility":"Henry Ford Hospital","status":"RECRUITING","city":"Detroit","state":"Michigan","zip":"48202","country":"United States","geoPoint":{"lat":42.33143,"lon":-83.04575}},{"facility":"Renown Regional Medical Center","status":"RECRUITING","city":"Reno","state":"Nevada","zip":"89502","country":"United States","geoPoint":{"lat":39.52963,"lon":-119.8138}},{"facility":"Hackensack University Medical Center","status":"RECRUITING","city":"Hackensack","state":"New Jersey","zip":"07601","country":"United States","geoPoint":{"lat":40.88593,"lon":-74.04347}},{"facility":"Atrium Health","status":"RECRUITING","city":"Charlotte","state":"North Carolina","zip":"28209","country":"United States","geoPoint":{"lat":35.22709,"lon":-80.84313}},{"facility":"Hightower Clinical","status":"RECRUITING","city":"Oklahoma City","state":"Oklahoma","zip":"73102","country":"United States","geoPoint":{"lat":35.46756,"lon":-97.51643}},{"facility":"Renovatio Clinical - El Paso","status":"RECRUITING","city":"El Paso","state":"Texas","zip":"79915","country":"United States","geoPoint":{"lat":31.75872,"lon":-106.48693}},{"facility":"JPS Health Network","status":"RECRUITING","city":"Fort Worth","state":"Texas","zip":"76104","country":"United States","geoPoint":{"lat":32.72541,"lon":-97.32085}},{"facility":"Lumi Research","status":"WITHDRAWN","city":"Kingwood","state":"Texas","zip":"77339","country":"United States","geoPoint":{"lat":30.03355,"lon":-95.26104}},{"facility":"Renovatio Clinical","status":"RECRUITING","city":"The Woodlands","state":"Texas","zip":"77380","country":"United States","geoPoint":{"lat":30.15799,"lon":-95.48938}},{"facility":"Kadlec Clinic Hematology and Oncology","status":"RECRUITING","city":"Kennewick","state":"Washington","zip":"99336-7774","country":"United States","geoPoint":{"lat":46.21125,"lon":-119.13723}},{"facility":"Swedish Medical Center","status":"RECRUITING","city":"Seattle","state":"Washington","zip":"98104-1360","country":"United States","geoPoint":{"lat":47.60621,"lon":-122.33207}},{"facility":"Fundación CENIT para la Investigación en Neurociencias","status":"ACTIVE_NOT_RECRUITING","city":"Buenos Aires","zip":"C1125ABD","country":"Argentina","geoPoint":{"lat":-34.61315,"lon":-58.37723}},{"facility":"Centro Oncologico Korben","status":"RECRUITING","city":"Ciudad Autonoma Buenos Aires","zip":"C1426AGE","country":"Argentina","geoPoint":{"lat":-34.61315,"lon":-58.37723}},{"facility":"Instituto de Oncología de Rosario","status":"RECRUITING","city":"Rosario","zip":"S2000KZE","country":"Argentina","geoPoint":{"lat":-32.94682,"lon":-60.63932}},{"facility":"Hospital Provincial del Centenario","status":"RECRUITING","city":"Rosario","zip":"S2002KDS","country":"Argentina","geoPoint":{"lat":-32.94682,"lon":-60.63932}},{"facility":"CER San Juan Centro Polivalente de Asistencia e Investigacion Clinica","status":"RECRUITING","city":"San Juan","zip":"J5400DIL","country":"Argentina","geoPoint":{"lat":-31.5375,"lon":-68.53639}},{"facility":"Clínica Viedma","status":"RECRUITING","city":"Viedma Rio Negro","zip":"R8500ACE","country":"Argentina"},{"facility":"Blacktown Hospital","status":"RECRUITING","city":"Blacktown","state":"New South Wales","zip":"2148","country":"Australia","geoPoint":{"lat":-33.76667,"lon":150.91667}},{"facility":"Kinghorn Cancer Centre","status":"RECRUITING","city":"Darlinghurst","state":"New South Wales","zip":"2010","country":"Australia","geoPoint":{"lat":-33.87939,"lon":151.21925}},{"facility":"Gosford Hospital","status":"RECRUITING","city":"Gosford","state":"New South Wales","zip":"2250","country":"Australia","geoPoint":{"lat":-33.4244,"lon":151.34399}},{"facility":"University of the Sunshine Coast","status":"RECRUITING","city":"Sippy Downs","state":"Queensland","zip":"4556","country":"Australia","geoPoint":{"lat":-26.71793,"lon":153.05475}},{"facility":"Monash Health","status":"RECRUITING","city":"Clayton","state":"Victoria","zip":"3168","country":"Australia","geoPoint":{"lat":-37.91667,"lon":145.11667}},{"facility":"Sir Charles Gairdner Hospital","status":"RECRUITING","city":"Perth","state":"Western Australia","zip":"6009","country":"Australia","geoPoint":{"lat":-31.95224,"lon":115.8614}},{"facility":"Cliniques Universitaires St-Luc","status":"RECRUITING","city":"Bruxelles","zip":"1200","country":"Belgium","geoPoint":{"lat":50.85045,"lon":4.34878}},{"facility":"GHdC Site Les Viviers","status":"RECRUITING","city":"Charleroi","zip":"6000","country":"Belgium","geoPoint":{"lat":50.41136,"lon":4.44448}},{"facility":"Jessa Zkh (Campus Virga Jesse)","status":"RECRUITING","city":"Hasselt","zip":"3500","country":"Belgium","geoPoint":{"lat":50.93106,"lon":5.33781}},{"facility":"Clinique Ste-Elisabeth","status":"RECRUITING","city":"Namur","zip":"5000","country":"Belgium","geoPoint":{"lat":50.4669,"lon":4.86746}},{"facility":"Hospital Sao Rafael - HSR","status":"RECRUITING","city":"Salvador","state":"Bahia","zip":"41253-190","country":"Brazil","geoPoint":{"lat":-12.97111,"lon":-38.51083}},{"facility":"Crio - Centro Regional Integrado de Oncologia","status":"RECRUITING","city":"Fortaleza","state":"Ceará","zip":"60336-232","country":"Brazil","geoPoint":{"lat":-3.71722,"lon":-38.54306}},{"facility":"Hospital Araujo Jorge","status":"RECRUITING","city":"Goiania","state":"Goiás","zip":"74605-070","country":"Brazil","geoPoint":{"lat":-16.67861,"lon":-49.25389}},{"facility":"Hospital do Câncer de Londrina","status":"RECRUITING","city":"Londrina","state":"Paraná","zip":"86015-520","country":"Brazil","geoPoint":{"lat":-23.31028,"lon":-51.16278}},{"facility":"Hospital do Cancer de Pernambuco - HCP","status":"RECRUITING","city":"Recife","state":"Pernambuco","zip":"50040-000","country":"Brazil","geoPoint":{"lat":-8.05389,"lon":-34.88111}},{"facility":"Santa Casa de Misericordia de Porto Alegre","status":"ACTIVE_NOT_RECRUITING","city":"Porto Alegre","state":"Rio Grande Do Sul","zip":"90050-170","country":"Brazil","geoPoint":{"lat":-30.03306,"lon":-51.23}},{"facility":"Hospital Sao Lucas - PUCRS","status":"RECRUITING","city":"Porto Alegre","state":"Rio Grande Do Sul","zip":"90610-000","country":"Brazil","geoPoint":{"lat":-30.03306,"lon":-51.23}},{"facility":"Hospital de Amor Amazônia","status":"RECRUITING","city":"Porto Velho","state":"Rondônia","zip":"76834-899","country":"Brazil","geoPoint":{"lat":-8.76194,"lon":-63.90389}},{"facility":"Hospital de Cancer de Barretos","status":"RECRUITING","city":"Barretos","state":"São Paulo","zip":"14784-400","country":"Brazil","geoPoint":{"lat":-20.55722,"lon":-48.56778}},{"facility":"Instituto do Cancer do Estado de Sao Paulo - ICESP","status":"RECRUITING","city":"Sao Paulo","state":"São Paulo","zip":"01246-000","country":"Brazil","geoPoint":{"lat":-23.5475,"lon":-46.63611}},{"facility":"Clinica de Pesquisa e Centro de Estudos em Oncologia Ginecologica e Mamaria Ltda","status":"RECRUITING","city":"Sao Paulo","state":"São Paulo","zip":"01317-001","country":"Brazil","geoPoint":{"lat":-23.5475,"lon":-46.63611}},{"facility":"Arthur J.E. Child Comprehensive Cancer Center-Calgary","status":"RECRUITING","city":"Calgary","state":"Alberta","zip":"T2N 5G2","country":"Canada","geoPoint":{"lat":51.05011,"lon":-114.08529}},{"facility":"The Moncton Hospital","status":"RECRUITING","city":"Moncton","state":"New Brunswick","zip":"E1C 6Z8","country":"Canada","geoPoint":{"lat":46.09454,"lon":-64.7965}},{"facility":"Eastern Health - General Hospital","status":"RECRUITING","city":"St. John's","state":"Newfoundland and Labrador","zip":"A1B 3V6","country":"Canada","geoPoint":{"lat":47.56494,"lon":-52.70931}},{"facility":"Sunnybrook Health Sciences Centre","status":"RECRUITING","city":"Toronto","state":"Ontario","zip":"M4N 3M5","country":"Canada","geoPoint":{"lat":43.70011,"lon":-79.4163}},{"facility":"Centre Hospitalier de l?Université de Montréal (CHUM)","status":"RECRUITING","city":"Montreal","state":"Quebec","zip":"H2X 0C2","country":"Canada","geoPoint":{"lat":45.50884,"lon":-73.58781}},{"facility":"Jewish General Hospital","status":"RECRUITING","city":"Montreal","state":"Quebec","zip":"H3T 1E2","country":"Canada","geoPoint":{"lat":45.50884,"lon":-73.58781}},{"facility":"Hôpital du Sacré-Coeur de Montreal","status":"RECRUITING","city":"Montreal","state":"Quebec","zip":"H4J 1C5","country":"Canada","geoPoint":{"lat":45.50884,"lon":-73.58781}},{"facility":"Hopital du Saint Sacrement","status":"RECRUITING","city":"Quebec City","state":"Quebec","zip":"G1S 4L8","country":"Canada","geoPoint":{"lat":46.81228,"lon":-71.21454}},{"facility":"Allan Blair Cancer Center","status":"RECRUITING","city":"Regina","state":"Saskatchewan","zip":"S4T 7T1","country":"Canada","geoPoint":{"lat":50.45008,"lon":-104.6178}},{"facility":"Affiliated Hospital of Hebei University","status":"RECRUITING","city":"Baoding","zip":"071000","country":"China","geoPoint":{"lat":38.85111,"lon":115.49028}},{"facility":"Beijing Cancer Hospital","status":"RECRUITING","city":"Beijing","zip":"100142","country":"China","geoPoint":{"lat":39.9075,"lon":116.39723}},{"facility":"The First Hospital of Jilin University","status":"RECRUITING","city":"Changchun City","zip":"130021","country":"China"},{"facility":"Sichuan Provincial Cancer Hospital","status":"RECRUITING","city":"Chengdu","zip":"610041","country":"China","geoPoint":{"lat":30.66667,"lon":104.06667}},{"facility":"Sichuan Provincial People's Hospital","status":"RECRUITING","city":"Chengdu","zip":"610072","country":"China","geoPoint":{"lat":30.66667,"lon":104.06667}},{"facility":"Fujian Cancer Hospital","status":"RECRUITING","city":"Fuzhou","zip":"350014","country":"China","geoPoint":{"lat":26.06139,"lon":119.30611}},{"facility":"Zhejiang Cancer Hospital","status":"RECRUITING","city":"Hangzhou City","zip":"310022","country":"China"},{"facility":"Harbin Medical University Tumor Hospital","status":"RECRUITING","city":"Harbin","zip":"150049","country":"China","geoPoint":{"lat":45.75,"lon":126.65}},{"facility":"Shandong Cancer Hospital","status":"RECRUITING","city":"Jinan","zip":"250117","country":"China","geoPoint":{"lat":36.66833,"lon":116.99722}},{"facility":"The First Affiliated Hospital to Henan University of Science and Technology","status":"RECRUITING","city":"Luoyang","zip":"471003","country":"China","geoPoint":{"lat":34.68361,"lon":112.45361}},{"facility":"The Second Affiliated Hospital to Nanchang University","status":"RECRUITING","city":"Nanchang","zip":"330006","country":"China","geoPoint":{"lat":28.68396,"lon":115.85306}},{"facility":"Guangxi Cancer Hospital of Guangxi Medical University","status":"RECRUITING","city":"Nanning","zip":"530021","country":"China","geoPoint":{"lat":22.81667,"lon":108.31667}},{"facility":"Shantou Center Hospital","status":"RECRUITING","city":"Shantou City","zip":"515031","country":"China"},{"facility":"Tianjin Cancer Hospital","status":"RECRUITING","city":"Tianjin","zip":"300000","country":"China","geoPoint":{"lat":39.14222,"lon":117.17667}},{"facility":"Union Hospital Tongji Medical College Huazhong University of Science and Technology","status":"RECRUITING","city":"Wuhan City","zip":"430022","country":"China"},{"facility":"Hubei Cancer Hospital","status":"RECRUITING","city":"Wuhan","zip":"430079","country":"China","geoPoint":{"lat":30.58333,"lon":114.26667}},{"facility":"Clinica De La Costa","status":"WITHDRAWN","city":"Barranquilla","zip":"080020","country":"Colombia","geoPoint":{"lat":10.96854,"lon":-74.78132}},{"facility":"Fundación CTIC - Centro de Tratamiento e Investigación sobre Cáncer Luis Carlos Sarmiento Angulo","status":"RECRUITING","city":"Bogota, D.C.","zip":"110131","country":"Colombia"},{"facility":"Oncomedica S.A.","status":"RECRUITING","city":"Monteria","zip":"230002","country":"Colombia","geoPoint":{"lat":8.74798,"lon":-75.88143}},{"facility":"Sociedad de Oncología y hematología del Cesar Ltda","status":"RECRUITING","city":"Valledupar","zip":"200001","country":"Colombia","geoPoint":{"lat":10.46314,"lon":-73.25322}},{"facility":"Tampere University Hospital","status":"RECRUITING","city":"Tampere","zip":"33520","country":"Finland","geoPoint":{"lat":61.49911,"lon":23.78712}},{"facility":"Turku Uni Central Hospital","status":"RECRUITING","city":"Turku","zip":"20520","country":"Finland","geoPoint":{"lat":60.45148,"lon":22.26869}},{"facility":"Institut Sainte Catherine","status":"RECRUITING","city":"Avignon","zip":"84082","country":"France","geoPoint":{"lat":43.94834,"lon":4.80892}},{"facility":"Centre Hospitalier de La Cote Basque","status":"RECRUITING","city":"Bayonne","zip":"64109","country":"France","geoPoint":{"lat":43.48333,"lon":-1.48333}},{"facility":"Polyclinique Bordeaux Nord Aquitaine","status":"RECRUITING","city":"Bordeaux","zip":"33300","country":"France","geoPoint":{"lat":44.84044,"lon":-0.5805}},{"facility":"Centre Georges Francois Leclerc","status":"RECRUITING","city":"Dijon","zip":"21000","country":"France","geoPoint":{"lat":47.31667,"lon":5.01667}},{"facility":"Centre Oscar Lambret","status":"RECRUITING","city":"Lille","zip":"59020","country":"France","geoPoint":{"lat":50.63297,"lon":3.05858}},{"facility":"Klinikum St. Marien","status":"RECRUITING","city":"Amberg","zip":"92224","country":"Germany","geoPoint":{"lat":49.44287,"lon":11.86267}},{"facility":"HELIOS Klinikum Berlin-Buch","status":"RECRUITING","city":"Berlin","zip":"13125","country":"Germany","geoPoint":{"lat":52.52437,"lon":13.41053}},{"facility":"Marienhospital Bottrop gGmbH","status":"RECRUITING","city":"Bottrop","zip":"46236","country":"Germany","geoPoint":{"lat":51.52392,"lon":6.9285}},{"facility":"Gynonco Düsseldorf, MVZ Medical Center GmbH","status":"RECRUITING","city":"Düsseldorf","zip":"40235","country":"Germany","geoPoint":{"lat":51.22172,"lon":6.77616}},{"facility":"Frauenarztpraxis Dr. Apel, Dr. Kolpin","status":"RECRUITING","city":"Erfurt","zip":"99084","country":"Germany","geoPoint":{"lat":50.9787,"lon":11.03283}},{"facility":"Praxis für Interdisziplinäre Onkologie und Hämatologie GbR","status":"RECRUITING","city":"Freiburg","zip":"79110","country":"Germany","geoPoint":{"lat":47.9959,"lon":7.85222}},{"facility":"Klinik & Poliklinik für Frauenheilkunde und Geburtshilfe, Campus Innenstadt","status":"RECRUITING","city":"München","zip":"80336","country":"Germany","geoPoint":{"lat":48.13743,"lon":11.57549}},{"facility":"Caritas Klinik St. Theresia -Frauenklinik Brustzentrum","status":"RECRUITING","city":"Saarbruecken","zip":"66113","country":"Germany","geoPoint":{"lat":49.23262,"lon":7.0098}},{"facility":"Gynäkologie Kompetenzzentrum","status":"RECRUITING","city":"Stralsund","zip":"18439","country":"Germany","geoPoint":{"lat":54.30911,"lon":13.0818}},{"facility":"Universitätsfrauenklinik Ulm","status":"RECRUITING","city":"Ulm","zip":"89075","country":"Germany","geoPoint":{"lat":48.39841,"lon":9.99155}},{"facility":"Queen Mary Hospital","status":"RECRUITING","city":"Hong Kong","country":"Hong Kong","geoPoint":{"lat":22.27832,"lon":114.17469}},{"facility":"Tuen Mun Hospital","status":"RECRUITING","city":"Hong Kong","country":"Hong Kong","geoPoint":{"lat":22.27832,"lon":114.17469}},{"facility":"Max Super Speciality Hospital","status":"RECRUITING","city":"NEW Delhi Delhi","state":"Delhi","zip":"110092","country":"India"},{"facility":"Gujarat Cancer & Research Inst.","status":"RECRUITING","city":"Ahmadabad CITY","state":"Gujarat","zip":"380016","country":"India"},{"facility":"Sunshine Global Hospital (A unit of Baroda Medicare Pvt Ltd)","status":"RECRUITING","city":"Surat CITY","state":"Gujarat","zip":"395007","country":"India"},{"facility":"Artemis Hospital","status":"RECRUITING","city":"Gurugram","state":"Haryana","zip":"122001","country":"India"},{"facility":"Sir H. N. Reliance Foundation Hospital and Research Centre","status":"RECRUITING","city":"Mumbai","state":"Maharashtra","zip":"400004","country":"India","geoPoint":{"lat":19.07283,"lon":72.88261}},{"facility":"National Cancer Institute","status":"RECRUITING","city":"Nagpur","state":"Maharashtra","zip":"441108","country":"India","geoPoint":{"lat":21.14631,"lon":79.08491}},{"facility":"Tata Medical Center","status":"RECRUITING","city":"Kolkata","state":"WEST Bengal","zip":"700160","country":"India","geoPoint":{"lat":22.56263,"lon":88.36304}},{"facility":"I.R.S.T Srl IRCCS","status":"RECRUITING","city":"Meldola","state":"Emilia-Romagna","zip":"47014","country":"Italy","geoPoint":{"lat":44.12775,"lon":12.0626}},{"facility":"Ospedale San Giovanni Addolorata","status":"RECRUITING","city":"Roma","state":"Lazio","zip":"00185","country":"Italy","geoPoint":{"lat":41.89193,"lon":12.51133}},{"facility":"Ospedale San Raffaele","status":"RECRUITING","city":"Milano","state":"Lombardia","zip":"20132","country":"Italy","geoPoint":{"lat":45.46427,"lon":9.18951}},{"facility":"Irccs Istituto Nazionale Dei Tumori (Int)","status":"RECRUITING","city":"Milano","state":"Lombardia","zip":"20133","country":"Italy","geoPoint":{"lat":45.46427,"lon":9.18951}},{"facility":"Irccs Istituto Europeo Di Oncologia (IEO)","status":"RECRUITING","city":"Milano","state":"Lombardia","zip":"20141","country":"Italy","geoPoint":{"lat":45.46427,"lon":9.18951}},{"facility":"Ospedale San Gerardo","status":"RECRUITING","city":"Monza","state":"Lombardia","zip":"20900","country":"Italy","geoPoint":{"lat":45.58005,"lon":9.27246}},{"facility":"A.O.U. Maggiore della Carità","status":"RECRUITING","city":"Novara","state":"Piemonte","zip":"28100","country":"Italy","geoPoint":{"lat":45.44694,"lon":8.62118}},{"facility":"Casa di Cura La Maddalena","status":"RECRUITING","city":"Palermo","state":"Sicilia","zip":"90146","country":"Italy","geoPoint":{"lat":38.13205,"lon":13.33561}},{"facility":"Ospedale Santa Maria Annunziata","status":"RECRUITING","city":"Bagno a Ripoli","state":"Toscana","zip":"50012","country":"Italy","geoPoint":{"lat":43.75115,"lon":11.32252}},{"facility":"\"Azienda Ospedaliera Universitaria Integrata Verona Ospedale Borgo Trento\"","status":"RECRUITING","city":"Verona","state":"Veneto","zip":"37124","country":"Italy","geoPoint":{"lat":45.4299,"lon":10.98444}},{"facility":"King Hussein Cancer Center","status":"RECRUITING","city":"Amman","zip":"11941","country":"Jordan","geoPoint":{"lat":31.95522,"lon":35.94503}},{"facility":"University of Nairobi - Institute of Tropical and Infectious Diseases","status":"RECRUITING","city":"Nairobi","country":"Kenya","geoPoint":{"lat":-1.28333,"lon":36.81667}},{"facility":"National Cancer Center","status":"ACTIVE_NOT_RECRUITING","city":"Goyang-si","zip":"10408","country":"Korea, Republic of","geoPoint":{"lat":37.65639,"lon":126.835}},{"facility":"Seoul National University Hospital","status":"RECRUITING","city":"Seoul","zip":"03080","country":"Korea, Republic of","geoPoint":{"lat":37.566,"lon":126.9784}},{"facility":"Severance Hospital, Yonsei University Health System","status":"ACTIVE_NOT_RECRUITING","city":"Seoul","zip":"03722","country":"Korea, Republic of","geoPoint":{"lat":37.566,"lon":126.9784}},{"facility":"Asan Medical Center","status":"RECRUITING","city":"Seoul","zip":"05505","country":"Korea, Republic of","geoPoint":{"lat":37.566,"lon":126.9784}},{"facility":"Gangnam Severance Hospital","status":"RECRUITING","city":"Seoul","zip":"06273","country":"Korea, Republic of","geoPoint":{"lat":37.566,"lon":126.9784}},{"facility":"Samsung Medical Center","status":"RECRUITING","city":"Seoul","zip":"06351","country":"Korea, Republic of","geoPoint":{"lat":37.566,"lon":126.9784}},{"facility":"Seoul St Mary's Hospital","status":"RECRUITING","city":"Seoul","zip":"06591","country":"Korea, Republic of","geoPoint":{"lat":37.566,"lon":126.9784}},{"facility":"Hospital Civil de Guadalajara Fray Antonio Alcalde","status":"RECRUITING","city":"Guadalajara","state":"Jalisco","zip":"44280","country":"Mexico","geoPoint":{"lat":20.66682,"lon":-103.39182}},{"facility":"OncoMed","status":"RECRUITING","city":"Ciudad de México","state":"Mexico CITY (federal District)","zip":"03100","country":"Mexico","geoPoint":{"lat":19.42847,"lon":-99.12766}},{"facility":"Centro Oncológico Hematológico Roma","status":"RECRUITING","city":"Mexico City","state":"Mexico CITY (federal District)","zip":"06700","country":"Mexico","geoPoint":{"lat":19.42847,"lon":-99.12766}},{"facility":"Hospital Universitario","status":"RECRUITING","city":"Monterrey","state":"Nuevo LEON","zip":"64460","country":"Mexico","geoPoint":{"lat":25.67507,"lon":-100.31847}},{"facility":"CENEIT Oncologicos","status":"RECRUITING","city":"Mexico City","zip":"03100","country":"Mexico","geoPoint":{"lat":19.42847,"lon":-99.12766}},{"facility":"Sultan Qaboos Comprehensive Cancer Care & Research Center","status":"RECRUITING","city":"Muscat","country":"Oman","geoPoint":{"lat":23.58413,"lon":58.40778}},{"facility":"Centrum Onkologii im. Prof. Franciszka ?ukaszczyka","status":"RECRUITING","city":"Bydgoszcz","zip":"85-796","country":"Poland","geoPoint":{"lat":53.1235,"lon":18.00762}},{"facility":"Uniwersyteckie Centrum Kliniczne","status":"RECRUITING","city":"Gda?sk","zip":"80-214","country":"Poland"},{"facility":"Szpital Morski im.PCK","status":"RECRUITING","city":"Gdynia","zip":"81-519","country":"Poland","geoPoint":{"lat":54.51889,"lon":18.53188}},{"facility":"Narodowy Instytut Onkologii Odzia? w Gliwicach","status":"RECRUITING","city":"Gliwice","zip":"44-102","country":"Poland","geoPoint":{"lat":50.29761,"lon":18.67658}},{"facility":"Przychodnia Lekarska KOMED, Roman Karaszewski","status":"RECRUITING","city":"Konin","zip":"62-500","country":"Poland","geoPoint":{"lat":52.22338,"lon":18.25121}},{"facility":"Szpital Wojewódzki im. Miko?aja Kopernika","status":"RECRUITING","city":"Koszalin","zip":"75-581","country":"Poland","geoPoint":{"lat":54.19438,"lon":16.17222}},{"facility":"Wielkopolskie Centrum Onkologii im. Marii Sk?odowskiej-Curie","status":"RECRUITING","city":"Pozna?","zip":"61-866","country":"Poland","geoPoint":{"lat":51.84442,"lon":14.61868}},{"facility":"Centrum Onkologii Instytut im.M. Sklodowskiej-Curie","status":"RECRUITING","city":"Warszawa","zip":"02-781","country":"Poland","geoPoint":{"lat":52.22977,"lon":21.01178}},{"facility":"National University Hospital","status":"RECRUITING","city":"Singapore","zip":"119228","country":"Singapore","geoPoint":{"lat":1.28967,"lon":103.85007}},{"facility":"National Cancer Centre","status":"ACTIVE_NOT_RECRUITING","city":"Singapore","zip":"169610","country":"Singapore","geoPoint":{"lat":1.28967,"lon":103.85007}},{"facility":"Icon Cancer Centre Farrer Park","status":"WITHDRAWN","city":"Singapore","zip":"217562","country":"Singapore","geoPoint":{"lat":1.28967,"lon":103.85007}},{"facility":"Tan Tock Seng Hospital","status":"WITHDRAWN","city":"Singapore","zip":"308433","country":"Singapore","geoPoint":{"lat":1.28967,"lon":103.85007}},{"facility":"Hopelands Cancer Centre","status":"RECRUITING","city":"Hilton","zip":"3245","country":"South Africa","geoPoint":{"lat":-29.55453,"lon":30.301}},{"facility":"Charlotte Maxeke Academic Hospital","status":"RECRUITING","city":"Johannesburg","zip":"2193","country":"South Africa","geoPoint":{"lat":-26.20227,"lon":28.04363}},{"facility":"Medical Oncology Centre of Rosebank","status":"RECRUITING","city":"Johannesburg","zip":"2196","country":"South Africa","geoPoint":{"lat":-26.20227,"lon":28.04363}},{"facility":"Limpopo Cancer Research Institute","status":"RECRUITING","city":"Polokwane","zip":"0700","country":"South Africa","geoPoint":{"lat":-23.90449,"lon":29.46885}},{"facility":"Steve Biko Academic Hospital","status":"RECRUITING","city":"Pretoria","zip":"0002","country":"South Africa","geoPoint":{"lat":-25.74486,"lon":28.18783}},{"facility":"Chris Hani Baragwanath Clinical Trial Site","status":"ACTIVE_NOT_RECRUITING","city":"Soweto","zip":"2013","country":"South Africa","geoPoint":{"lat":-26.26781,"lon":27.85849}},{"facility":"Complejo Hospitalario Universitario A Coruña (CHUAC)","status":"RECRUITING","city":"A Coruña","state":"LA Coruna","zip":"15006","country":"Spain","geoPoint":{"lat":43.37135,"lon":-8.396}},{"facility":"Hospital Universitari Dexeus - Grupo Quironsalud","status":"RECRUITING","city":"Barcelona","zip":"08028","country":"Spain","geoPoint":{"lat":41.38879,"lon":2.15899}},{"facility":"Hospital Universitari Vall d'Hebron","status":"RECRUITING","city":"Barcelona","zip":"08035","country":"Spain","geoPoint":{"lat":41.38879,"lon":2.15899}},{"facility":"Hospital General Universitario Gregorio Marañon","status":"RECRUITING","city":"Madrid","zip":"28007","country":"Spain","geoPoint":{"lat":40.4165,"lon":-3.70256}},{"facility":"Hospital Ramon y Cajal","status":"RECRUITING","city":"Madrid","zip":"28034","country":"Spain","geoPoint":{"lat":40.4165,"lon":-3.70256}},{"facility":"Hospital Universitario 12 de Octubre","status":"ACTIVE_NOT_RECRUITING","city":"Madrid","zip":"28041","country":"Spain","geoPoint":{"lat":40.4165,"lon":-3.70256}},{"facility":"Hospital Clinico Universitario Virgen de la Victoria","status":"RECRUITING","city":"Malaga","zip":"29010","country":"Spain","geoPoint":{"lat":36.72016,"lon":-4.42034}},{"facility":"Hospital Universitario Virgen Macarena","status":"RECRUITING","city":"Sevilla","zip":"41009","country":"Spain","geoPoint":{"lat":37.38283,"lon":-5.97317}},{"facility":"National Taiwan Uni Hospital","status":"RECRUITING","city":"Taipei","zip":"100","country":"Taiwan","geoPoint":{"lat":25.04776,"lon":121.53185}},{"facility":"Tri-Service General Hospital","status":"RECRUITING","city":"Taipei","country":"Taiwan","geoPoint":{"lat":25.04776,"lon":121.53185}},{"facility":"Chang Gung Memorial Hospital-Linkou","status":"RECRUITING","city":"Taoyuan County","zip":"333","country":"Taiwan"},{"facility":"Abderrahmen Mami Hospital","status":"RECRUITING","city":"Ariana","zip":"2080","country":"Tunisia","geoPoint":{"lat":36.86012,"lon":10.19337}},{"facility":"Taher Maamouri Hospital","status":"RECRUITING","city":"Nabeul","zip":"8000","country":"Tunisia","geoPoint":{"lat":36.45606,"lon":10.73763}},{"facility":"Habib Bourguiba Hospital","status":"RECRUITING","city":"Sfax","zip":"3029","country":"Tunisia","geoPoint":{"lat":34.74056,"lon":10.76028}},{"facility":"Farhat Hached Hospital","status":"RECRUITING","city":"Sousse","zip":"4031","country":"Tunisia","geoPoint":{"lat":35.82539,"lon":10.63699}},{"facility":"Institut Salah Azeiz","status":"RECRUITING","city":"Tunis","zip":"1006","country":"Tunisia","geoPoint":{"lat":36.81897,"lon":10.16579}},{"facility":"Sakarya Training and Research Hospital","status":"RECRUITING","city":"Adapazar?","zip":"54290","country":"Turkey"},{"facility":"Gulhane Training and Research Hospital","status":"RECRUITING","city":"Ankara","zip":"06010","country":"Turkey","geoPoint":{"lat":39.91987,"lon":32.85427}},{"facility":"Gazi University Medical Faculty","status":"RECRUITING","city":"Ankara","zip":"06500","country":"Turkey","geoPoint":{"lat":39.91987,"lon":32.85427}},{"facility":"Bakirkoy Dr. Sadi Konuk Egitim ve Arastirma Hastanesi, Tibbi Onkoloji","status":"RECRUITING","city":"Bakirkoy / Istanbul","zip":"34147","country":"Turkey"},{"facility":"Dicle University Faculty of Medicine","status":"RECRUITING","city":"Diyarbakir","zip":"21280","country":"Turkey","geoPoint":{"lat":37.91363,"lon":40.21721}},{"facility":"Medipol Mega Üniversite Hastanesi Göztepe","status":"RECRUITING","city":"Istanbul","zip":"34214","country":"Turkey","geoPoint":{"lat":41.01384,"lon":28.94966}},{"facility":"Katip Celebi University Ataturk Training and Research Hospital","status":"RECRUITING","city":"Izmir","zip":"35360","country":"Turkey","geoPoint":{"lat":38.41273,"lon":27.13838}},{"facility":"Medical Park Seyhan Hospital","status":"ACTIVE_NOT_RECRUITING","city":"Seyhan","zip":"01140","country":"Turkey"},{"facility":"Hacettepe Uni Medical Faculty Hospital","status":"RECRUITING","city":"Sihhiye/Ankara","zip":"06230","country":"Turkey"},{"facility":"Uganda Cancer Institute","status":"RECRUITING","city":"Kampala","zip":"00256","country":"Uganda","geoPoint":{"lat":0.31628,"lon":32.58219}},{"facility":"Blackpool Victoria Hospital","status":"RECRUITING","city":"Blackpool","zip":"FY3 8NR","country":"United Kingdom","geoPoint":{"lat":53.81667,"lon":-3.05}},{"facility":"Colchester General Hospital","status":"RECRUITING","city":"Colchester, Essex","zip":"CO4 5JL","country":"United Kingdom"},{"facility":"Mount Vernon Hospital","status":"RECRUITING","city":"Northwood","zip":"HA6 2RN","country":"United Kingdom"},{"facility":"Nottingham City Hospital","status":"RECRUITING","city":"Nottingham","zip":"NG5 1PB","country":"United Kingdom","geoPoint":{"lat":52.9536,"lon":-1.15047}},{"facility":"Churchill Hospital","status":"RECRUITING","city":"Oxford","zip":"OX3 7LJ","country":"United Kingdom","geoPoint":{"lat":51.75222,"lon":-1.25596}}]},"ipdSharingStatementModule":{"ipdSharing":"YES","description":"For eligible studies, qualified researchers may request access to individual patient level clinical data. See Roche's commitment to transparency of clinical study information here: https://go.roche.com/data_sharing"}},"derivedSection":{"miscInfoModule":{"versionHolder":"2025-07-07"},"conditionBrowseModule":{"meshes":[{"id":"D001943","term":"Breast Neoplasms"}],"ancestors":[{"id":"D009371","term":"Neoplasms by Site"},{"id":"D009369","term":"Neoplasms"},{"id":"D001941","term":"Breast Diseases"},{"id":"D012871","term":"Skin Diseases"}],"browseLeaves":[{"id":"M5220","name":"Breast Neoplasms","asFound":"Breast Cancer","relevance":"HIGH"},{"id":"M5218","name":"Breast Diseases","relevance":"LOW"},{"id":"M15674","name":"Skin Diseases","relevance":"LOW"}],"browseBranches":[{"abbrev":"BC04","name":"Neoplasms"},{"abbrev":"BC17","name":"Skin and Connective Tissue Diseases"},{"abbrev":"All","name":"All Conditions"}]},"interventionBrowseModule":{"meshes":[{"id":"C080625","term":"Taxane"},{"id":"C000723546","term":"Inavolisib"}],"ancestors":[{"id":"D000970","term":"Antineoplastic Agents"},{"id":"D000081082","term":"Phosphoinositide-3 Kinase Inhibitors"},{"id":"D004791","term":"Enzyme Inhibitors"},{"id":"D045504","term":"Molecular Mechanisms of Pharmacological Action"}],"browseLeaves":[{"id":"M1723","name":"Fulvestrant","relevance":"LOW"},{"id":"M9789","name":"Hormones","relevance":"LOW"},{"id":"M247237","name":"Exemestane","relevance":"LOW"},{"id":"M16403","name":"Tamoxifen","relevance":"LOW"},{"id":"M1743","name":"Letrozole","relevance":"LOW"},{"id":"M25769","name":"Aromatase Inhibitors","relevance":"LOW"},{"id":"M14260","name":"Prolactin Release-Inhibiting Factors","relevance":"LOW"},{"id":"M147959","name":"Taxane","asFound":"Bypass Grafting","relevance":"HIGH"},{"id":"M1781","name":"Anastrozole","relevance":"LOW"},{"id":"M350338","name":"Inavolisib","asFound":"Nasopharyngeal Cancer","relevance":"HIGH"},{"id":"M2270","name":"Phosphoinositide-3 Kinase Inhibitors","relevance":"LOW"},{"id":"M7951","name":"Enzyme Inhibitors","relevance":"LOW"}],"browseBranches":[{"abbrev":"ANeo","name":"Antineoplastic Agents"},{"abbrev":"All","name":"All Drugs and Chemicals"},{"abbrev":"BDCA","name":"Bone Density Conservation Agents"}]}},"hasResults":false}