{"protocolSection":{"identificationModule":{"nctId":"NCT06380751","orgStudyIdInfo":{"id":"D9722C00001"},"organization":{"fullName":"AstraZeneca","class":"INDUSTRY"},"briefTitle":"Saruparib (AZD5305) Plus Camizestrant Compared With CDK4/6 Inhibitor Plus Endocrine Therapy or Plus Camizestrant in HR-Positive, HER2-Negative (IHC 0, 1+, 2+/ ISH Non-amplified), BRCA1, BRCA2, or PALB2m Advanced Breast Cancer","officialTitle":"A Randomised, Open-Label, Phase III Study of Saruparib (AZD5305) Plus Camizestrant Compared With Physician's Choice CDK4/6 Inhibitor Plus Endocrine Therapy or Plus Camizestrant for the First-Line Treatment of Patients With BRCA1, BRCA2, or PALB2 Mutations and Hormone Receptor Positive, HER2-Negative (IHC 0, 1+, 2+/ ISH Non-amplified) Advanced Breast Cancer (EvoPAR-Breast01)","acronym":"EvoPAR-BR01"},"statusModule":{"statusVerifiedDate":"2025-06","overallStatus":"RECRUITING","expandedAccessInfo":{"hasExpandedAccess":false},"startDateStruct":{"date":"2024-08-01","type":"ACTUAL"},"primaryCompletionDateStruct":{"date":"2029-03-30","type":"ESTIMATED"},"completionDateStruct":{"date":"2030-10-18","type":"ESTIMATED"},"studyFirstSubmitDate":"2024-03-25","studyFirstSubmitQcDate":"2024-04-18","studyFirstPostDateStruct":{"date":"2024-04-24","type":"ACTUAL"},"lastUpdateSubmitDate":"2025-06-16","lastUpdatePostDateStruct":{"date":"2025-06-17","type":"ACTUAL"}},"sponsorCollaboratorsModule":{"responsibleParty":{"type":"SPONSOR"},"leadSponsor":{"name":"AstraZeneca","class":"INDUSTRY"}},"oversightModule":{"oversightHasDmc":true,"isFdaRegulatedDrug":true,"isFdaRegulatedDevice":false},"descriptionModule":{"briefSummary":"The primary objective of the study is to measure efficacy of saruparib (AZD5305) plus camizestrant compared with physician's choice CDK4/6i plus ET in patients with BRCA1, BRCA2, or PALB2m, HR-positive, HER2-negative (defined as IHC 0, 1+, 2+/ ISH non-amplified) advanced breast cancer","detailedDescription":"Approximately 2,620 participants will be screened to achieve approximately 500 participants randomised to study intervention.\n\nParticipants will be randomised in a 2:2:1 ratio to one of the following intervention groups:\n\n* Arm 1: saruparib (AZD5305) plus camizestrant\n* Arm 2: Physician's choice CDK4/6i plus physician's choice ET\n* Arm 3: Physician's choice CDK4/6i plus camizestrant Treatment continues until BICR-confirmed disease progression, unacceptable toxicity occurs, or the participant withdraws consent."},"conditionsModule":{"conditions":["Advanced Breast Cancer"]},"designModule":{"studyType":"INTERVENTIONAL","phases":["PHASE3"],"designInfo":{"allocation":"RANDOMIZED","interventionModel":"PARALLEL","primaryPurpose":"TREATMENT","maskingInfo":{"masking":"NONE","maskingDescription":"Open label"}},"enrollmentInfo":{"count":500,"type":"ESTIMATED"}},"armsInterventionsModule":{"armGroups":[{"label":"Arm 1: saruparib (AZD5305) plus camizestrant","type":"EXPERIMENTAL","description":"participants will receive saruparib (AZD5305) orally and camizestrant orally","interventionNames":["Drug: Saruparib (AZD5305)","Drug: Camizestrant"]},{"label":"Arm 2: Physician's choice CDK4/6i plus physician's choice ET","type":"ACTIVE_COMPARATOR","description":"agents are indicated below and should follow local guidelines:\n\n* Physician's Choice CDK4/6i:\n\n  * abemaciclib orally, or\n  * ribociclib orally, or\n  * palbociclib orally.\n* Physician's Choice ET:\n\n  * fulvestrant intramuscularly, or\n  * One of the following AIs:\n\n    * letrozole orally, or\n    * anastrozole orally, or\n    * exemestane orally","interventionNames":["Drug: Abemaciclib","Drug: Ribociclib","Drug: Palbociclib","Drug: Fulvestrant","Drug: Letrozole","Drug: Anastrozole","Drug: Exemestane"]},{"label":"Arm 3: Physician's choice CDK4/6i plus camizestrant","type":"EXPERIMENTAL","description":"participants will receive camizestrant orally. Agents for CDK4/6i treatment are indicated above and should follow local guidelines","interventionNames":["Drug: Camizestrant","Drug: Abemaciclib","Drug: Ribociclib","Drug: Palbociclib"]}],"interventions":[{"type":"DRUG","name":"Saruparib (AZD5305)","description":"Saruparib (AZD5305) is a potent and selective inhibitor of PARP1, with minimal effect on PARP2.","armGroupLabels":["Arm 1: saruparib (AZD5305) plus camizestrant"]},{"type":"DRUG","name":"Camizestrant","description":"Camizestrant (AZD9833) is an orally bioavailable, next generation SERD with non-clinical and clinical activity in both ESR1 mutant and wild type settings .","armGroupLabels":["Arm 1: saruparib (AZD5305) plus camizestrant","Arm 3: Physician's choice CDK4/6i plus camizestrant"]},{"type":"DRUG","name":"Abemaciclib","description":"CDK4/6 Inhibitor","armGroupLabels":["Arm 2: Physician's choice CDK4/6i plus physician's choice ET","Arm 3: Physician's choice CDK4/6i plus camizestrant"]},{"type":"DRUG","name":"Ribociclib","description":"CDK4/6 Inhibitor","armGroupLabels":["Arm 2: Physician's choice CDK4/6i plus physician's choice ET","Arm 3: Physician's choice CDK4/6i plus camizestrant"]},{"type":"DRUG","name":"Palbociclib","description":"CDK 4/6 Inhibitor","armGroupLabels":["Arm 2: Physician's choice CDK4/6i plus physician's choice ET","Arm 3: Physician's choice CDK4/6i plus camizestrant"]},{"type":"DRUG","name":"Fulvestrant","description":"Endocrine Therapy","armGroupLabels":["Arm 2: Physician's choice CDK4/6i plus physician's choice ET"]},{"type":"DRUG","name":"Letrozole","description":"Endorcine Therapy","armGroupLabels":["Arm 2: Physician's choice CDK4/6i plus physician's choice ET"]},{"type":"DRUG","name":"Anastrozole","description":"Endocrine Therapy","armGroupLabels":["Arm 2: Physician's choice CDK4/6i plus physician's choice ET"]},{"type":"DRUG","name":"Exemestane","description":"Endocrine Therapy","armGroupLabels":["Arm 2: Physician's choice CDK4/6i plus physician's choice ET"]}]},"outcomesModule":{"primaryOutcomes":[{"measure":"Progression-Free Survival","description":"PFS is defined as time from randomisation until progression per RECIST v1.1 as assessed by BICR, or death due to any cause.","timeFrame":"Up to approximately 59 months"}],"secondaryOutcomes":[{"measure":"Overall Survival","description":"OS is defined as the time from randomisation until the date of death due to any cause.","timeFrame":"Up to approximately 88 months"},{"measure":"Progression Free Survival 2","description":"PFS2 is defined as the time from randomisation to the earliest of the progression event (following the initial investigator-assessed progression), after first subsequent therapy, or death.","timeFrame":"Up to approximately 59 months"},{"measure":"Time to chemotherapy","description":"Time to chemotherapy is defined as time from randomisation until the start date of the first subsequent chemotherapy treatment after discontinuation of randomised treatment (censoring participants who died prior to initiation of chemotherapy).","timeFrame":"Up to approximately 59 months"},{"measure":"Objective Response Rate","description":"ORR is defined as the proportion of participants who have a complete or parial response, as determined by BICR per RECIST v1.1.","timeFrame":"Up to approximately 59 months"},{"measure":"Duration of Response","description":"DoR is defined as the time from the date of first documented response until date of documented progression per RECIST v1.1 as assessed by BICR, or death due to any cause.","timeFrame":"Up to approximately 59 months"},{"measure":"Participant-reported tolerability","description":"Proportion of all dosed participants reporting different levels of severity of diarrhoea as measured by the diarrhoea single item (EORTC IL237/IL239/IL240) and different levels of severity of abdominal pain as measured by the abdominal pain single item (EORTC IL237/IL239/IL240).","timeFrame":"Up to approximately 59 months"},{"measure":"Time to deterioration in patient-reported global health status/QoL as measured by the global health status/QoL scale within the The European Organisation for Research and Treatment of Cancer (EORTC) quality of life questionnaire (QLQ)","description":"This scale includes 2 items asking participants to report overall health and overall quality of life in the past week. Both items are measured on a 6-point verbal rating scale ranging from Very Poor to Excellent. Single item scores are averaged to calculate a subscale score that is transformed to range from 0 to 100, where higher scores indicate better global health status/QoL.","timeFrame":"Up to approximately 59 months"},{"measure":"Change from baseline in patient-reported global health status/QoL as measured by the global health status/QoL scale within the The European Organisation for Research and Treatment of Cancer (EORTC) quality of life questionnaire (QLQ)","description":"This scale includes 2 items asking participants to report overall health and overall quality of life in the past week. Both items are measured on a 6-point verbal rating scale ranging from Very Poor to Excellent. Single item scores are averaged to calculate a subscale score that is transformed to range from 0 to 100, where higher scores indicate better global health status/QoL.","timeFrame":"Up to approximately 59 months"},{"measure":"Plasma concentrations of saruparib (AZD5305)","timeFrame":"Up to approximately 59 months"},{"measure":"Plasma concentrations of camizestrant","timeFrame":"Up to approximately 59 months"},{"measure":"Samples will be used to develop companion diagnostics by analyzing their performance characteristics and calculate their consistency with clinical trial assays used for enrolment onto the study.","description":"Samples will be tested by a CDx to confirm BRCA1/2 and PALB2 gene mutation status","timeFrame":"Up to approximately 59 months"}]},"eligibilityModule":{"eligibilityCriteria":"Inclusion Criteria:\n\n* Adult females, pre/peri-menopausal and/or post-menopausal, and adult males\n* Histologically or cytologically documented diagnosis of HR-positive, HER2-negative breast cancer\n* Advanced breast cancer with either locally advanced disease not amenable to curative treatment or metastatic disease\n* ECOG performance status of 0 or 1 with no deterioration over the previous 2 weeks\n* FFPE tumour tissue from each participant\n* Documented germline tumour loss of function mutation in BRCA1, BRCA2, or PALB2\n* Adequate organ and marrow function\n\nExclusion Criteria:\n\n* Participants with history of MDS/AML or with features suggestive of MDS/AML\n* Participants with any known predisposition to bleeding\n* Any history of persisting severe cytopenia\n* Any evidence of severe or uncontrolled systemic diseases or active uncontrolled infections\n* Refractory nausea and vomiting, chronic GI disease, inability to swallow the formulated product, or previous significant bowel resection\n* History of another primary malignancy\n* Persistent toxicities (CTCAE Grade ≥ 2) caused by previous anti-cancer therapy excluding alopecia\n* Spinal cord compression, brain metastases, carcinomatous meningitis, or leptomeningeal disease\n* Evidence of active and uncontrolled hepatitis B and/or hepatitis C\n* Evidence of active and uncontrolled HIV infection\n* Active tuberculosis infection\n* Cardiac criteria, including history of arrythmia and cardiovascular disease\n* Concurrent exogenous reproductive hormone therapy or non-topical hormonal therapy for non-cancer-related conditions\n* Major surgical procedure or significant traumatic injury within 4 weeks of the first dose of study intervention or an anticipated need for major surgery during the study\n* Palliative radiotherapy with a limited field of radiation within 2 weeks or with wide field of radiation or to more than 30% of the bone marrow within 4 weeks before the first dose of study treatment\n* Prior treatment with systemic anti-cancer therapy for locoregionally recurrent or metastatic disease is not permitted, apart from treatment with ET up to 28 days before randomisation\n* Prior treatment within 28 days with blood product support or growth factor support\n* Any systemic concurrent anti-cancer treatment\n* Concomitant use of the following types of medications or herbal supplements within 21 days or at least 5 half-lives of randomisation:\n\n  1. Strong and moderate CYP3A4 inducers/inhibitors\n  2. Sensitive CYP2B6 substrates\n  3. Substrates of CYP2C9 and/or CYP2C19 which have a narrow therapeutic index, eg, warfarin (and other coumarin-derived vitamin K antagonist anticoagulants) and phenytoin.\n* Concomitant use of drugs that are known to prolong QT and have a known risk of TdP\n* Systemic use of atropine\n* The following exclusion criteria apply to treatments administered for early breast cancer:\n\n  1. Disease progression ≤ 84 days following the last dose of neo-adjuvant or adjuvant chemotherapy\n  2. Disease progression ≤ 1 year (365 days) from the last dose of treatment with a PARPi and/or platinum agent for early breast cancer\n  3. Disease progression ≤ 1 year (365 days) from the last dose with a CDK4/6i in the adjuvant setting\n  4. Disease progression ≤ 1 year (365 days) from the last dose of an oral SERD including camizestrant.","healthyVolunteers":false,"sex":"ALL","minimumAge":"18 Years","stdAges":["ADULT","OLDER_ADULT"]},"contactsLocationsModule":{"centralContacts":[{"name":"AstraZeneca Clinical Study Information Center","role":"CONTACT","phone":"1-877-240-9479","email":"information.center@astrazeneca.com"}],"locations":[{"facility":"Research Site","status":"RECRUITING","city":"Gilbert","state":"Arizona","zip":"85234","country":"United States","geoPoint":{"lat":33.35283,"lon":-111.78903}},{"facility":"Research Site","status":"NOT_YET_RECRUITING","city":"Glendale","state":"California","zip":"91206","country":"United States","geoPoint":{"lat":34.14251,"lon":-118.25508}},{"facility":"Research Site","status":"RECRUITING","city":"Los Angeles","state":"California","zip":"90089","country":"United States","geoPoint":{"lat":34.05223,"lon":-118.24368}},{"facility":"Research Site","status":"RECRUITING","city":"Newport Beach","state":"California","zip":"92663","country":"United States","geoPoint":{"lat":33.61891,"lon":-117.92895}},{"facility":"Research Site","status":"NOT_YET_RECRUITING","city":"Aurora","state":"Colorado","zip":"80045","country":"United States","geoPoint":{"lat":39.72943,"lon":-104.83192}},{"facility":"Research Site","status":"RECRUITING","city":"Grand Junction","state":"Colorado","zip":"81501","country":"United States","geoPoint":{"lat":39.06387,"lon":-108.55065}},{"facility":"Research Site","status":"RECRUITING","city":"Hollywood","state":"Florida","zip":"33021","country":"United States","geoPoint":{"lat":26.0112,"lon":-80.14949}},{"facility":"Research Site","status":"NOT_YET_RECRUITING","city":"Jacksonville","state":"Florida","zip":"32224","country":"United States","geoPoint":{"lat":30.33218,"lon":-81.65565}},{"facility":"Research Site","status":"WITHDRAWN","city":"Orlando","state":"Florida","zip":"32806","country":"United States","geoPoint":{"lat":28.53834,"lon":-81.37924}},{"facility":"Research Site","status":"RECRUITING","city":"Chicago","state":"Illinois","zip":"60611","country":"United States","geoPoint":{"lat":41.85003,"lon":-87.65005}},{"facility":"Research Site","status":"NOT_YET_RECRUITING","city":"Evanston","state":"Illinois","zip":"60201","country":"United States","geoPoint":{"lat":42.04114,"lon":-87.69006}},{"facility":"Research Site","status":"WITHDRAWN","city":"Park Ridge","state":"Illinois","zip":"60068","country":"United States","geoPoint":{"lat":42.01114,"lon":-87.84062}},{"facility":"Research Site","status":"RECRUITING","city":"Urbana","state":"Illinois","zip":"61801","country":"United States","geoPoint":{"lat":40.11059,"lon":-88.20727}},{"facility":"Research Site","status":"NOT_YET_RECRUITING","city":"Winfield","state":"Illinois","zip":"60190","country":"United States","geoPoint":{"lat":41.8617,"lon":-88.1609}},{"facility":"Research Site","status":"WITHDRAWN","city":"Indianapolis","state":"Indiana","zip":"46227","country":"United States","geoPoint":{"lat":39.76838,"lon":-86.15804}},{"facility":"Research Site","status":"WITHDRAWN","city":"Louisville","state":"Kentucky","zip":"40207","country":"United States","geoPoint":{"lat":38.25424,"lon":-85.75941}},{"facility":"Research Site","status":"RECRUITING","city":"Silver Spring","state":"Maryland","zip":"20902","country":"United States","geoPoint":{"lat":38.99067,"lon":-77.02609}},{"facility":"Research Site","status":"RECRUITING","city":"Boston","state":"Massachusetts","zip":"02215","country":"United States","geoPoint":{"lat":42.35843,"lon":-71.05977}},{"facility":"Research Site","status":"WITHDRAWN","city":"Dearborn","state":"Michigan","zip":"48126","country":"United States","geoPoint":{"lat":42.32226,"lon":-83.17631}},{"facility":"Research Site","status":"RECRUITING","city":"Detroit","state":"Michigan","zip":"48202","country":"United States","geoPoint":{"lat":42.33143,"lon":-83.04575}},{"facility":"Research Site","status":"RECRUITING","city":"Royal Oak","state":"Michigan","zip":"48073","country":"United States","geoPoint":{"lat":42.48948,"lon":-83.14465}},{"facility":"Research Site","status":"NOT_YET_RECRUITING","city":"Royal Oak","state":"Michigan","zip":"48073","country":"United States","geoPoint":{"lat":42.48948,"lon":-83.14465}},{"facility":"Research Site","status":"NOT_YET_RECRUITING","city":"Rochester","state":"Minnesota","zip":"55905","country":"United States","geoPoint":{"lat":44.02163,"lon":-92.4699}},{"facility":"Research Site","status":"NOT_YET_RECRUITING","city":"Camden","state":"New Jersey","zip":"08103","country":"United States","geoPoint":{"lat":39.92595,"lon":-75.11962}},{"facility":"Research Site","status":"WITHDRAWN","city":"New Brunswick","state":"New Jersey","zip":"08901","country":"United States","geoPoint":{"lat":40.48622,"lon":-74.45182}},{"facility":"Research Site","status":"RECRUITING","city":"Bronx","state":"New York","zip":"10469","country":"United States","geoPoint":{"lat":40.84985,"lon":-73.86641}},{"facility":"Research Site","status":"WITHDRAWN","city":"Brooklyn","state":"New York","zip":"11220","country":"United States","geoPoint":{"lat":40.6501,"lon":-73.94958}},{"facility":"Research Site","status":"RECRUITING","city":"Mineola","state":"New York","zip":"11501","country":"United States","geoPoint":{"lat":40.74927,"lon":-73.64068}},{"facility":"Research Site","status":"RECRUITING","city":"New Hyde Park","state":"New York","zip":"11042","country":"United States","geoPoint":{"lat":40.7351,"lon":-73.68791}},{"facility":"Research Site","status":"RECRUITING","city":"New York","state":"New York","zip":"10016","country":"United States","geoPoint":{"lat":40.71427,"lon":-74.00597}},{"facility":"Research Site","status":"RECRUITING","city":"New York","state":"New York","zip":"10028","country":"United States","geoPoint":{"lat":40.71427,"lon":-74.00597}},{"facility":"Research Site","status":"RECRUITING","city":"New York","state":"New York","zip":"10065","country":"United States","geoPoint":{"lat":40.71427,"lon":-74.00597}},{"facility":"Research Site","status":"RECRUITING","city":"Shirley","state":"New York","zip":"11967","country":"United States","geoPoint":{"lat":40.80149,"lon":-72.8676}},{"facility":"Research Site","status":"NOT_YET_RECRUITING","city":"Stony Brook","state":"New York","zip":"11790","country":"United States","geoPoint":{"lat":40.92565,"lon":-73.14094}},{"facility":"Research Site","status":"WITHDRAWN","city":"Westbury","state":"New York","zip":"11590","country":"United States","geoPoint":{"lat":40.75566,"lon":-73.58763}},{"facility":"Research Site","status":"NOT_YET_RECRUITING","city":"Hershey","state":"Pennsylvania","zip":"17033","country":"United States","geoPoint":{"lat":40.28592,"lon":-76.65025}},{"facility":"Research Site","status":"RECRUITING","city":"Philadelphia","state":"Pennsylvania","zip":"19104","country":"United States","geoPoint":{"lat":39.95233,"lon":-75.16379}},{"facility":"Research Site","status":"NOT_YET_RECRUITING","city":"Pittsburgh","state":"Pennsylvania","zip":"15215","country":"United States","geoPoint":{"lat":40.44062,"lon":-79.99589}},{"facility":"Research Site","status":"NOT_YET_RECRUITING","city":"West Columbia","state":"South Carolina","zip":"29169","country":"United States","geoPoint":{"lat":33.99349,"lon":-81.07398}},{"facility":"Research Site","status":"RECRUITING","city":"Chattanooga","state":"Tennessee","zip":"37404","country":"United States","geoPoint":{"lat":35.04563,"lon":-85.30968}},{"facility":"Research Site","status":"RECRUITING","city":"Nashville","state":"Tennessee","zip":"37203","country":"United States","geoPoint":{"lat":36.16589,"lon":-86.78444}},{"facility":"Research Site","status":"WITHDRAWN","city":"Houston","state":"Texas","zip":"77030","country":"United States","geoPoint":{"lat":29.76328,"lon":-95.36327}},{"facility":"Research Site","status":"RECRUITING","city":"Houston","state":"Texas","zip":"77030","country":"United States","geoPoint":{"lat":29.76328,"lon":-95.36327}},{"facility":"Research Site","status":"RECRUITING","city":"Houston","state":"Texas","zip":"77054","country":"United States","geoPoint":{"lat":29.76328,"lon":-95.36327}},{"facility":"Research Site","status":"RECRUITING","city":"Norfolk","state":"Virginia","zip":"23502","country":"United States","geoPoint":{"lat":36.84681,"lon":-76.28522}},{"facility":"Research Site","status":"RECRUITING","city":"Tacoma","state":"Washington","zip":"98405","country":"United States","geoPoint":{"lat":47.25288,"lon":-122.44429}},{"facility":"Research Site","status":"RECRUITING","city":"Morgantown","state":"West Virginia","zip":"26506","country":"United States","geoPoint":{"lat":39.62953,"lon":-79.9559}},{"facility":"Research Site","status":"WITHDRAWN","city":"Milwaukee","state":"Wisconsin","zip":"53215","country":"United States","geoPoint":{"lat":43.0389,"lon":-87.90647}},{"facility":"Research Site","status":"NOT_YET_RECRUITING","city":"Caba","zip":"C1280AEB","country":"Argentina","geoPoint":{"lat":-34.61315,"lon":-58.37723}},{"facility":"Research Site","status":"RECRUITING","city":"Ciudad Autónoma Buenos Aires","zip":"1125","country":"Argentina","geoPoint":{"lat":-34.61315,"lon":-58.37723}},{"facility":"Research Site","status":"RECRUITING","city":"Ciudad de Buenos Aires","zip":"1015","country":"Argentina","geoPoint":{"lat":-34.61315,"lon":-58.37723}},{"facility":"Research Site","status":"NOT_YET_RECRUITING","city":"Cordoba","zip":"5008","country":"Argentina","geoPoint":{"lat":-31.4135,"lon":-64.18105}},{"facility":"Research Site","status":"NOT_YET_RECRUITING","city":"Rosario","zip":"S2000KZE","country":"Argentina","geoPoint":{"lat":-32.94682,"lon":-60.63932}},{"facility":"Research Site","status":"NOT_YET_RECRUITING","city":"Salta","zip":"A4400EMI","country":"Argentina","geoPoint":{"lat":-24.7859,"lon":-65.41166}},{"facility":"Research Site","status":"NOT_YET_RECRUITING","city":"San Miguel de Tucumán","zip":"4000","country":"Argentina","geoPoint":{"lat":-26.82414,"lon":-65.2226}},{"facility":"Research Site","status":"RECRUITING","city":"Darlinghurst","zip":"2010","country":"Australia","geoPoint":{"lat":-33.87939,"lon":151.21925}},{"facility":"Research Site","status":"RECRUITING","city":"Darlinghurst","zip":"2139","country":"Australia","geoPoint":{"lat":-33.87939,"lon":151.21925}},{"facility":"Research Site","status":"NOT_YET_RECRUITING","city":"Malvern","zip":"3144","country":"Australia","geoPoint":{"lat":-32.02849,"lon":151.32225}},{"facility":"Research Site","status":"RECRUITING","city":"Melbourne","zip":"VIC 3000","country":"Australia","geoPoint":{"lat":-37.814,"lon":144.96332}},{"facility":"Research Site","status":"RECRUITING","city":"Graz","zip":"8036","country":"Austria","geoPoint":{"lat":47.06667,"lon":15.45}},{"facility":"Research Site","status":"RECRUITING","city":"Linz","zip":"4010","country":"Austria","geoPoint":{"lat":48.30639,"lon":14.28611}},{"facility":"Research Site","status":"NOT_YET_RECRUITING","city":"Wien","zip":"1090","country":"Austria","geoPoint":{"lat":48.20849,"lon":16.37208}},{"facility":"Research Site","status":"RECRUITING","city":"Cachoeira De Itapemirim","zip":"29308-055","country":"Brazil"},{"facility":"Research Site","status":"RECRUITING","city":"Curitiba","zip":"80060-900","country":"Brazil","geoPoint":{"lat":-25.42778,"lon":-49.27306}},{"facility":"Research Site","status":"RECRUITING","city":"Fortaleza","zip":"60336-045","country":"Brazil","geoPoint":{"lat":-3.71722,"lon":-38.54306}},{"facility":"Research Site","status":"RECRUITING","city":"Goiânia","zip":"74000-000","country":"Brazil","geoPoint":{"lat":-16.67861,"lon":-49.25389}},{"facility":"Research Site","status":"RECRUITING","city":"Jaú","zip":"17210-120","country":"Brazil","geoPoint":{"lat":-22.29639,"lon":-48.55778}},{"facility":"Research Site","status":"RECRUITING","city":"Porto Alegre","zip":"91350-200","country":"Brazil","geoPoint":{"lat":-30.03306,"lon":-51.23}},{"facility":"Research Site","status":"RECRUITING","city":"Ribeirão Preto","zip":"14049-901","country":"Brazil","geoPoint":{"lat":-21.1775,"lon":-47.81028}},{"facility":"Research Site","status":"RECRUITING","city":"Salvador","zip":"41253-190","country":"Brazil","geoPoint":{"lat":-12.97111,"lon":-38.51083}},{"facility":"Research Site","status":"RECRUITING","city":"Sao Paulo","zip":"01509-900","country":"Brazil","geoPoint":{"lat":-23.5475,"lon":-46.63611}},{"facility":"Research Site","status":"RECRUITING","city":"São Paulo","zip":"03102-002","country":"Brazil","geoPoint":{"lat":-23.5475,"lon":-46.63611}},{"facility":"Research Site","status":"NOT_YET_RECRUITING","city":"Plovdiv","zip":"4002","country":"Bulgaria","geoPoint":{"lat":42.15,"lon":24.75}},{"facility":"Research Site","status":"NOT_YET_RECRUITING","city":"Sofia","zip":"1527","country":"Bulgaria","geoPoint":{"lat":42.69751,"lon":23.32415}},{"facility":"Research Site","status":"NOT_YET_RECRUITING","city":"Stara Zagora","zip":"6003","country":"Bulgaria","geoPoint":{"lat":42.43278,"lon":25.64194}},{"facility":"Research Site","status":"NOT_YET_RECRUITING","city":"Vratza","zip":"3000","country":"Bulgaria"},{"facility":"Research Site","status":"NOT_YET_RECRUITING","city":"Toronto","state":"Ontario","zip":"M5G 2M9","country":"Canada","geoPoint":{"lat":43.70011,"lon":-79.4163}},{"facility":"Research Site","status":"NOT_YET_RECRUITING","city":"Greenfield Park","state":"Quebec","zip":"J4V 2G9","country":"Canada","geoPoint":{"lat":45.48649,"lon":-73.46223}},{"facility":"Research Site","status":"NOT_YET_RECRUITING","city":"Montreal","state":"Quebec","zip":"H3T 1E2","country":"Canada","geoPoint":{"lat":45.50884,"lon":-73.58781}},{"facility":"Research Site","status":"NOT_YET_RECRUITING","city":"Montreal","state":"Quebec","zip":"H4A 3J1","country":"Canada","geoPoint":{"lat":45.50884,"lon":-73.58781}},{"facility":"Research Site","status":"NOT_YET_RECRUITING","city":"Montréal","state":"Quebec","zip":"H2X 0A9","country":"Canada","geoPoint":{"lat":45.50884,"lon":-73.58781}},{"facility":"Research Site","status":"NOT_YET_RECRUITING","city":"Saskatoon","state":"Saskatchewan","zip":"S7N 4H4","country":"Canada","geoPoint":{"lat":52.13238,"lon":-106.66892}},{"facility":"Research Site","status":"NOT_YET_RECRUITING","city":"Toronto","zip":"M4N 3M5","country":"Canada","geoPoint":{"lat":43.70011,"lon":-79.4163}},{"facility":"Research Site","status":"RECRUITING","city":"Providencia","zip":"7500994","country":"Chile","geoPoint":{"lat":-33.43107,"lon":-70.60454}},{"facility":"Research Site","status":"NOT_YET_RECRUITING","city":"Recoleta","zip":"8420391","country":"Chile","geoPoint":{"lat":-30.50052,"lon":-71.15042}},{"facility":"Research Site","status":"NOT_YET_RECRUITING","city":"Santiago","zip":"8330034","country":"Chile","geoPoint":{"lat":-33.45694,"lon":-70.64827}},{"facility":"Research Site","status":"RECRUITING","city":"Talca","zip":"3461341","country":"Chile","geoPoint":{"lat":-35.4264,"lon":-71.65542}},{"facility":"Research Site","status":"RECRUITING","city":"Vina del Mar","zip":"2520000","country":"Chile","geoPoint":{"lat":-33.02457,"lon":-71.55183}},{"facility":"Research Site","status":"RECRUITING","city":"Beijing","zip":"100044","country":"China","geoPoint":{"lat":39.9075,"lon":116.39723}},{"facility":"Research Site","status":"RECRUITING","city":"Bengbu","zip":"233004","country":"China","geoPoint":{"lat":32.94083,"lon":117.36083}},{"facility":"Research Site","status":"RECRUITING","city":"Changchun","zip":"130012","country":"China","geoPoint":{"lat":43.88,"lon":125.32278}},{"facility":"Research Site","status":"RECRUITING","city":"Changchun","zip":"130021","country":"China","geoPoint":{"lat":43.88,"lon":125.32278}},{"facility":"Research Site","status":"RECRUITING","city":"Changsha","zip":"410008","country":"China","geoPoint":{"lat":28.19874,"lon":112.97087}},{"facility":"Research Site","status":"RECRUITING","city":"Changsha","zip":"410013","country":"China","geoPoint":{"lat":28.19874,"lon":112.97087}},{"facility":"Research Site","status":"RECRUITING","city":"Chengdu","zip":"610000","country":"China","geoPoint":{"lat":30.66667,"lon":104.06667}},{"facility":"Research Site","status":"RECRUITING","city":"Chengdu","zip":"610072","country":"China","geoPoint":{"lat":30.66667,"lon":104.06667}},{"facility":"Research Site","status":"RECRUITING","city":"Chongqing","zip":"400042","country":"China","geoPoint":{"lat":29.56278,"lon":106.55278}},{"facility":"Research Site","status":"RECRUITING","city":"Foshan","zip":"528000","country":"China","geoPoint":{"lat":23.02677,"lon":113.13148}},{"facility":"Research Site","status":"RECRUITING","city":"Fuzhou","zip":"350014","country":"China","geoPoint":{"lat":26.06139,"lon":119.30611}},{"facility":"Research Site","status":"RECRUITING","city":"Guangzhou","zip":"510060","country":"China","geoPoint":{"lat":23.11667,"lon":113.25}},{"facility":"Research Site","status":"RECRUITING","city":"Guangzhou","zip":"510062","country":"China","geoPoint":{"lat":23.11667,"lon":113.25}},{"facility":"Research Site","status":"RECRUITING","city":"Guangzhou","zip":"510289","country":"China","geoPoint":{"lat":23.11667,"lon":113.25}},{"facility":"Research Site","status":"RECRUITING","city":"Hangzhou","zip":"310016","country":"China","geoPoint":{"lat":30.29365,"lon":120.16142}},{"facility":"Research Site","status":"RECRUITING","city":"Hangzhou","zip":"310022","country":"China","geoPoint":{"lat":30.29365,"lon":120.16142}},{"facility":"Research Site","status":"RECRUITING","city":"Harbin","zip":"150081","country":"China","geoPoint":{"lat":45.75,"lon":126.65}},{"facility":"Research Site","status":"RECRUITING","city":"Hefei","zip":"230031","country":"China","geoPoint":{"lat":31.86389,"lon":117.28083}},{"facility":"Research Site","status":"WITHDRAWN","city":"Hohhot","zip":"010017","country":"China","geoPoint":{"lat":40.81056,"lon":111.65222}},{"facility":"Research Site","status":"RECRUITING","city":"Jining","zip":"272029","country":"China","geoPoint":{"lat":35.405,"lon":116.58139}},{"facility":"Research Site","status":"RECRUITING","city":"Liuzhou","zip":"545006","country":"China"},{"facility":"Research Site","status":"RECRUITING","city":"Luoyang","zip":"471000","country":"China","geoPoint":{"lat":34.68361,"lon":112.45361}},{"facility":"Research Site","status":"RECRUITING","city":"Nanchang","zip":"330006","country":"China","geoPoint":{"lat":28.68396,"lon":115.85306}},{"facility":"Research Site","status":"RECRUITING","city":"Nanchang","zip":"330009","country":"China","geoPoint":{"lat":28.68396,"lon":115.85306}},{"facility":"Research Site","status":"RECRUITING","city":"Nanjing","zip":"210029","country":"China","geoPoint":{"lat":32.06167,"lon":118.77778}},{"facility":"Research Site","status":"RECRUITING","city":"Shandong","zip":"250117","country":"China"},{"facility":"Research Site","status":"RECRUITING","city":"Shanghai","zip":"200025","country":"China","geoPoint":{"lat":31.22222,"lon":121.45806}},{"facility":"Research Site","status":"NOT_YET_RECRUITING","city":"Shanghai","zip":"200120","country":"China","geoPoint":{"lat":31.22222,"lon":121.45806}},{"facility":"Research Site","status":"RECRUITING","city":"Shenyang","zip":"110016","country":"China","geoPoint":{"lat":41.79222,"lon":123.43278}},{"facility":"Research Site","status":"RECRUITING","city":"Shijiazhuang","zip":"050000","country":"China","geoPoint":{"lat":38.04139,"lon":114.47861}},{"facility":"Research Site","status":"RECRUITING","city":"Tianjin","zip":"300000","country":"China","geoPoint":{"lat":39.14222,"lon":117.17667}},{"facility":"Research Site","status":"RECRUITING","city":"Wuhan","zip":"430030","country":"China","geoPoint":{"lat":30.58333,"lon":114.26667}},{"facility":"Research Site","status":"RECRUITING","city":"Wuhan","zip":"430040","country":"China","geoPoint":{"lat":30.58333,"lon":114.26667}},{"facility":"Research Site","status":"RECRUITING","city":"Wuhan","zip":"430079","country":"China","geoPoint":{"lat":30.58333,"lon":114.26667}},{"facility":"Research Site","status":"RECRUITING","city":"Xi'an","zip":"710006","country":"China","geoPoint":{"lat":34.25833,"lon":108.92861}},{"facility":"Research Site","status":"RECRUITING","city":"Xi'an","zip":"710061","country":"China","geoPoint":{"lat":34.25833,"lon":108.92861}},{"facility":"Research Site","status":"RECRUITING","city":"Xiamen","zip":"361003","country":"China","geoPoint":{"lat":24.47979,"lon":118.08187}},{"facility":"Research Site","status":"RECRUITING","city":"Xiangfan","zip":"441021","country":"China","geoPoint":{"lat":32.0422,"lon":112.14479}},{"facility":"Research Site","status":"RECRUITING","city":"Xinxiang","zip":"453100","country":"China","geoPoint":{"lat":35.19033,"lon":113.80151}},{"facility":"Research Site","status":"RECRUITING","city":"Zhengzhou","zip":"450008","country":"China","geoPoint":{"lat":34.75778,"lon":113.64861}},{"facility":"Research Site","status":"NOT_YET_RECRUITING","city":"Brno","zip":"656 53","country":"Czechia","geoPoint":{"lat":49.19522,"lon":16.60796}},{"facility":"Research Site","status":"NOT_YET_RECRUITING","city":"Horovice","zip":"26831","country":"Czechia","geoPoint":{"lat":49.83597,"lon":13.90268}},{"facility":"Research Site","status":"NOT_YET_RECRUITING","city":"Hradec Králové","zip":"500 05","country":"Czechia","geoPoint":{"lat":50.20923,"lon":15.83277}},{"facility":"Research Site","status":"NOT_YET_RECRUITING","city":"Olomouc","zip":"77900","country":"Czechia","geoPoint":{"lat":49.59552,"lon":17.25175}},{"facility":"Research Site","status":"NOT_YET_RECRUITING","city":"Praha 2","zip":"120 00","country":"Czechia","geoPoint":{"lat":50.08804,"lon":14.42076}},{"facility":"Research Site","status":"NOT_YET_RECRUITING","city":"Praha 8","zip":"180 00","country":"Czechia","geoPoint":{"lat":50.08804,"lon":14.42076}},{"facility":"Research Site","status":"NOT_YET_RECRUITING","city":"Angers","zip":"49100","country":"France","geoPoint":{"lat":47.46667,"lon":-0.55}},{"facility":"Research Site","status":"NOT_YET_RECRUITING","city":"Besançon Cedex","zip":"25030","country":"France","geoPoint":{"lat":47.24878,"lon":6.01815}},{"facility":"Research Site","status":"NOT_YET_RECRUITING","city":"Lille","zip":"59000","country":"France","geoPoint":{"lat":50.63297,"lon":3.05858}},{"facility":"Research Site","status":"NOT_YET_RECRUITING","city":"Lyon","zip":"69373","country":"France","geoPoint":{"lat":45.74848,"lon":4.84669}},{"facility":"Research Site","status":"NOT_YET_RECRUITING","city":"Marseille","zip":"13273","country":"France","geoPoint":{"lat":43.29551,"lon":5.38958}},{"facility":"Research Site","status":"NOT_YET_RECRUITING","city":"Paris","zip":"75005","country":"France","geoPoint":{"lat":48.85341,"lon":2.3488}},{"facility":"Research Site","status":"NOT_YET_RECRUITING","city":"Rouen","zip":"76021","country":"France","geoPoint":{"lat":49.44313,"lon":1.09932}},{"facility":"Research Site","status":"NOT_YET_RECRUITING","city":"Saint-Herblain","zip":"44805","country":"France","geoPoint":{"lat":47.21765,"lon":-1.64841}},{"facility":"Research Site","status":"RECRUITING","city":"Toulouse","zip":"31059","country":"France","geoPoint":{"lat":43.60426,"lon":1.44367}},{"facility":"Research Site","status":"NOT_YET_RECRUITING","city":"Villejuif Cedex","zip":"94805","country":"France","geoPoint":{"lat":48.7939,"lon":2.35992}},{"facility":"Research Site","status":"RECRUITING","city":"Aachen","zip":"52074","country":"Germany","geoPoint":{"lat":50.77664,"lon":6.08342}},{"facility":"Research Site","status":"RECRUITING","city":"Augsburg","zip":"86150","country":"Germany","geoPoint":{"lat":48.37154,"lon":10.89851}},{"facility":"Research Site","status":"RECRUITING","city":"Berlin","zip":"13125","country":"Germany","geoPoint":{"lat":52.52437,"lon":13.41053}},{"facility":"Research Site","status":"RECRUITING","city":"Dessau-Roßlau","zip":"06847","country":"Germany"},{"facility":"Research Site","status":"RECRUITING","city":"Düsseldorf","zip":"40225","country":"Germany","geoPoint":{"lat":51.22172,"lon":6.77616}},{"facility":"Research Site","status":"NOT_YET_RECRUITING","city":"Erlangen","zip":"91054","country":"Germany","geoPoint":{"lat":49.59099,"lon":11.00783}},{"facility":"Research Site","status":"NOT_YET_RECRUITING","city":"Goettingen","zip":"DE-37099","country":"Germany"},{"facility":"Research Site","status":"RECRUITING","city":"Hamburg","zip":"20357","country":"Germany","geoPoint":{"lat":53.57532,"lon":10.01534}},{"facility":"Research Site","status":"RECRUITING","city":"Hannover","zip":"30625","country":"Germany","geoPoint":{"lat":52.37052,"lon":9.73322}},{"facility":"Research Site","status":"RECRUITING","city":"Heidelberg","zip":"69120","country":"Germany","geoPoint":{"lat":49.40768,"lon":8.69079}},{"facility":"Research Site","status":"RECRUITING","city":"Kiel","zip":"24105","country":"Germany","geoPoint":{"lat":54.32133,"lon":10.13489}},{"facility":"Research Site","status":"WITHDRAWN","city":"Köln","zip":"50937","country":"Germany","geoPoint":{"lat":50.93333,"lon":6.95}},{"facility":"Research Site","status":"RECRUITING","city":"Leipzig","zip":"04103","country":"Germany","geoPoint":{"lat":51.33962,"lon":12.37129}},{"facility":"Research Site","status":"RECRUITING","city":"Ludwigsburg","zip":"71640","country":"Germany","geoPoint":{"lat":48.89731,"lon":9.19161}},{"facility":"Research Site","status":"RECRUITING","city":"München","zip":"81675","country":"Germany","geoPoint":{"lat":48.13743,"lon":11.57549}},{"facility":"Research Site","status":"NOT_YET_RECRUITING","city":"Münster","zip":"48149","country":"Germany","geoPoint":{"lat":51.96236,"lon":7.62571}},{"facility":"Research Site","status":"NOT_YET_RECRUITING","city":"Budapest","zip":"1082","country":"Hungary","geoPoint":{"lat":47.49801,"lon":19.03991}},{"facility":"Research Site","status":"NOT_YET_RECRUITING","city":"Budapest","zip":"1122","country":"Hungary","geoPoint":{"lat":47.49801,"lon":19.03991}},{"facility":"Research Site","status":"NOT_YET_RECRUITING","city":"Budapest","zip":"1145","country":"Hungary","geoPoint":{"lat":47.49801,"lon":19.03991}},{"facility":"Research Site","status":"NOT_YET_RECRUITING","city":"Miskolc","zip":"3526","country":"Hungary","geoPoint":{"lat":48.1,"lon":20.78333}},{"facility":"Research Site","status":"NOT_YET_RECRUITING","city":"Zalaegerszeg","zip":"8900","country":"Hungary","geoPoint":{"lat":46.84,"lon":16.84389}},{"facility":"Research Site","status":"RECRUITING","city":"Delhi","zip":"110029","country":"India","geoPoint":{"lat":28.65195,"lon":77.23149}},{"facility":"Research Site","status":"RECRUITING","city":"Kolkata","zip":"700160","country":"India","geoPoint":{"lat":22.56263,"lon":88.36304}},{"facility":"Research Site","status":"WITHDRAWN","city":"Luknow","zip":"226003","country":"India"},{"facility":"Research Site","status":"NOT_YET_RECRUITING","city":"Mumbai","zip":"400012","country":"India","geoPoint":{"lat":19.07283,"lon":72.88261}},{"facility":"Research Site","status":"RECRUITING","city":"Mumbai","zip":"400052","country":"India","geoPoint":{"lat":19.07283,"lon":72.88261}},{"facility":"Research Site","status":"RECRUITING","city":"Mysuru","zip":"570017","country":"India","geoPoint":{"lat":12.29791,"lon":76.63925}},{"facility":"Research Site","status":"RECRUITING","city":"Nagpur","zip":"440001","country":"India","geoPoint":{"lat":21.14631,"lon":79.08491}},{"facility":"Research Site","status":"RECRUITING","city":"Nashik","zip":"422002","country":"India","geoPoint":{"lat":19.99727,"lon":73.79096}},{"facility":"Research Site","status":"RECRUITING","city":"New Delhi","zip":"110085","country":"India","geoPoint":{"lat":28.63576,"lon":77.22445}},{"facility":"Research Site","status":"RECRUITING","city":"Surat","zip":"396007","country":"India","geoPoint":{"lat":21.19594,"lon":72.83023}},{"facility":"Research Site","status":"NOT_YET_RECRUITING","city":"Thiruvananthapuram","zip":"695011","country":"India","geoPoint":{"lat":8.4855,"lon":76.94924}},{"facility":"Research Site","status":"RECRUITING","city":"Jerusalem","zip":"9103102","country":"Israel","geoPoint":{"lat":31.76904,"lon":35.21633}},{"facility":"Research Site","status":"NOT_YET_RECRUITING","city":"Jerusalem","zip":"9112001","country":"Israel","geoPoint":{"lat":31.76904,"lon":35.21633}},{"facility":"Research Site","status":"NOT_YET_RECRUITING","city":"Petah Tikva","zip":"49100","country":"Israel","geoPoint":{"lat":32.08707,"lon":34.88747}},{"facility":"Research Site","status":"NOT_YET_RECRUITING","city":"Ramat Gan","zip":"52621","country":"Israel","geoPoint":{"lat":32.08227,"lon":34.81065}},{"facility":"Research Site","status":"NOT_YET_RECRUITING","city":"Tel Aviv","zip":"64239","country":"Israel","geoPoint":{"lat":32.08088,"lon":34.78057}},{"facility":"Research Site","status":"NOT_YET_RECRUITING","city":"Bergamo","zip":"24127","country":"Italy","geoPoint":{"lat":45.69601,"lon":9.66721}},{"facility":"Research Site","status":"RECRUITING","city":"Bologna","zip":"40138","country":"Italy","geoPoint":{"lat":44.49381,"lon":11.33875}},{"facility":"Research Site","status":"NOT_YET_RECRUITING","city":"Milano","zip":"20132","country":"Italy","geoPoint":{"lat":45.46427,"lon":9.18951}},{"facility":"Research Site","status":"RECRUITING","city":"Milano","zip":"20141","country":"Italy","geoPoint":{"lat":45.46427,"lon":9.18951}},{"facility":"Research Site","status":"WITHDRAWN","city":"Modena","zip":"41124","country":"Italy","geoPoint":{"lat":44.64783,"lon":10.92539}},{"facility":"Research Site","status":"RECRUITING","city":"Napoli","zip":"80131","country":"Italy","geoPoint":{"lat":40.85216,"lon":14.26811}},{"facility":"Research Site","status":"NOT_YET_RECRUITING","city":"Padova","zip":"35128","country":"Italy","geoPoint":{"lat":45.40797,"lon":11.88586}},{"facility":"Research Site","status":"NOT_YET_RECRUITING","city":"Reggio Emilia","zip":"422122","country":"Italy","geoPoint":{"lat":44.69825,"lon":10.63125}},{"facility":"Research Site","status":"RECRUITING","city":"Rome","zip":"00168","country":"Italy","geoPoint":{"lat":41.89193,"lon":12.51133}},{"facility":"Research Site","status":"RECRUITING","city":"Rozzano","zip":"20089","country":"Italy","geoPoint":{"lat":45.38193,"lon":9.1559}},{"facility":"Research Site","status":"RECRUITING","city":"Chiba-shi","zip":"260-8717","country":"Japan","geoPoint":{"lat":35.6,"lon":140.11667}},{"facility":"Research Site","status":"RECRUITING","city":"Hidaka-shi","zip":"350-1298","country":"Japan"},{"facility":"Research Site","status":"RECRUITING","city":"Hirakata-shi","zip":"573-1191","country":"Japan","geoPoint":{"lat":34.81352,"lon":135.64914}},{"facility":"Research Site","status":"RECRUITING","city":"Isehara-shi","zip":"259-1193","country":"Japan","geoPoint":{"lat":35.39932,"lon":139.31019}},{"facility":"Research Site","status":"RECRUITING","city":"Kagoshima-shi","zip":"892-0833","country":"Japan","geoPoint":{"lat":31.56667,"lon":130.55}},{"facility":"Research Site","status":"NOT_YET_RECRUITING","city":"Kashiwa","zip":"227-8577","country":"Japan","geoPoint":{"lat":35.86224,"lon":139.97732}},{"facility":"Research Site","status":"RECRUITING","city":"Koto-ku","zip":"135-8550","country":"Japan","geoPoint":{"lat":35.66667,"lon":139.81718}},{"facility":"Research Site","status":"RECRUITING","city":"Kumamoto-shi","zip":"860-8556","country":"Japan","geoPoint":{"lat":32.80589,"lon":130.69182}},{"facility":"Research Site","status":"RECRUITING","city":"Kyoto-shi","zip":"606-8507","country":"Japan","geoPoint":{"lat":35.02107,"lon":135.75385}},{"facility":"Research Site","status":"RECRUITING","city":"Matsuyama-shi","zip":"791-0280","country":"Japan","geoPoint":{"lat":33.83916,"lon":132.76574}},{"facility":"Research Site","status":"RECRUITING","city":"Nagoya-shi","zip":"464-8681","country":"Japan","geoPoint":{"lat":35.18147,"lon":136.90641}},{"facility":"Research Site","status":"RECRUITING","city":"Nagoya-shi","zip":"466-8560","country":"Japan","geoPoint":{"lat":35.18147,"lon":136.90641}},{"facility":"Research Site","status":"RECRUITING","city":"Nagoya-shi","zip":"467-8602","country":"Japan","geoPoint":{"lat":35.18147,"lon":136.90641}},{"facility":"Research Site","status":"RECRUITING","city":"Osaka-shi","zip":"541-8567","country":"Japan","geoPoint":{"lat":34.69374,"lon":135.50218}},{"facility":"Research Site","status":"RECRUITING","city":"Ota-shi","zip":"373-8550","country":"Japan","geoPoint":{"lat":36.3,"lon":139.36667}},{"facility":"Research Site","status":"RECRUITING","city":"Sapporo-shi","zip":"003-0804","country":"Japan","geoPoint":{"lat":43.06667,"lon":141.35}},{"facility":"Research Site","status":"RECRUITING","city":"Sendai-shi","zip":"980-8574","country":"Japan","geoPoint":{"lat":38.26667,"lon":140.86667}},{"facility":"Research Site","status":"RECRUITING","city":"Shinagawa-ku","zip":"142-8666","country":"Japan","geoPoint":{"lat":33.63627,"lon":133.00572}},{"facility":"Research Site","status":"RECRUITING","city":"Suita-shi","zip":"565-0871","country":"Japan","geoPoint":{"lat":34.76143,"lon":135.51567}},{"facility":"Research Site","status":"RECRUITING","city":"Sunto-gun","zip":"411-8777","country":"Japan"},{"facility":"Research Site","status":"RECRUITING","city":"Takasaki-shi","zip":"370-0829","country":"Japan","geoPoint":{"lat":36.33333,"lon":139.01667}},{"facility":"Research Site","status":"RECRUITING","city":"Tsu-shi","zip":"514-8507","country":"Japan","geoPoint":{"lat":34.73333,"lon":136.51667}},{"facility":"Research Site","status":"RECRUITING","city":"Yokohama-shi","zip":"241-8515","country":"Japan","geoPoint":{"lat":35.43333,"lon":139.65}},{"facility":"Research Site","status":"RECRUITING","city":"Daegu","zip":"41404","country":"Korea, Republic of","geoPoint":{"lat":35.87028,"lon":128.59111}},{"facility":"Research Site","status":"RECRUITING","city":"Seongnam-si","zip":"13620","country":"Korea, Republic of","geoPoint":{"lat":37.43861,"lon":127.13778}},{"facility":"Research Site","status":"RECRUITING","city":"Seoul","zip":"02841","country":"Korea, Republic of","geoPoint":{"lat":37.566,"lon":126.9784}},{"facility":"Research Site","status":"RECRUITING","city":"Seoul","zip":"03080","country":"Korea, Republic of","geoPoint":{"lat":37.566,"lon":126.9784}},{"facility":"Research Site","status":"RECRUITING","city":"Seoul","zip":"06351","country":"Korea, Republic of","geoPoint":{"lat":37.566,"lon":126.9784}},{"facility":"Research Site","status":"RECRUITING","city":"Seoul","zip":"3722","country":"Korea, Republic of","geoPoint":{"lat":37.566,"lon":126.9784}},{"facility":"Research Site","status":"RECRUITING","city":"Seoul","zip":"5505","country":"Korea, Republic of","geoPoint":{"lat":37.566,"lon":126.9784}},{"facility":"Research Site","status":"NOT_YET_RECRUITING","city":"Johor Bahru","zip":"81100","country":"Malaysia","geoPoint":{"lat":1.4655,"lon":103.7578}},{"facility":"Research Site","status":"NOT_YET_RECRUITING","city":"Kuala Lumpur","zip":"59100","country":"Malaysia","geoPoint":{"lat":3.1412,"lon":101.68653}},{"facility":"Research Site","status":"NOT_YET_RECRUITING","city":"Melaka","zip":"75000","country":"Malaysia","geoPoint":{"lat":2.196,"lon":102.2405}},{"facility":"Research Site","status":"NOT_YET_RECRUITING","city":"Puncak Alam","zip":"42300","country":"Malaysia"},{"facility":"Research Site","status":"NOT_YET_RECRUITING","city":"Selangor","zip":"62250","country":"Malaysia"},{"facility":"Research Site","status":"NOT_YET_RECRUITING","city":"Bellavista","zip":"CALLAO 2","country":"Peru","geoPoint":{"lat":-7.05614,"lon":-76.5911}},{"facility":"Research Site","status":"NOT_YET_RECRUITING","city":"Jesus Maria, Lima","zip":"LIMA 11","country":"Peru"},{"facility":"Research Site","status":"NOT_YET_RECRUITING","city":"Lima","zip":"15036","country":"Peru","geoPoint":{"lat":-12.04318,"lon":-77.02824}},{"facility":"Research Site","status":"NOT_YET_RECRUITING","city":"Lima","zip":"LIMA 29","country":"Peru","geoPoint":{"lat":-12.04318,"lon":-77.02824}},{"facility":"Research Site","status":"NOT_YET_RECRUITING","city":"Biała Podlaska","zip":"21-500","country":"Poland","geoPoint":{"lat":52.03238,"lon":23.11652}},{"facility":"Research Site","status":"NOT_YET_RECRUITING","city":"Poznań","zip":"61-485","country":"Poland","geoPoint":{"lat":52.40692,"lon":16.92993}},{"facility":"Research Site","status":"RECRUITING","city":"Warszawa","zip":"02-781","country":"Poland","geoPoint":{"lat":52.22977,"lon":21.01178}},{"facility":"Research Site","status":"RECRUITING","city":"Łódź","zip":"93-338","country":"Poland","geoPoint":{"lat":51.75,"lon":19.46667}},{"facility":"Research Site","status":"NOT_YET_RECRUITING","city":"Coimbra","zip":"3000-075","country":"Portugal","geoPoint":{"lat":40.20564,"lon":-8.41955}},{"facility":"Research Site","status":"NOT_YET_RECRUITING","city":"Lisboa","zip":"1099-023","country":"Portugal","geoPoint":{"lat":38.71667,"lon":-9.13333}},{"facility":"Research Site","status":"NOT_YET_RECRUITING","city":"Lisboa","zip":"1998-018","country":"Portugal","geoPoint":{"lat":38.71667,"lon":-9.13333}},{"facility":"Research Site","status":"NOT_YET_RECRUITING","city":"Matosinhos","zip":"4454-509","country":"Portugal","geoPoint":{"lat":41.18207,"lon":-8.68908}},{"facility":"Research Site","status":"NOT_YET_RECRUITING","city":"Porto","zip":"4050-115","country":"Portugal","geoPoint":{"lat":41.14961,"lon":-8.61099}},{"facility":"Research Site","status":"NOT_YET_RECRUITING","city":"Vila Real","zip":"5000-508","country":"Portugal","geoPoint":{"lat":41.30062,"lon":-7.74413}},{"facility":"Research Site","status":"RECRUITING","city":"San Juan","zip":"00918","country":"Puerto Rico","geoPoint":{"lat":18.46633,"lon":-66.10572}},{"facility":"Research Site","status":"RECRUITING","city":"Barcelona","zip":"08035","country":"Spain","geoPoint":{"lat":41.38879,"lon":2.15899}},{"facility":"Research Site","status":"NOT_YET_RECRUITING","city":"Caceres","zip":"10003","country":"Spain","geoPoint":{"lat":39.47649,"lon":-6.37224}},{"facility":"Research Site","status":"RECRUITING","city":"Granada","zip":"18007","country":"Spain","geoPoint":{"lat":37.18817,"lon":-3.60667}},{"facility":"Research Site","status":"RECRUITING","city":"L'Hospitalet de Llobregat","zip":"08908","country":"Spain","geoPoint":{"lat":41.35967,"lon":2.10028}},{"facility":"Research Site","status":"NOT_YET_RECRUITING","city":"Madrid","zip":"28040","country":"Spain","geoPoint":{"lat":40.4165,"lon":-3.70256}},{"facility":"Research Site","status":"RECRUITING","city":"Madrid","zip":"28041","country":"Spain","geoPoint":{"lat":40.4165,"lon":-3.70256}},{"facility":"Research Site","status":"RECRUITING","city":"Malaga","zip":"29010","country":"Spain","geoPoint":{"lat":36.72016,"lon":-4.42034}},{"facility":"Research Site","status":"RECRUITING","city":"Pamplona","zip":"31008","country":"Spain","geoPoint":{"lat":42.81687,"lon":-1.64323}},{"facility":"Research Site","status":"RECRUITING","city":"Sevilla","zip":"41013","country":"Spain","geoPoint":{"lat":37.38283,"lon":-5.97317}},{"facility":"Research Site","status":"RECRUITING","city":"Valencia","zip":"46006","country":"Spain","geoPoint":{"lat":39.46975,"lon":-0.37739}},{"facility":"Research Site","status":"RECRUITING","city":"New Taipei City","zip":"23561","country":"Taiwan","geoPoint":{"lat":25.01111,"lon":121.44583}},{"facility":"Research Site","status":"RECRUITING","city":"Taichung","country":"Taiwan","geoPoint":{"lat":24.1469,"lon":120.6839}},{"facility":"Research Site","status":"RECRUITING","city":"Tainan","zip":"704","country":"Taiwan","geoPoint":{"lat":22.99083,"lon":120.21333}},{"facility":"Research Site","status":"RECRUITING","city":"Taipei","zip":"100","country":"Taiwan","geoPoint":{"lat":25.04776,"lon":121.53185}},{"facility":"Research Site","status":"NOT_YET_RECRUITING","city":"Taipei","zip":"10449","country":"Taiwan","geoPoint":{"lat":25.04776,"lon":121.53185}},{"facility":"Research Site","status":"RECRUITING","city":"Taipei","zip":"112","country":"Taiwan","geoPoint":{"lat":25.04776,"lon":121.53185}},{"facility":"Research Site","status":"NOT_YET_RECRUITING","city":"Taoyuan","zip":"00333","country":"Taiwan","geoPoint":{"lat":24.95233,"lon":121.20193}},{"facility":"Research Site","status":"RECRUITING","city":"Bangkok","zip":"10210","country":"Thailand","geoPoint":{"lat":13.75398,"lon":100.50144}},{"facility":"Research Site","status":"RECRUITING","city":"Bangkok","zip":"10330","country":"Thailand","geoPoint":{"lat":13.75398,"lon":100.50144}},{"facility":"Research Site","status":"RECRUITING","city":"Dusit","zip":"10300","country":"Thailand","geoPoint":{"lat":13.7775,"lon":100.51977}},{"facility":"Research Site","status":"RECRUITING","city":"Hat Yai","zip":"90110","country":"Thailand","geoPoint":{"lat":7.00836,"lon":100.47668}},{"facility":"Research Site","status":"RECRUITING","city":"Ratchathewi","zip":"10400","country":"Thailand","geoPoint":{"lat":13.759,"lon":100.53358}},{"facility":"Research Site","status":"NOT_YET_RECRUITING","city":"Adapazari","zip":"54290","country":"Turkey","geoPoint":{"lat":40.78056,"lon":30.40333}},{"facility":"Research Site","status":"NOT_YET_RECRUITING","city":"Altındağ-Ankara","zip":"06230","country":"Turkey"},{"facility":"Research Site","status":"NOT_YET_RECRUITING","city":"Istanbul","zip":"34214","country":"Turkey","geoPoint":{"lat":41.01384,"lon":28.94966}},{"facility":"Research Site","status":"NOT_YET_RECRUITING","city":"Kayseri","zip":"38039","country":"Turkey","geoPoint":{"lat":38.73222,"lon":35.48528}},{"facility":"Research Site","status":"WITHDRAWN","city":"Çankaya","zip":"06680","country":"Turkey","geoPoint":{"lat":39.9179,"lon":32.86268}},{"facility":"Research Site","status":"RECRUITING","city":"Cambridge","zip":"CB2 2QQ","country":"United Kingdom","geoPoint":{"lat":52.2,"lon":0.11667}},{"facility":"Research Site","status":"RECRUITING","city":"Guildford","zip":"GU2 7XX","country":"United Kingdom","geoPoint":{"lat":51.23536,"lon":-0.57427}},{"facility":"Research Site","status":"RECRUITING","city":"London","zip":"SE1 9RT","country":"United Kingdom","geoPoint":{"lat":51.50853,"lon":-0.12574}},{"facility":"Research Site","status":"RECRUITING","city":"Manchester","zip":"M20 4BX","country":"United Kingdom","geoPoint":{"lat":53.48095,"lon":-2.23743}},{"facility":"Research Site","status":"WITHDRAWN","city":"Oxford","zip":"OX3 7LE","country":"United Kingdom","geoPoint":{"lat":51.75222,"lon":-1.25596}},{"facility":"Research Site","status":"NOT_YET_RECRUITING","city":"Swansea","zip":"SA2 8QA","country":"United Kingdom","geoPoint":{"lat":51.62079,"lon":-3.94323}},{"facility":"Research Site","status":"RECRUITING","city":"Taunton","zip":"TA1 5DA","country":"United Kingdom","geoPoint":{"lat":51.01494,"lon":-3.10293}},{"facility":"Research Site","status":"NOT_YET_RECRUITING","city":"Truro","zip":"TR1 3LJ","country":"United Kingdom","geoPoint":{"lat":50.26526,"lon":-5.05436}}]},"ipdSharingStatementModule":{"ipdSharing":"YES","description":"Qualified researchers can request access to anonymized individual patient-level data from AstraZeneca group of companies sponsored clinical trials via the request portal Vivli.org. All requests will be evaluated as per the AZ disclosure commitment: https://astrazenecagrouptrials.pharmacm.com/ST/Submission/Disclosure","infoTypes":["STUDY_PROTOCOL","SAP"],"timeFrame":"AstraZeneca will meet or exceed data availability as per the commitments made to the EFPIA/PhRMA Data-Sharing Principles. For details of our timelines, please refer to our disclosure commitment at https://astrazenecagrouptrials.pharmacm.com/ST/Submission/Disclosure","accessCriteria":"When a request has been approved AstraZeneca will provide access to the anonymized individual patient-level data via secure research environment Vivli.org. A Signed Data Usage Agreement (non-negotiable contract for data accessors) must be in place before accessing requested information","url":"https://astrazenecagroup-dt.pharmacm.com/DT/Home"}},"derivedSection":{"miscInfoModule":{"versionHolder":"2025-07-07"},"conditionBrowseModule":{"meshes":[{"id":"D001943","term":"Breast Neoplasms"}],"ancestors":[{"id":"D009371","term":"Neoplasms by Site"},{"id":"D009369","term":"Neoplasms"},{"id":"D001941","term":"Breast Diseases"},{"id":"D012871","term":"Skin Diseases"}],"browseLeaves":[{"id":"M5220","name":"Breast Neoplasms","asFound":"Breast Cancer","relevance":"HIGH"},{"id":"M5218","name":"Breast Diseases","relevance":"LOW"},{"id":"M15674","name":"Skin Diseases","relevance":"LOW"}],"browseBranches":[{"abbrev":"BC04","name":"Neoplasms"},{"abbrev":"BC17","name":"Skin and Connective Tissue Diseases"},{"abbrev":"All","name":"All Conditions"}]},"interventionBrowseModule":{"meshes":[{"id":"D000077289","term":"Letrozole"},{"id":"D000077267","term":"Fulvestrant"},{"id":"C500026","term":"Palbociclib"},{"id":"D000077384","term":"Anastrozole"},{"id":"C056516","term":"Exemestane"}],"ancestors":[{"id":"D000970","term":"Antineoplastic Agents"},{"id":"D047072","term":"Aromatase Inhibitors"},{"id":"D065088","term":"Steroid Synthesis Inhibitors"},{"id":"D004791","term":"Enzyme Inhibitors"},{"id":"D045504","term":"Molecular Mechanisms of Pharmacological Action"},{"id":"D004965","term":"Estrogen Antagonists"},{"id":"D006727","term":"Hormone Antagonists"},{"id":"D006730","term":"Hormones, Hormone Substitutes, and Hormone Antagonists"},{"id":"D045505","term":"Physiological Effects of Drugs"},{"id":"D018931","term":"Antineoplastic Agents, Hormonal"},{"id":"D065171","term":"Estrogen Receptor Antagonists"},{"id":"D047428","term":"Protein Kinase Inhibitors"}],"browseLeaves":[{"id":"M1723","name":"Fulvestrant","asFound":"Consultation","relevance":"HIGH"},{"id":"M9789","name":"Hormones","relevance":"LOW"},{"id":"M247237","name":"Exemestane","asFound":"Untreated","relevance":"HIGH"},{"id":"M1743","name":"Letrozole","asFound":"How","relevance":"HIGH"},{"id":"M223893","name":"Palbociclib","asFound":"Conditioning","relevance":"HIGH"},{"id":"M1781","name":"Anastrozole","asFound":"Persistent","relevance":"HIGH"},{"id":"M25769","name":"Aromatase Inhibitors","relevance":"LOW"},{"id":"M7951","name":"Enzyme Inhibitors","relevance":"LOW"},{"id":"M8116","name":"Estrogens","relevance":"LOW"},{"id":"M8114","name":"Estrogen Antagonists","relevance":"LOW"},{"id":"M30483","name":"Estrogen Receptor Antagonists","relevance":"LOW"},{"id":"M9788","name":"Hormone Antagonists","relevance":"LOW"},{"id":"M20966","name":"Antineoplastic Agents, Hormonal","relevance":"LOW"},{"id":"M25820","name":"Protein Kinase Inhibitors","relevance":"LOW"}],"browseBranches":[{"abbrev":"ANeo","name":"Antineoplastic Agents"},{"abbrev":"All","name":"All Drugs and Chemicals"}]}},"hasResults":false}