{"protocolSection":{"identificationModule":{"nctId":"NCT05949684","orgStudyIdInfo":{"id":"CA056-025"},"secondaryIdInfos":[{"id":"2022-500430-29-00","type":"OTHER","domain":"EU CTR Number"}],"organization":{"fullName":"Bristol-Myers Squibb","class":"INDUSTRY"},"briefTitle":"ELEMENT-MDS: A Study to Compare the Efficacy and Safety of Luspatercept in Participants With Myelodysplastic Syndrome (MDS) and Anemia Not Receiving Blood Transfusions","officialTitle":"A Phase 3, Open-label, Randomized Study to Compare the Efficacy and Safety of Luspatercept (ACE-536) vs Epoetin Alfa for the Treatment of Anemia Due to Revised International Prognostic Scoring System (IPSS-R) Very Low, Low, or Intermediate-Risk Myelodysplastic Syndrome (MDS) in Erythropoiesis-Stimulating Agent (ESA)-Naive Participants Who Are Non-Transfusion Dependent (NTD): The \"ELEMENT-MDS\" Trial","acronym":"ELEMENT-MDS"},"statusModule":{"statusVerifiedDate":"2025-06","overallStatus":"RECRUITING","expandedAccessInfo":{"hasExpandedAccess":false},"startDateStruct":{"date":"2023-10-24","type":"ACTUAL"},"primaryCompletionDateStruct":{"date":"2027-06-25","type":"ESTIMATED"},"completionDateStruct":{"date":"2030-03-11","type":"ESTIMATED"},"studyFirstSubmitDate":"2023-07-10","studyFirstSubmitQcDate":"2023-07-10","studyFirstPostDateStruct":{"date":"2023-07-18","type":"ACTUAL"},"lastUpdateSubmitDate":"2025-06-24","lastUpdatePostDateStruct":{"date":"2025-06-27","type":"ACTUAL"}},"sponsorCollaboratorsModule":{"responsibleParty":{"type":"SPONSOR"},"leadSponsor":{"name":"Bristol-Myers Squibb","class":"INDUSTRY"}},"oversightModule":{"oversightHasDmc":true,"isFdaRegulatedDrug":true,"isFdaRegulatedDevice":false},"descriptionModule":{"briefSummary":"The purpose of the study is to compare the efficacy and safety of Luspatercept vs epoetin alfa in the treatment of anemia in adults due to IPSS-R very low, low, intermediate-risk MDS in ESA-naïve participants who are non-transfusion dependent (NTD)."},"conditionsModule":{"conditions":["Myelodysplastic Syndromes"],"keywords":["Luspatercept","BMS-986346","ACE-536","Myelodysplastic Syndrome","Epoetin alfa","Erythropoietin stimulating agent (ESA)","Myelodysplastic Syndromes (MDS)","Anaemia"]},"designModule":{"studyType":"INTERVENTIONAL","phases":["PHASE3"],"designInfo":{"allocation":"RANDOMIZED","interventionModel":"PARALLEL","primaryPurpose":"TREATMENT","maskingInfo":{"masking":"NONE"}},"enrollmentInfo":{"count":360,"type":"ESTIMATED"}},"armsInterventionsModule":{"armGroups":[{"label":"Luspatercept","type":"EXPERIMENTAL","interventionNames":["Biological: Luspatercept"]},{"label":"Epoetin Alfa","type":"ACTIVE_COMPARATOR","interventionNames":["Biological: Epoetin Alfa"]}],"interventions":[{"type":"BIOLOGICAL","name":"Luspatercept","description":"Specified dose on specified days","armGroupLabels":["Luspatercept"],"otherNames":["BMS-986346","ACE-536","Reblozyl®"]},{"type":"BIOLOGICAL","name":"Epoetin Alfa","description":"Specified dose on specified days","armGroupLabels":["Epoetin Alfa"],"otherNames":["Epogen®","PROCRIT®","BINOCRIT"]}]},"outcomesModule":{"primaryOutcomes":[{"measure":"Number of participants with lower-risk non-transfusion dependent myelodysplastic syndromes (NTD-MDS) who converted to Transfusion Dependence (TD) during any continuous 16-week interval within the 96-week treatment period","description":"TD is defined as ≥ 3 red blood cells (RBC) units/16 weeks assessed by International Working Group (IWG) 2018.","timeFrame":"Up to Week 96"}],"secondaryOutcomes":[{"measure":"Number of participants with an increase from baseline in mean Hb values of ≥ 1.5 grams/deciliter (g/dL) in any continuous 16-week interval within the 48 week Treatment Period in the absence of transfusion","timeFrame":"Up to Week 48"},{"measure":"Number of participants with an increase from baseline in mean Hb values of ≥ 1.5 g/dL in any continuous 24-week interval within the 48-week and 96-week treatment period in the absence of transfusion","timeFrame":"Up to Week 48"},{"measure":"Number of participants with an increase from baseline in mean Hb values of ≥ 1.5 g/dL in any continuous 24-week interval within the 48-week and 96-week treatment period in the absence of transfusion","timeFrame":"From Week 49 to Week 96"},{"measure":"Number of participants with an increase from baseline in mean Hb values of ≥ 1.5 g/dL in any continuous 24-week interval within the 48-week and 96-week treatment period in the absence of transfusion","timeFrame":"Up to Week 96"},{"measure":"Number of participants with an increase from baseline in mean Hb values of ≥ 1.0 g/dL in any continuous 24-week interval within the 48-week and 96-week treatment period in the absence of transfusion","timeFrame":"Up to Week 48"},{"measure":"Number of participants with an increase from baseline in mean Hb values of ≥ 1.0 g/dL in any continuous 24-week interval within the 48-week and 96-week treatment period in the absence of transfusion","timeFrame":"From Week 49 to Week 96"},{"measure":"Number of participants with an increase from baseline in mean Hb values of ≥ 1.0 g/dL in any continuous 24-week interval within the 48-week and 96-week treatment period in the absence of transfusion","timeFrame":"Up to Week 96"},{"measure":"Mean Hb change over fixed 24-week periods compared to the baseline Hb","timeFrame":"Baseline, Week 24, Week 48, Week 72, Week 96"},{"measure":"Number of participants with an increase from baseline in mean Hb values of ≥ 1.5 g/dL in any continuous 16-week interval within the 96-week treatment period in the absence of transfusion","timeFrame":"Up to Week 96"},{"measure":"Number of participants with TD by week 48","timeFrame":"Up to Week 48"},{"measure":"Time to TD (IWG 2018 defined as ≥ 3 RBC units/16 weeks) during any continuous 16-week interval until the end of study","timeFrame":"Up to 5 years"},{"measure":"Time from first Luspatercept dose to first RBC transfusion","timeFrame":"Up to 5 years"},{"measure":"Duration of median hematologic improvement in erythroid response(mHI-E) in participants with an increase from baseline in mean Hb values of ≥1.5g/dL in any continuous 16-week interval within 48-week treatment period in absence of transfusion","timeFrame":"Up to Week 48"},{"measure":"Duration of median hematologic improvement in erythroid response(mHI-E) in participants with an increase from baseline in mean Hb values of ≥1.5g/dL in any continuous 16-week interval within 96-week treatment period in absence of transfusion","timeFrame":"Up to Week 96"},{"measure":"Time from first dose to first day of response (increase in mean Hb values of ≥ 1.5 g/dL in any continuous 16-week interval within the 48-week Treatment Period in the absence of transfusion)","timeFrame":"Up to Week 48"},{"measure":"Time from first dose to first day of response (increase in mean Hb values of ≥ 1.5 g/dL in any continuous 16-week interval within the 96-week Treatment Period in the absence of transfusion)","timeFrame":"Up to Week 96"},{"measure":"Number of participants with RBC transfusion independence over at least a consecutive 24-week period","timeFrame":"Up to 5 years"},{"measure":"Number of transfusions","timeFrame":"Up to 5 years"},{"measure":"Number of transfusions visits/units","timeFrame":"Up to 5 years"},{"measure":"Change from baseline in subscales of self-reported health-related quality-of-life (HRQoL) assessed by the Functional Assessment of Cancer Therapy - Anemia (FACT-An)","timeFrame":"Baseline, Up to 5 years"},{"measure":"Change from baseline in self-reported HRQoL assessed by the European quality of life questionnaire 5-dimension (EQ-5D-5L)","timeFrame":"Baseline, Up to 5 years"},{"measure":"Number of participants with adverse events (AEs)","timeFrame":"Up to Week 102"},{"measure":"Number of participants with antidrug antibody (ADA) (positive or negative)","timeFrame":"Up to Week 102"},{"measure":"Pharmacokinetics (PK): Serum concentration","timeFrame":"Up to Week 96"},{"measure":"PK: Area under the plasma concentration time curve (AUC)","timeFrame":"Up to Week 96"},{"measure":"Number of participants with a platelet response at Week 24, Week 48 and Week 96","description":"Platelet response is defined as an increase from baseline in number of platelets to ≥ 30 × 10\\^9/L at Week 24, Week 48 and Week 96.","timeFrame":"Up to Week 96"},{"measure":"Number of participants with a neutrophil response at Week 24, Week 48 and Week 96","description":"Neutrophil response is defined as an absolute increase from baseline of \\> 0.5 × 10\\^9/L neutrophils at Week 24, Week 48 and Week 96.","timeFrame":"Up to Week 96"},{"measure":"Number of participants with acute myeloid leukemia (AML) progression","timeFrame":"Up to 5 years"},{"measure":"Time to AML progression","timeFrame":"Up to 5 years"},{"measure":"Number of participants with high risk myelodysplastic syndromes (MDS) progression","timeFrame":"Up to 5 years"},{"measure":"Time to high-risk MDS progression","timeFrame":"Up to 5 years"},{"measure":"Time from date of randomization up to death due to any cause","timeFrame":"Up to 5 years"}]},"eligibilityModule":{"eligibilityCriteria":"Inclusion Criteria\n\n* Participant has documented diagnosis of MDS according to World Health Organization (WHO) 2016 that meet IPSS-R classification of very low, low, or intermediate-risk disease, (intermediate-risk of ≤ 3.5 IPSS-R score) confirmed via bone marrow aspirate and:.\n\n  i) \\< 5% blasts in bone marrow and \\< 1% blasts in peripheral blood.\n* Participant is not transfusion dependent (NTD) based on IWG2018 criteria.\n* Participant is erythropoiesis-stimulating agent naive. Participants may be randomized at the investigator's discretion if the participant received no more than 2 prior doses of epoetin alfa, epoetin alfa biosimilar, or darbepoetin alfa, with the last dose at least 8 weeks prior to randomization.\n* Participant has a baseline endogenous serum erythropoietin (sEPO) level of ≤ 500 U/L.\n* Participant has symptoms of anemia:.\n\n  i) Participant records a severity score of \"moderate\" or greater on at least 1 PGI-S item of fatigue, weakness, shortness of breath, or dizziness performed during the screening period.\n* Participant has a baseline Hb concentration prior to randomization of ≤ 9.5 g/dL. The baseline Hb will be calculated using the mean of the two lowest available Hb measurements within 16 weeks prior to randomization and must include at least one central lab Hb reading done within the screening period (no more than 35 days before randomization). The two Hb measurements must have been performed at least seven days apart. Hb levels less than 21 days following RBC transfusion should not be used. Split samples for local assessments are not required.\n\nExclusion Criteria\n\n* Participant with secondary MDS (that is, MDS that is known to have arisen as the result of chemical injury or treatment with chemotherapy and/or radiation for other diseases).\n* Participant with known history of diagnosis of AML.\n* Participant with history of cerebrovascular accident (including ischemic, embolic, and hemorrhagic cerebrovascular accident), transient ischemic attack, deep venous thrombosis (including proximal and distal), pulmonary or arterial embolism, arterial thrombosis, or other venous thrombosis within 6 months prior to randomization.\n* Participant with a history of pure red cell aplasia and/or antibody against erythropoietin.\n* Other protocol-defined Inclusion/Exclusion criteria apply.","healthyVolunteers":false,"sex":"ALL","minimumAge":"18 Years","stdAges":["ADULT","OLDER_ADULT"]},"contactsLocationsModule":{"centralContacts":[{"name":"BMS Clinical Trials Contact Center www.BMSClinicalTrials.com","role":"CONTACT","phone":"855-907-3286","email":"Clinical.Trials@bms.com"},{"name":"First line of the email MUST contain the NCT# and Site #.","role":"CONTACT"}],"overallOfficials":[{"name":"Bristol-Myers Squibb","affiliation":"Bristol-Myers Squibb","role":"STUDY_DIRECTOR"}],"locations":[{"facility":"Community Cancer Institute","status":"RECRUITING","city":"Clovis","state":"California","zip":"93611","country":"United States","contacts":[{"name":"Haifaa Abdulhaq, Site 0070","role":"CONTACT","phone":"559-618-6208"}],"geoPoint":{"lat":36.82523,"lon":-119.70292}},{"facility":"John Muir Medical Center - Concord Campus","status":"RECRUITING","city":"Concord","state":"California","zip":"94520","country":"United States","contacts":[{"name":"Gigi Chen, Site 0183","role":"CONTACT","phone":"925-674-2580"}],"geoPoint":{"lat":37.97798,"lon":-122.03107}},{"facility":"Compassionate Cancer Care Medical Group","status":"RECRUITING","city":"Fountain Valley","state":"California","zip":"92708","country":"United States","contacts":[{"name":"Haresh Jhangiani, Site 0179","role":"CONTACT","phone":"951-371-2411"}],"geoPoint":{"lat":33.70918,"lon":-117.95367}},{"facility":"Local Institution - 0095","status":"WITHDRAWN","city":"Fresno","state":"California","zip":"93703","country":"United States","geoPoint":{"lat":36.74773,"lon":-119.77237}},{"facility":"Cancer and Blood Specialty Clinic","status":"RECRUITING","city":"Los Alamitos","state":"California","zip":"90720","country":"United States","contacts":[{"name":"Vu Quang Phan, Site 0211","role":"CONTACT","phone":"562-735-0602"}],"geoPoint":{"lat":33.80307,"lon":-118.07256}},{"facility":"UCLA Hematology/Oncology - Westwood (Building 200 Suite 120)","status":"RECRUITING","city":"Los Angeles","state":"California","zip":"90095","country":"United States","contacts":[{"name":"Wanxing Chai-Ho, Site 0258","role":"CONTACT","phone":"310-794-6500"}],"geoPoint":{"lat":34.05223,"lon":-118.24368}},{"facility":"St. Joseph Hospital","status":"RECRUITING","city":"Orange","state":"California","zip":"92868","country":"United States","contacts":[{"name":"Timothy Byun, Site 0247","role":"CONTACT","phone":"714-541-6622"}],"geoPoint":{"lat":33.78779,"lon":-117.85311}},{"facility":"Ventura County Hematology Oncology Specialists","status":"RECRUITING","city":"Oxnard","state":"California","zip":"93030","country":"United States","contacts":[{"name":"Lynn Kong, Site 0209","role":"CONTACT","phone":"000-000-0000"}],"geoPoint":{"lat":34.1975,"lon":-119.17705}},{"facility":"Local Institution - 0098","status":"WITHDRAWN","city":"Fort Collins","state":"Colorado","zip":"80528","country":"United States","geoPoint":{"lat":40.58526,"lon":-105.08442}},{"facility":"Hartford Hospital (HH)","status":"RECRUITING","city":"Hartford","state":"Connecticut","zip":"06102","country":"United States","contacts":[{"name":"Devendra KC, Site 0227","role":"CONTACT","phone":"860-972-5361"}],"geoPoint":{"lat":41.76371,"lon":-72.68509}},{"facility":"Yale-New Haven Hospital","status":"RECRUITING","city":"New Haven","state":"Connecticut","zip":"06510","country":"United States","contacts":[{"name":"Amer Zeidan, Site 0173","role":"CONTACT","phone":"203-737-7078"}],"geoPoint":{"lat":41.30815,"lon":-72.92816}},{"facility":"Halifax Health Medical Center","status":"NOT_YET_RECRUITING","city":"Daytona Beach","state":"Florida","zip":"32114","country":"United States","contacts":[{"name":"Ruby Anne Deveras, Site 0231","role":"CONTACT","phone":"386-254-4212"}],"geoPoint":{"lat":29.21081,"lon":-81.02283}},{"facility":"Local Institution - 0230","status":"WITHDRAWN","city":"Daytona Beach","state":"Florida","zip":"32114","country":"United States","geoPoint":{"lat":29.21081,"lon":-81.02283}},{"facility":"Florida Cancer Specialists - South","status":"RECRUITING","city":"Fort Myers","state":"Florida","zip":"33901","country":"United States","contacts":[{"name":"Syed Zafar, Site 0202","role":"CONTACT","phone":"239-274-9930"}],"geoPoint":{"lat":26.62168,"lon":-81.84059}},{"facility":"Baptist MD Anderson Cancer Center","status":"RECRUITING","city":"Jacksonville","state":"Florida","zip":"32207","country":"United States","contacts":[{"name":"Maxim Norkin, Site 0180","role":"CONTACT","phone":"248-756-4524"}],"geoPoint":{"lat":30.33218,"lon":-81.65565}},{"facility":"D&H Cancer Research Center LLC","status":"RECRUITING","city":"Margate","state":"Florida","zip":"33063","country":"United States","contacts":[{"name":"David Kahn, Site 0224","role":"CONTACT","phone":"954-323-2422"}],"geoPoint":{"lat":26.24453,"lon":-80.20644}},{"facility":"BRCR Global","status":"RECRUITING","city":"Plantation","state":"Florida","zip":"33322","country":"United States","contacts":[{"name":"Jason Tache, Site 0163","role":"CONTACT","phone":"516-447-0614"}],"geoPoint":{"lat":26.13421,"lon":-80.23184}},{"facility":"Florida Cancer Specialists - North","status":"RECRUITING","city":"Saint Petersburg","state":"Florida","zip":"33705","country":"United States","contacts":[{"name":"Gustavo Fonseca, Site 0201","role":"CONTACT","phone":"000-000-0000"}],"geoPoint":{"lat":27.77086,"lon":-82.67927}},{"facility":"Advanced Research","status":"RECRUITING","city":"Tamarac","state":"Florida","zip":"33321","country":"United States","contacts":[{"name":"Sumit Sawhney, Site 0238","role":"CONTACT","phone":"954-302-3120"}],"geoPoint":{"lat":26.21286,"lon":-80.24977}},{"facility":"Moffitt Cancer Center","status":"RECRUITING","city":"Tampa","state":"Florida","zip":"33612","country":"United States","contacts":[{"name":"Rami Komrokji, Site 0106","role":"CONTACT","phone":"513-504-9712"}],"geoPoint":{"lat":27.94752,"lon":-82.45843}},{"facility":"Local Institution - 0240","status":"NOT_YET_RECRUITING","city":"Honolulu","state":"Hawaii","zip":"96813","country":"United States","contacts":[{"name":"Site 0240","role":"CONTACT"}],"geoPoint":{"lat":21.30694,"lon":-157.85833}},{"facility":"Northwestern Memorial Hospital","status":"RECRUITING","city":"Chicago","state":"Illinois","zip":"60611","country":"United States","contacts":[{"name":"Yasmin Abaza, Site 0272","role":"CONTACT","phone":"832-289-7397"}],"geoPoint":{"lat":41.85003,"lon":-87.65005}},{"facility":"Orchard Healthcare Research Inc.","status":"RECRUITING","city":"Skokie","state":"Illinois","zip":"60077","country":"United States","contacts":[{"name":"Ira Oliff, Site 0184","role":"CONTACT","phone":"224-534-7580"}],"geoPoint":{"lat":42.03336,"lon":-87.73339}},{"facility":"Northwest Cancer Centers, P.C.","status":"RECRUITING","city":"Dyer","state":"Indiana","zip":"46311","country":"United States","contacts":[{"name":"Shruti Singh, Site 0270","role":"CONTACT","phone":"219-924-8178"}],"geoPoint":{"lat":41.4942,"lon":-87.52171}},{"facility":"Local Institution - 0232","status":"WITHDRAWN","city":"Pikeville","state":"Kentucky","zip":"41501","country":"United States","geoPoint":{"lat":37.47927,"lon":-82.51876}},{"facility":"Our Lady of the Lake RMC","status":"RECRUITING","city":"Baton Rouge","state":"Louisiana","zip":"70808","country":"United States","contacts":[{"name":"Marshall Stagg, Site 0191","role":"CONTACT","phone":"225-765-3344"}],"geoPoint":{"lat":30.45075,"lon":-91.15455}},{"facility":"Pontchartrain Cancer Center","status":"RECRUITING","city":"Covington","state":"Louisiana","zip":"70433","country":"United States","contacts":[{"name":"David Oubre, Site 0044","role":"CONTACT","phone":"985-875-1202"}],"geoPoint":{"lat":30.47549,"lon":-90.10042}},{"facility":"Local Institution - 0097","status":"WITHDRAWN","city":"New Orleans","state":"Louisiana","zip":"70112","country":"United States","geoPoint":{"lat":29.95465,"lon":-90.07507}},{"facility":"American Oncology Partners of Maryland, PA","status":"RECRUITING","city":"Bethesda","state":"Maryland","zip":"20817","country":"United States","contacts":[{"name":"Ralph Boccia, Site 0007","role":"CONTACT","phone":"301-571-2016"}],"geoPoint":{"lat":38.98067,"lon":-77.10026}},{"facility":"Metro-Minnesota Community Clinical Oncology","status":"RECRUITING","city":"Saint Louis Park","state":"Minnesota","zip":"55426","country":"United States","contacts":[{"name":"Yan Ji, Site 0222","role":"CONTACT","phone":"952-993-3252"}],"geoPoint":{"lat":44.9483,"lon":-93.34801}},{"facility":"Hattiesburg Clinic Hematology/Oncology","status":"RECRUITING","city":"Hattiesburg","state":"Mississippi","zip":"39401","country":"United States","contacts":[{"name":"John Hrom, Site 0128","role":"CONTACT","phone":"601-261-1700"}],"geoPoint":{"lat":31.32712,"lon":-89.29034}},{"facility":"John Theurer Cancer Center at Hackensack University Medical Center","status":"RECRUITING","city":"Hackensack","state":"New Jersey","zip":"07601","country":"United States","contacts":[{"name":"Jamie Koprivnikar, Site 0212","role":"CONTACT","phone":"551-996-3925"}],"geoPoint":{"lat":40.88593,"lon":-74.04347}},{"facility":"The James Cancer Hospital and Solove Research Institute at The Ohio State University Comprehensive Cancer Center","status":"RECRUITING","city":"Columbus","state":"Ohio","zip":"43210","country":"United States","contacts":[{"name":"Uma Borate, Site 0206","role":"CONTACT","phone":"503-418-2294"}],"geoPoint":{"lat":39.96118,"lon":-82.99879}},{"facility":"University of Tennessee Medical Center","status":"RECRUITING","city":"Knoxville","state":"Tennessee","zip":"37920","country":"United States","contacts":[{"name":"Wahid Hanna, Site 0174","role":"CONTACT","phone":"865-544-9171"}],"geoPoint":{"lat":35.96064,"lon":-83.92074}},{"facility":"University of Texas MD Anderson Cancer Center","status":"RECRUITING","city":"Houston","state":"Texas","zip":"77030","country":"United States","contacts":[{"name":"Guillermo Garcia-Manero, Site 0228","role":"CONTACT","phone":"713-745-3428"}],"geoPoint":{"lat":29.76328,"lon":-95.36327}},{"facility":"VCU Health Adult Outpatient Pavillion","status":"RECRUITING","city":"Richmond","state":"Virginia","zip":"23219","country":"United States","contacts":[{"name":"Ruchi Desai, Site 0236","role":"CONTACT","phone":"804-828-7999"}],"geoPoint":{"lat":37.55376,"lon":-77.46026}},{"facility":"Blue Ridge Cancer Care","status":"RECRUITING","city":"Roanoke","state":"Virginia","zip":"24014","country":"United States","contacts":[{"name":"Amanda Gillespie-Twardy, Site 0229","role":"CONTACT","phone":"540-982-0237"}],"geoPoint":{"lat":37.27097,"lon":-79.94143}},{"facility":"Kadlec Clinic Hematology and Oncology","status":"RECRUITING","city":"Kennewick","state":"Washington","zip":"99336","country":"United States","contacts":[{"name":"Rangaswamy Chintapatla, Site 0203","role":"CONTACT","phone":"509-783-4637"}],"geoPoint":{"lat":46.21125,"lon":-119.13723}},{"facility":"Local Institution - 0213","status":"WITHDRAWN","city":"Seattle","state":"Washington","zip":"98133","country":"United States","geoPoint":{"lat":47.60621,"lon":-122.33207}},{"facility":"Centro Mdico \"Barrio Parque\"","status":"RECRUITING","city":"Buenos Aires","zip":"C1425DND","country":"Argentina","contacts":[{"name":"Claudio Iastrebner, Site 0010","role":"CONTACT","phone":"+54-911-69816300"}],"geoPoint":{"lat":-34.61315,"lon":-58.37723}},{"facility":"Hospital Británico de Buenos Aires","status":"RECRUITING","city":"Buenos Aires","zip":"CP1280AEB","country":"Argentina","contacts":[{"name":"Micaela Quarchioni, Site 0012","role":"CONTACT","phone":"+5493416423963"}],"geoPoint":{"lat":-34.61315,"lon":-58.37723}},{"facility":"Instituto Alexander Fleming","status":"RECRUITING","city":"Ciudad Autónoma de Buenos Aires","zip":"C1426ANZ","country":"Argentina","contacts":[{"name":"maria custidiano, Site 0009","role":"CONTACT","phone":"+5491140510781"}],"geoPoint":{"lat":-34.61315,"lon":-58.37723}},{"facility":"Blacktown Hospital","status":"RECRUITING","city":"Blacktown","state":"New South Wales","zip":"2148","country":"Australia","contacts":[{"name":"Kenny Tang, Site 0071","role":"CONTACT","phone":"0286708421"}],"geoPoint":{"lat":-33.76667,"lon":150.91667}},{"facility":"Royal Prince Alfred Hospital","status":"RECRUITING","city":"Camperdown","state":"New South Wales","zip":"2050","country":"Australia","contacts":[{"name":"Stephen Larsen, Site 0113","role":"CONTACT","phone":"+6195158031"}],"geoPoint":{"lat":-33.88965,"lon":151.17642}},{"facility":"Coffs Harbour Health Campus","status":"RECRUITING","city":"Coffs Harbour","state":"New South Wales","zip":"2450","country":"Australia","contacts":[{"name":"Kyle Crassini, Site 0254","role":"CONTACT","phone":"0266565737"}],"geoPoint":{"lat":-30.29626,"lon":153.11351}},{"facility":"Pindara Private Hospital","status":"RECRUITING","city":"Gold Coast","state":"Queensland","zip":"4217","country":"Australia","contacts":[{"name":"Hanlon Sia, Site 0246","role":"CONTACT","phone":"+61755067812"}],"geoPoint":{"lat":-28.00029,"lon":153.43088}},{"facility":"Monash Health","status":"RECRUITING","city":"Clayton","state":"Victoria","zip":"3168","country":"Australia","contacts":[{"name":"Jake Shortt, Site 0054","role":"CONTACT","phone":"0395944365"}],"geoPoint":{"lat":-37.91667,"lon":145.11667}},{"facility":"Austin Health","status":"RECRUITING","city":"Heidelberg","state":"Victoria","zip":"3084","country":"Australia","contacts":[{"name":"Chun Fong, Site 0052","role":"CONTACT","phone":"61394966731"}],"geoPoint":{"lat":-37.75,"lon":145.06667}},{"facility":"Hospital Universitario Walter Cantidio","status":"RECRUITING","city":"Fortaleza","state":"Ceará","zip":"60430-270","country":"Brazil","contacts":[{"name":"Silvia Maria Magalhaes, Site 0059","role":"CONTACT","phone":"85999818108"}],"geoPoint":{"lat":-3.71722,"lon":-38.54306}},{"facility":"Hospital São Lucas da PUCRS","status":"RECRUITING","city":"Porto Alegre","state":"Rio Grande Do Sul","zip":"90610-000","country":"Brazil","contacts":[{"name":"Mariza Schaan, Site 0101","role":"CONTACT","phone":"55 5133203319"}],"geoPoint":{"lat":-30.03306,"lon":-51.23}},{"facility":"HEMORIO","status":"RECRUITING","city":"Rio de Janeiro","zip":"20211-030","country":"Brazil","contacts":[{"name":"Viviani Pessoa, Site 0056","role":"CONTACT","phone":"21-981698808"}],"geoPoint":{"lat":-22.90278,"lon":-43.2075}},{"facility":"Hospital das Clinicas FMUSP","status":"RECRUITING","city":"São Paulo","zip":"05403-000","country":"Brazil","contacts":[{"name":"Elvira Velloso, Site 0003","role":"CONTACT","phone":"+551145737631"}],"geoPoint":{"lat":-23.5475,"lon":-46.63611}},{"facility":"Arthur J.E. Child Comprehensive Cancer Centre","status":"RECRUITING","city":"Calgary","state":"Alberta","zip":"T2N 5G2","country":"Canada","contacts":[{"name":"Michelle Geddes, Site 0049","role":"CONTACT","phone":"4039448047"}],"geoPoint":{"lat":51.05011,"lon":-114.08529}},{"facility":"St. Paul's Hospital","status":"RECRUITING","city":"Vancouver","state":"British Columbia","zip":"V6Z 1Y6","country":"Canada","contacts":[{"name":"Heather Leitch, Site 0112","role":"CONTACT","phone":"0000000000"}],"geoPoint":{"lat":49.24966,"lon":-123.11934}},{"facility":"Victoria Hospital & Children's Hospital - London Health Sciences Centre","status":"RECRUITING","city":"London","state":"Ontario","zip":"N6A 5W9","country":"Canada","contacts":[{"name":"lalit Saini, Site 0050","role":"CONTACT","phone":"519-685-8500x56072"}],"geoPoint":{"lat":42.98339,"lon":-81.23304}},{"facility":"Sunnybrook Health Sciences Centre","status":"RECRUITING","city":"Toronto","state":"Ontario","zip":"M4N 3M5","country":"Canada","contacts":[{"name":"Rena Buckstein, Site 0017","role":"CONTACT","phone":"4163992979"}],"geoPoint":{"lat":43.70011,"lon":-79.4163}},{"facility":"Enroll SpA","status":"RECRUITING","city":"Santiago","state":"Región Metropolitana De Santiago","zip":"7500587","country":"Chile","contacts":[{"name":"Ximena Valladares, Site 0280","role":"CONTACT","phone":"56964790949"}],"geoPoint":{"lat":-33.45694,"lon":-70.64827}},{"facility":"FALP","status":"RECRUITING","city":"Santiago","state":"Región Metropolitana De Santiago","zip":"7500921","country":"Chile","contacts":[{"name":"Valentina Goldschmidt, Site 0278","role":"CONTACT","phone":"+56989010375"}],"geoPoint":{"lat":-33.45694,"lon":-70.64827}},{"facility":"Clínica Inmunocel","status":"RECRUITING","city":"Santiago","state":"Región Metropolitana De Santiago","zip":"7580206","country":"Chile","contacts":[{"name":"Alejandro Berkovits Cáceres, Site 0276","role":"CONTACT","phone":"997890202"}],"geoPoint":{"lat":-33.45694,"lon":-70.64827}},{"facility":"Bradfordhill","status":"RECRUITING","city":"Santiago","state":"Región Metropolitana De Santiago","zip":"8420383","country":"Chile","contacts":[{"name":"Sergio Portiño, Site 0277","role":"CONTACT","phone":"56998467083"}],"geoPoint":{"lat":-33.45694,"lon":-70.64827}},{"facility":"Anhui Provincial Hospital","status":"RECRUITING","city":"Hefei","state":"Anhui","zip":"230071","country":"China","contacts":[{"name":"Baolin Tang, Site 0109","role":"CONTACT","phone":"13856901277"}],"geoPoint":{"lat":31.86389,"lon":117.28083}},{"facility":"Peking University People's Hospital","status":"RECRUITING","city":"Beijing","state":"Beijing","zip":"100044","country":"China","contacts":[{"name":"hongxia shi, Site 0217","role":"CONTACT","phone":"13661049635"}],"geoPoint":{"lat":39.9075,"lon":116.39723}},{"facility":"Beijing Peking Union Medical College Hospital","status":"RECRUITING","city":"Beijing","state":"Beijing","zip":"100730","country":"China","contacts":[{"name":"Bing Han, Site 0030","role":"CONTACT","phone":"8613601059938"}],"geoPoint":{"lat":39.9075,"lon":116.39723}},{"facility":"The First Affiliated Hospital of Chongqing Medical University","status":"RECRUITING","city":"Chongqing","state":"Chongqing","zip":"400016","country":"China","contacts":[{"name":"li wang, Site 0223","role":"CONTACT","phone":"18623015252"}],"geoPoint":{"lat":29.56278,"lon":106.55278}},{"facility":"Local Institution - 0096","status":"WITHDRAWN","city":"Fuzhou Fujian","state":"Fujian","zip":"350001","country":"China"},{"facility":"The First Affiliated hospital of Xiamen University","status":"RECRUITING","city":"Xiamen","state":"Fujian","zip":"361003","country":"China","contacts":[{"name":"bing xu, Site 0220","role":"CONTACT","phone":"18750918842"}],"geoPoint":{"lat":24.47979,"lon":118.08187}},{"facility":"Local Institution - 0031","status":"WITHDRAWN","city":"Guangzhou","state":"Guangdong","zip":"450008","country":"China","geoPoint":{"lat":23.11667,"lon":113.25}},{"facility":"The Second Afilliated Hospital of Hebei Medical University","status":"RECRUITING","city":"Shijiazhuang","state":"Hebei","zip":"050000","country":"China","contacts":[{"name":"Jinhai Ren, Site 0266","role":"CONTACT","phone":"13931107659"}],"geoPoint":{"lat":38.04139,"lon":114.47861}},{"facility":"The First Hospital of Harbin","status":"RECRUITING","city":"Harbin","state":"Heilongjiang","zip":"150010","country":"China","contacts":[{"name":"Tiejun Gong, Site 0038","role":"CONTACT","phone":"13836027737"}],"geoPoint":{"lat":45.75,"lon":126.65}},{"facility":"People's Hospital of Henan Province","status":"RECRUITING","city":"Zhengzhou","state":"Henan","zip":"450003","country":"China","contacts":[{"name":"zunmin zhu, Site 0194","role":"CONTACT","phone":"13603712008"}],"geoPoint":{"lat":34.75778,"lon":113.64861}},{"facility":"Union Hospital, Tongji Medical College, Huazhong University of Science and Technology","status":"RECRUITING","city":"Wuhan","state":"Hubei","zip":"430058","country":"China","contacts":[{"name":"Min Zhang, Site 0108","role":"CONTACT","phone":"15871818568"}],"geoPoint":{"lat":30.58333,"lon":114.26667}},{"facility":"Xiangya Hospital Central South University","status":"RECRUITING","city":"Changsha","state":"Hunan","zip":"410008","country":"China","contacts":[{"name":"Yajing Xu, Site 0089","role":"CONTACT","phone":"13875804518"}],"geoPoint":{"lat":28.19874,"lon":112.97087}},{"facility":"Jiangsu Province Hospital","status":"RECRUITING","city":"Nanjing","state":"Jiangsu","zip":"210029","country":"China","contacts":[{"name":"Guangsheng He, Site 0032","role":"CONTACT","phone":"8615312052798"}],"geoPoint":{"lat":32.06167,"lon":118.77778}},{"facility":"The First Affiliated Hospital of Soochow University","status":"RECRUITING","city":"Suzhou","state":"Jiangsu","zip":"215006","country":"China","contacts":[{"name":"Miao Miao, Site 0083","role":"CONTACT","phone":"13962194350"}],"geoPoint":{"lat":31.30408,"lon":120.59538}},{"facility":"The First Affiliated Hospital of Nanchang University","status":"RECRUITING","city":"Nanchang","state":"Jiangxi","zip":"330006","country":"China","contacts":[{"name":"Fei Li, Site 0079","role":"CONTACT","phone":"13970038386"}],"geoPoint":{"lat":28.68396,"lon":115.85306}},{"facility":"Local Institution - 0043","status":"COMPLETED","city":"Changchun","state":"Jilin","zip":"130021","country":"China","geoPoint":{"lat":43.88,"lon":125.32278}},{"facility":"The First Hospital of China Medical University","status":"RECRUITING","city":"Shenyang","state":"Liaoning","zip":"110001","country":"China","contacts":[{"name":"Xiaojing Yan, Site 0048","role":"CONTACT","phone":"13889128302"}],"geoPoint":{"lat":41.79222,"lon":123.43278}},{"facility":"The Affiliated Hospital of Qingdao University","status":"RECRUITING","city":"Qingdao","state":"Shandong","zip":"266003","country":"China","contacts":[{"name":"Wei Wang, Site 0111","role":"CONTACT","phone":"18661807392"}],"geoPoint":{"lat":36.06488,"lon":120.38042}},{"facility":"Shanghai Sixth People's Hospital","status":"RECRUITING","city":"Shanghai","state":"Shanghai","zip":"200030","country":"China","contacts":[{"name":"Chunkang Chang, Site 0218","role":"CONTACT","phone":"8613764643870"}],"geoPoint":{"lat":31.22222,"lon":121.45806}},{"facility":"Shaanxi provincial people's hospital","status":"RECRUITING","city":"Xi'an","state":"Shanxi","zip":"710068","country":"China","contacts":[{"name":"Yi WANG, Site 0216","role":"CONTACT","phone":"13571936193"}],"geoPoint":{"lat":34.25833,"lon":108.92861}},{"facility":"West China Hospital of Sichuan University","status":"RECRUITING","city":"Cheng Du","state":"Sichuan","zip":"610041","country":"China","contacts":[{"name":"Yu Wu, Site 0075","role":"CONTACT","phone":"18980601973"}]},{"facility":"Institute of hematology&blood disease hospital","status":"RECRUITING","city":"Tianjin","state":"Tianjin","zip":"300020","country":"China","contacts":[{"name":"zhijian xiao, Site 0103","role":"CONTACT","phone":"+86 13821085716"}],"geoPoint":{"lat":39.14222,"lon":117.17667}},{"facility":"The first Affiliated Hospital, Zhejiang University School of Medicine","status":"RECRUITING","city":"Hangzhou","state":"Zhejiang","zip":"310003","country":"China","contacts":[{"name":"Hongyan Tong, Site 0029","role":"CONTACT","phone":"13958122357"}],"geoPoint":{"lat":30.29365,"lon":120.16142}},{"facility":"Local Institution - 0281","status":"NOT_YET_RECRUITING","city":"Ningbo","state":"Zhejiang","zip":"315010","country":"China","contacts":[{"name":"Site 0281","role":"CONTACT"}],"geoPoint":{"lat":29.87819,"lon":121.54945}},{"facility":"The First Affiliated Hospital of Wenzhou Medical University","status":"RECRUITING","city":"Wenzhou","state":"Zhejiang","zip":"32500","country":"China","contacts":[{"name":"Sheng Luo, Site 0033","role":"CONTACT","phone":"+8613957747543"}],"geoPoint":{"lat":27.99942,"lon":120.66682}},{"facility":"Hospital Pablo Tobon Uribe","status":"RECRUITING","city":"Medellin","state":"Antioquia","zip":"05034","country":"Colombia","contacts":[{"name":"Kenny Galvez, Site 0147","role":"CONTACT","phone":"5731489056030000"}],"geoPoint":{"lat":6.25184,"lon":-75.56359}},{"facility":"Sociedad De Oncologia Y Hematologia Del Cesar","status":"RECRUITING","city":"Valledupar","state":"Cesar","zip":"200001","country":"Colombia","contacts":[{"name":"Carmen Rosales, Site 0152","role":"CONTACT","phone":"3112620177"}],"geoPoint":{"lat":10.46314,"lon":-73.25322}},{"facility":"Fundación Cardiovascular de Colombia","status":"RECRUITING","city":"Piedecuesta","state":"Santander","zip":"681017","country":"Colombia","contacts":[{"name":"Jhon Avila Rueda, Site 0267","role":"CONTACT","phone":"+573106496232"}],"geoPoint":{"lat":6.98789,"lon":-73.04953}},{"facility":"Oncomédica S.A.S","status":"RECRUITING","city":"Montería","zip":"230002","country":"Colombia","contacts":[{"name":"Leivi Correa Negrete, Site 0149","role":"CONTACT"}],"geoPoint":{"lat":8.74798,"lon":-75.88143}},{"facility":"Fakultní nemocnice Brno Bohunice","status":"RECRUITING","city":"Brno","state":"Brno-město","zip":"625 00","country":"Czechia","contacts":[{"name":"Jiri Mayer, Site 0080","role":"CONTACT","phone":"420532233642"}],"geoPoint":{"lat":49.19522,"lon":16.60796}},{"facility":"Fakultni nemocnice Ostrava","status":"RECRUITING","city":"Ostrava","state":"Moravskoslezský Kraj","zip":"708 52","country":"Czechia","contacts":[{"name":"Zdenek Koristek, Site 0092","role":"CONTACT","phone":"+420597374566"}],"geoPoint":{"lat":49.83465,"lon":18.28204}},{"facility":"Vseobecna fakultni nemocnice v Praze","status":"RECRUITING","city":"Praha 2","zip":"12808","country":"Czechia","contacts":[{"name":"Anna JONASOVA, Site 0090","role":"CONTACT","phone":"+420224966209"}],"geoPoint":{"lat":50.08804,"lon":14.42076}},{"facility":"Centre Hospitalier Universitaire de Nice - Hôpital l'Archet","status":"RECRUITING","city":"Nice","state":"Alpes-Maritimes","zip":"06202","country":"France","contacts":[{"name":"Thomas Cluzeau, Site 0011","role":"CONTACT","phone":"33492039268"}],"geoPoint":{"lat":43.70313,"lon":7.26608}},{"facility":"CHU Bordeaux Haut-Leveque","status":"RECRUITING","city":"Pessac","state":"Aquitaine","zip":"33600","country":"France","contacts":[{"name":"Sophie Dimicoli-Salazar, Site 0016","role":"CONTACT","phone":"33557656511"}],"geoPoint":{"lat":44.81011,"lon":-0.64129}},{"facility":"Centre Hospitalier Régional Universitaire de Tours - Hôpital Bretonneau","status":"RECRUITING","city":"Tours","state":"Indre-et-Loire","zip":"37032","country":"France","contacts":[{"name":"Emmanuel Gyan, Site 0019","role":"CONTACT","phone":"+33247473712"}],"geoPoint":{"lat":47.38333,"lon":0.68333}},{"facility":"Chu Grenoble Alpes","status":"RECRUITING","city":"La Tronche","state":"Isère","zip":"38700","country":"France","contacts":[{"name":"Mathieu Meunier, Site 0116","role":"CONTACT","phone":"33476765755"}],"geoPoint":{"lat":45.20429,"lon":5.73645}},{"facility":"Centre Hospitalier Régional Universitaire de Nancy - Hôpitaux de Brabois","status":"RECRUITING","city":"Vandoeuvre lès Nancy","state":"Lorraine","zip":"54511","country":"France","contacts":[{"name":"Maud D'Aveni, Site 0165","role":"CONTACT","phone":"0609481716"}],"geoPoint":{"lat":48.65,"lon":6.18333}},{"facility":"Centre Hospitalier Universitaire d'Angers","status":"RECRUITING","city":"Angers","state":"Maine-et-Loire","zip":"49933","country":"France","contacts":[{"name":"sylvain thepot, Site 0269","role":"CONTACT","phone":"33608029517"}],"geoPoint":{"lat":47.46667,"lon":-0.55}},{"facility":"Gustave Roussy","status":"RECRUITING","city":"Villejuif","state":"Val-de-Marne","zip":"94805","country":"France","contacts":[{"name":"Christophe WILLEKENS, Site 0248","role":"CONTACT","phone":"0142114211"}],"geoPoint":{"lat":48.7939,"lon":2.35992}},{"facility":"Hôpital Saint-Louis","status":"RECRUITING","city":"Paris","zip":"75010","country":"France","contacts":[{"name":"Pierre FENAUX, Site 0015","role":"CONTACT","phone":"+33171207022"}],"geoPoint":{"lat":48.85341,"lon":2.3488}},{"facility":"Institut Universitaire du Cancer Toulouse - Oncopole - CHU de TOULOUSE","status":"RECRUITING","city":"Toulouse","zip":"31100","country":"France","contacts":[{"name":"Thibault Comont, Site 0140","role":"CONTACT","phone":"0033531156266"}],"geoPoint":{"lat":43.60426,"lon":1.44367}},{"facility":"Onkologie Erding","status":"RECRUITING","city":"Erding","state":"Bayern","zip":"85435","country":"Germany","contacts":[{"name":"Stefanie Jilg, Site 0261","role":"CONTACT","phone":"+49017647797380"}],"geoPoint":{"lat":48.30603,"lon":11.90686}},{"facility":"Local Institution - 0250","status":"WITHDRAWN","city":"Kempten","state":"Bayern","zip":"87439","country":"Germany","geoPoint":{"lat":47.72674,"lon":10.31389}},{"facility":"Gemeinschaftspraxis für Hämatologie und Onkologie Münster","status":"RECRUITING","city":"Münster","state":"Nordrhein-Westfalen","zip":"48153","country":"Germany","contacts":[{"name":"Rüdiger Liersch, Site 0259","role":"CONTACT","phone":"+4925162008000000000"}],"geoPoint":{"lat":51.96236,"lon":7.62571}},{"facility":"InVO Institut für Versorgungsforschung in der Onkologie","status":"RECRUITING","city":"Koblenz","state":"Rheinland-Pfalz","zip":"56068","country":"Germany","contacts":[{"name":"Rudolf Weide, Site 0168","role":"CONTACT","phone":"4926192156930"}],"geoPoint":{"lat":50.35357,"lon":7.57883}},{"facility":"Universitätsklinikum Leipzig","status":"RECRUITING","city":"Leipzig","state":"Sachsen","zip":"04103","country":"Germany","contacts":[{"name":"Dominic Brauer, Site 0171","role":"CONTACT","phone":"493419713859"}],"geoPoint":{"lat":51.33962,"lon":12.37129}},{"facility":"Universitätsklinikum Jena","status":"RECRUITING","city":"Jena","state":"Thüringen","zip":"07747","country":"Germany","contacts":[{"name":"Carl Crodel, Site 0251","role":"CONTACT","phone":"4936419324236"}],"geoPoint":{"lat":50.92878,"lon":11.5899}},{"facility":"Praxis fur Hamatologie und Onkologie","status":"RECRUITING","city":"Berlin","zip":"10117","country":"Germany","contacts":[{"name":"Stephan Fuhrmann, Site 0169","role":"CONTACT","phone":"+49(0)15254777515"}],"geoPoint":{"lat":52.52437,"lon":13.41053}},{"facility":"Local Institution - 0028","status":"COMPLETED","city":"Berlin","zip":"14195","country":"Germany","geoPoint":{"lat":52.52437,"lon":13.41053}},{"facility":"Universitaetsklinikum Duesseldorf","status":"RECRUITING","city":"Düsseldorf","zip":"40225","country":"Germany","contacts":[{"name":"Norbert Gattermann, Site 0207","role":"CONTACT","phone":"0211-81 16500"}],"geoPoint":{"lat":51.22172,"lon":6.77616}},{"facility":"Local Institution - 0255","status":"NOT_YET_RECRUITING","city":"Lübeck","zip":"23562","country":"Germany","contacts":[{"name":"Site 0255","role":"CONTACT"}],"geoPoint":{"lat":53.86893,"lon":10.68729}},{"facility":"Kliniken Ostalb, Stauferklinikum","status":"RECRUITING","city":"Mutlangen","zip":"73557","country":"Germany","contacts":[{"name":"Holger Hebart, Site 0167","role":"CONTACT","phone":"4971717011302"}],"geoPoint":{"lat":48.82588,"lon":9.79714}},{"facility":"Gemeinschaftspraxis Dres. med. Björn Schöttker & Dominik Pretscher","status":"RECRUITING","city":"Würzburg","zip":"97080","country":"Germany","contacts":[{"name":"Bjoern Schoettker, Site 0166","role":"CONTACT","phone":"0931322670"}],"geoPoint":{"lat":49.79391,"lon":9.95121}},{"facility":"Local Institution - 0242","status":"WITHDRAWN","city":"Patras","state":"Achaḯa","zip":"26504","country":"Greece","geoPoint":{"lat":38.24444,"lon":21.73444}},{"facility":"University Hospital of Patras","status":"RECRUITING","city":"Patras","state":"Achaḯa","zip":"26504","country":"Greece","contacts":[{"name":"Alexandros Spyridonidis, Site 0132","role":"CONTACT","phone":"306977448977"}],"geoPoint":{"lat":38.24444,"lon":21.73444}},{"facility":"General Hospital of Athens \"G. Gennimatas\"","status":"RECRUITING","city":"Athens","state":"Attikí","zip":"115 27","country":"Greece","contacts":[{"name":"Eurydiki Michalis, Site 0084","role":"CONTACT","phone":"+306944452898"}],"geoPoint":{"lat":37.97945,"lon":23.71622}},{"facility":"General Hospital of Athens \"Laiko\"","status":"RECRUITING","city":"Athens","state":"Attikí","zip":"11527","country":"Greece","contacts":[{"name":"Panagiotis Diamantopoulos, Site 0245","role":"CONTACT","phone":"00306976776260"}],"geoPoint":{"lat":37.97945,"lon":23.71622}},{"facility":"Attikon General University Hospital","status":"RECRUITING","city":"Chaidari","state":"Attikí","zip":"12462","country":"Greece","contacts":[{"name":"Vasiliki Pappa, Site 0131","role":"CONTACT","phone":"00306937255084"}],"geoPoint":{"lat":38.01135,"lon":23.66597}},{"facility":"University Hospital of Alexandroupolis","status":"RECRUITING","city":"Alexandroupolis","zip":"08100","country":"Greece","contacts":[{"name":"IOANNIS KOTSIANIDIS, Site 0082","role":"CONTACT","phone":"+302551353739"}],"geoPoint":{"lat":40.84995,"lon":25.87644}},{"facility":"Local Institution - 0034","status":"WITHDRAWN","city":"Hksar","zip":"0","country":"Hong Kong"},{"facility":"Heves Vármegyei Markhot Ferenc Oktatókórház és Rendelőintézet","status":"RECRUITING","city":"Eger","state":"Heves","zip":"3300","country":"Hungary","contacts":[{"name":"Balazs Tajti, Site 0024","role":"CONTACT","phone":"0036704223242"}],"geoPoint":{"lat":47.90265,"lon":20.37329}},{"facility":"Szabolcs Szatmár Bereg Vármegyei Oktatókórház","status":"RECRUITING","city":"Nyiregyhaza","state":"Szabolcs-Szatmár-Bereg","zip":"4400","country":"Hungary","contacts":[{"name":"Laszlo Rejto, Site 0021","role":"CONTACT","phone":"42599700"}],"geoPoint":{"lat":47.95539,"lon":21.71671}},{"facility":"Semmelweis Egyetem","status":"RECRUITING","city":"Budapest","zip":"1088","country":"Hungary","contacts":[{"name":"ZSOLT GYORGY Nagy, Site 0026","role":"CONTACT","phone":"36208258660"}],"geoPoint":{"lat":47.49801,"lon":19.03991}},{"facility":"All India Institute of Medical Sciences","status":"RECRUITING","city":"New Delhi","state":"Delhi","zip":"110029","country":"India","contacts":[{"name":"Tulika Seth, Site 0193","role":"CONTACT"}],"geoPoint":{"lat":28.63576,"lon":77.22445}},{"facility":"Rajiv Gandhi Cancer Institute And Research Centre","status":"RECRUITING","city":"New Delhi","state":"Delhi","zip":"110085","country":"India","contacts":[{"name":"Dinesh Bhurani, Site 0235","role":"CONTACT","phone":"9971500861"}],"geoPoint":{"lat":28.63576,"lon":77.22445}},{"facility":"Hemato Oncology Clinic","status":"RECRUITING","city":"Ahmedabad","state":"Gujarat","zip":"380009","country":"India","contacts":[{"name":"Sandip A. Shah, Site 0243","role":"CONTACT","phone":"9824041170"}],"geoPoint":{"lat":23.02579,"lon":72.58727}},{"facility":"Local Institution - 0273","status":"WITHDRAWN","city":"Ahmedabad","state":"Gujarat","zip":"382428","country":"India","geoPoint":{"lat":23.02579,"lon":72.58727}},{"facility":"Local Institution - 0177","status":"NOT_YET_RECRUITING","city":"Bengaluru","state":"Karnataka","zip":"560027","country":"India","contacts":[{"name":"Site 0177","role":"CONTACT"}],"geoPoint":{"lat":12.97194,"lon":77.59369}},{"facility":"Institute of Medical Sciences and Sum Hospital","status":"RECRUITING","city":"Bhubaneswar","state":"Odisha","zip":"751003","country":"India","contacts":[{"name":"Priyanka Samal, Site 0178","role":"CONTACT","phone":"8902621993"}],"geoPoint":{"lat":20.27241,"lon":85.83385}},{"facility":"Local Institution - 0185","status":"WITHDRAWN","city":"Hyderabad","zip":"500034","country":"India","geoPoint":{"lat":17.38405,"lon":78.45636}},{"facility":"Local Institution - 0186","status":"WITHDRAWN","city":"New Delhi","zip":"110029","country":"India","geoPoint":{"lat":28.63576,"lon":77.22445}},{"facility":"Fondazione Policlinico Tor Vergata","status":"RECRUITING","city":"Rome","state":"Lazio","zip":"00133","country":"Italy","contacts":[{"name":"Maria Teresa Voso, Site 0256","role":"CONTACT","phone":"390620903210"}],"geoPoint":{"lat":41.89193,"lon":12.51133}},{"facility":"Fondazione IRCCS Cà Granda Ospedale Maggiore Policlinico","status":"RECRUITING","city":"Milano","state":"Lombardia","zip":"20122","country":"Italy","contacts":[{"name":"Bruno Fattizzo, Site 0137","role":"CONTACT","phone":"0255033477"}],"geoPoint":{"lat":45.46427,"lon":9.18951}},{"facility":"ASST Grande Ospedale Metropolitano Niguarda","status":"RECRUITING","city":"Milan","state":"Milano","zip":"20162","country":"Italy","contacts":[{"name":"Marta Riva, Site 0134","role":"CONTACT","phone":"0264442668"}],"geoPoint":{"lat":45.46427,"lon":9.18951}},{"facility":"Humanitas","status":"RECRUITING","city":"Rozzano","state":"Milano","zip":"20089","country":"Italy","contacts":[{"name":"Matteo Giovanni Della Porta, Site 0136","role":"CONTACT","phone":"0282247668"}],"geoPoint":{"lat":45.38193,"lon":9.1559}},{"facility":"Azienda Ospedaliera Ordine Mauriziano di Torino","status":"RECRUITING","city":"Torino","state":"Piemonte","zip":"10128","country":"Italy","contacts":[{"name":"Daniela Cilloni, Site 0085","role":"CONTACT","phone":"+390115082224"}],"geoPoint":{"lat":45.07049,"lon":7.68682}},{"facility":"Azienda Ospedaliera Universitaria Careggi","status":"RECRUITING","city":"Firenze","state":"Toscana","zip":"50134","country":"Italy","contacts":[{"name":"VALERIA SANTINI, Site 0138","role":"CONTACT","phone":"0557947296"}],"geoPoint":{"lat":43.77925,"lon":11.24626}},{"facility":"IRCCS Azienda Ospedaliero-Universitaria di Bologna, Policlinico di Sant'Orsola","status":"RECRUITING","city":"Bologna","zip":"40138","country":"Italy","contacts":[{"name":"Stefania Paolini, Site 0135","role":"CONTACT","phone":"+393392231941"}],"geoPoint":{"lat":44.49381,"lon":11.33875}},{"facility":"Grande Ospedale Metropolitano - Presidio Morelli","status":"RECRUITING","city":"Reggio Calabria","zip":"89133","country":"Italy","contacts":[{"name":"Caterina Alati, Site 0076","role":"CONTACT","phone":"390965397879"}],"geoPoint":{"lat":38.11047,"lon":15.66129}},{"facility":"Fondazione Policlinico Universitario Agostino Gemelli IRCCS - Università Cattolica del Sacro Cuore","status":"RECRUITING","city":"Roma","zip":"00168","country":"Italy","contacts":[{"name":"Luana Fianchi, Site 0244","role":"CONTACT","phone":"00390630154180"}],"geoPoint":{"lat":41.89193,"lon":12.51133}},{"facility":"Azienda Ospedaliera Universitaria Integrata Verona - Ospedale Borgo Roma","status":"RECRUITING","city":"Verona","zip":"37134","country":"Italy","contacts":[{"name":"Andrea Bernardelli, Site 0133","role":"CONTACT","phone":"3272052368"}],"geoPoint":{"lat":45.4299,"lon":10.98444}},{"facility":"Local Institution - 0123","status":"WITHDRAWN","city":"Kitakyushu-shi","state":"Fukuoka","zip":"8068501","country":"Japan","geoPoint":{"lat":33.85181,"lon":130.85034}},{"facility":"Local Institution - 0117","status":"WITHDRAWN","city":"Sapporo","state":"Hokkaido","zip":"064-0804","country":"Japan","geoPoint":{"lat":43.06667,"lon":141.35}},{"facility":"Local Institution - 0126","status":"WITHDRAWN","city":"Amagasaki","state":"Hyogo","zip":"660-8550","country":"Japan","geoPoint":{"lat":34.71667,"lon":135.41667}},{"facility":"Local Institution - 0120","status":"WITHDRAWN","city":"Sagamihara","state":"Kanagawa","zip":"252-0375","country":"Japan","geoPoint":{"lat":35.54899,"lon":139.26064}},{"facility":"Local Institution - 0118","status":"WITHDRAWN","city":"Sendai-shi","state":"Miyagi","zip":"980-8574","country":"Japan","geoPoint":{"lat":38.26667,"lon":140.86667}},{"facility":"Local Institution - 0125","status":"WITHDRAWN","city":"Osaka-sayama","state":"Osaka","zip":"589-8511","country":"Japan","geoPoint":{"lat":34.69374,"lon":135.50218}},{"facility":"Local Institution - 0121","status":"WITHDRAWN","city":"Shimotsuga","state":"Tochigi","zip":"321-0293","country":"Japan"},{"facility":"Local Institution - 0124","status":"WITHDRAWN","city":"Nagasaki","zip":"852-8104","country":"Japan","geoPoint":{"lat":32.75,"lon":129.88333}},{"facility":"Local Institution - 0122","status":"WITHDRAWN","city":"Osaka","zip":"545-8586","country":"Japan","geoPoint":{"lat":34.69374,"lon":135.50218}},{"facility":"Local Institution - 0119","status":"WITHDRAWN","city":"Tokyo","zip":"141-8625","country":"Japan","geoPoint":{"lat":35.6895,"lon":139.69171}},{"facility":"Centro de Investigacion Clinica de Oaxaca","status":"RECRUITING","city":"Oaxaca de Juarez","state":"Oaxaca","zip":"68020","country":"Mexico","contacts":[{"name":"Gabriel Barragán Ibañez, Site 0156","role":"CONTACT","phone":"9516035559"}],"geoPoint":{"lat":17.06542,"lon":-96.72365}},{"facility":"Hematológica Alta Especialidad SC, consultorio 830","status":"RECRUITING","city":"Huixquilucan","zip":"52787","country":"Mexico","contacts":[{"name":"Roberto Ovilla Martinez, Site 0069","role":"CONTACT","phone":"5215521291399"}],"geoPoint":{"lat":19.35985,"lon":-99.35016}},{"facility":"Instituto Nacional de Ciencias Medicas y Nutricion Salvador Zubiran","status":"RECRUITING","city":"Mexico City","zip":"14080","country":"Mexico","contacts":[{"name":"María Demichelis, Site 0142","role":"CONTACT","phone":"525555018036"}],"geoPoint":{"lat":19.42847,"lon":-99.12766}},{"facility":"Unidad Médica Onco-hematológica","status":"RECRUITING","city":"Puebla","zip":"72424","country":"Mexico","contacts":[{"name":"Xochiquetzatl Jimenez Lopez, Site 0150","role":"CONTACT","phone":"522222379880"}],"geoPoint":{"lat":19.03793,"lon":-98.20346}},{"facility":"Specjalistyczny Szpital im. dra Alfreda Sokołowskiego w Wałbrzychu","status":"RECRUITING","city":"Wałbrzych","state":"Dolnośląskie","zip":"58-309","country":"Poland","contacts":[{"name":"Aleksandra Butrym, Site 0130","role":"CONTACT","phone":"+48502657840"}],"geoPoint":{"lat":50.77141,"lon":16.28432}},{"facility":"Uniwersyteckie Centrum Kliniczne","status":"RECRUITING","city":"Gdańsk","zip":"80-952","country":"Poland","contacts":[{"name":"Ewa Zarzycka, Site 0060","role":"CONTACT","phone":"+48609803080"}],"geoPoint":{"lat":54.35205,"lon":18.64637}},{"facility":"Pratia Onkologia Katowice","status":"RECRUITING","city":"Katowice","zip":"40-519","country":"Poland","contacts":[{"name":"Sebastian Grosicki, Site 0061","role":"CONTACT","phone":"+48600388282"}],"geoPoint":{"lat":50.25841,"lon":19.02754}},{"facility":"MTZ Clinical Research powered by Pratia","status":"RECRUITING","city":"Warsaw","zip":"02-172","country":"Poland","contacts":[{"name":"Krzysztof Madry, Site 0062","role":"CONTACT","phone":"485725959"}],"geoPoint":{"lat":52.22977,"lon":21.01178}},{"facility":"Auxilio Mutuo Cancer Center","status":"RECRUITING","city":"San Juan","zip":"00917","country":"Puerto Rico","contacts":[{"name":"Adelba Torres Lopez, Site 0219","role":"CONTACT","phone":"7877582000"}],"geoPoint":{"lat":18.46633,"lon":-66.10572}},{"facility":"Local Institution - 0237","status":"WITHDRAWN","city":"San Juan","zip":"00917","country":"Puerto Rico","geoPoint":{"lat":18.46633,"lon":-66.10572}},{"facility":"Hospital Universitari Vall d'Hebron","status":"RECRUITING","city":"Barcelona","state":"Barcelona [Barcelona]","zip":"08035","country":"Spain","contacts":[{"name":"David Ferreiras, Site 0198","role":"CONTACT","phone":"34934893000Ext6417"}],"geoPoint":{"lat":41.38879,"lon":2.15899}},{"facility":"Institut Català d'Oncologia - L'Hospitalet","status":"RECRUITING","city":"L'Hospitalet de Llobregat","state":"Catalunya [Cataluña]","zip":"08908","country":"Spain","contacts":[{"name":"Montserrat Arnan Sangerman, Site 0197","role":"CONTACT","phone":"34932607750"}],"geoPoint":{"lat":41.35967,"lon":2.10028}},{"facility":"Hospital Clinico de Valencia","status":"RECRUITING","city":"Valencia","state":"Valenciana, Comunitat","zip":"46010","country":"Spain","contacts":[{"name":"Maria del Tormo Diaz, Site 0196","role":"CONTACT","phone":"+34961973838"}],"geoPoint":{"lat":39.46975,"lon":-0.37739}},{"facility":"Hospital Universitario Virgen Nieves","status":"RECRUITING","city":"Granada","zip":"18012","country":"Spain","contacts":[{"name":"Francisca Hernandez Mohedo, Site 0199","role":"CONTACT","phone":"696069226"}],"geoPoint":{"lat":37.18817,"lon":-3.60667}},{"facility":"Hospital La Princesa","status":"RECRUITING","city":"Madrid","zip":"28006","country":"Spain","contacts":[{"name":"VALLE GOMEZ GARCIA DE SORIA, Site 0252","role":"CONTACT","phone":"34915202241"}],"geoPoint":{"lat":40.4165,"lon":-3.70256}},{"facility":"Hospital Universitario Central de Asturias","status":"RECRUITING","city":"Oviedo","zip":"33011","country":"Spain","contacts":[{"name":"Teresa Bernal del Castillo, Site 0271","role":"CONTACT","phone":"985652489"}],"geoPoint":{"lat":43.36029,"lon":-5.84476}},{"facility":"Hospital Universitario de Salamanca - Complejo Asistencial Universitario de Salamanca","status":"RECRUITING","city":"Salamanca","zip":"37007","country":"Spain","contacts":[{"name":"Maria Diez, Site 0200","role":"CONTACT","phone":"34699508223"}],"geoPoint":{"lat":40.96882,"lon":-5.66388}},{"facility":"Hospital Universitario Virgen Del Rocio","status":"RECRUITING","city":"Sevilla","zip":"41013","country":"Spain","contacts":[{"name":"Jose Falantes, Site 0274","role":"CONTACT","phone":"+34955014398"}],"geoPoint":{"lat":37.38283,"lon":-5.97317}}]},"referencesModule":{"seeAlsoLinks":[{"label":"BMS Clinical Trial Information","url":"https://www.bms.com/researchers-and-partners/clinical-trials-and-research.html"},{"label":"BMS Clinical Trial Patient Recruiting","url":"https://www.bmsclinicaltrials.com/us/en/clinical-trials/NCT05949684.html"}]},"ipdSharingStatementModule":{"ipdSharing":"YES","description":"BMS will provide access to individual anonymized participant data upon request from qualified researchers, and subject to certain criteria. Additional information regarding Bristol Myers Squibb's data sharing policy and process can be found at: https://www.bms.com/researchers-and-partners/clinical-trials-and-research/disclosure-commitment.html","infoTypes":["STUDY_PROTOCOL","CSR"],"timeFrame":"See Plan Description","accessCriteria":"See Plan Description","url":"https://www.bms.com/researchers-and-partners/clinical-trials-and-research/disclosure-commitment.html"}},"derivedSection":{"miscInfoModule":{"versionHolder":"2025-07-07"},"conditionBrowseModule":{"meshes":[{"id":"D011289","term":"Preleukemia"},{"id":"D000740","term":"Anemia"},{"id":"D009190","term":"Myelodysplastic Syndromes"},{"id":"D013577","term":"Syndrome"}],"ancestors":[{"id":"D004194","term":"Disease"},{"id":"D010335","term":"Pathologic Processes"},{"id":"D006402","term":"Hematologic Diseases"},{"id":"D001855","term":"Bone Marrow Diseases"},{"id":"D011230","term":"Precancerous Conditions"},{"id":"D009369","term":"Neoplasms"}],"browseLeaves":[{"id":"M16355","name":"Syndrome","asFound":"Syndrome","relevance":"HIGH"},{"id":"M14164","name":"Preleukemia","asFound":"Myelodysplastic Syndrome","relevance":"HIGH"},{"id":"M4070","name":"Anemia","asFound":"Anemia","relevance":"HIGH"},{"id":"M12145","name":"Myelodysplastic Syndromes","asFound":"Myelodysplastic Syndrome","relevance":"HIGH"},{"id":"M9490","name":"Hematologic Diseases","relevance":"LOW"},{"id":"M5134","name":"Bone Marrow Diseases","relevance":"LOW"},{"id":"M14111","name":"Precancerous Conditions","relevance":"LOW"},{"id":"T3993","name":"Myelodysplastic Syndromes","asFound":"Myelodysplastic Syndrome","relevance":"HIGH"}],"browseBranches":[{"abbrev":"BC23","name":"Symptoms and General Pathology"},{"abbrev":"All","name":"All Conditions"},{"abbrev":"BC04","name":"Neoplasms"},{"abbrev":"BC15","name":"Blood and Lymph Conditions"},{"abbrev":"Rare","name":"Rare Diseases"}]},"interventionBrowseModule":{"meshes":[{"id":"D000068817","term":"Epoetin Alfa"},{"id":"C000621232","term":"Luspatercept"}],"ancestors":[{"id":"D006397","term":"Hematinics"}],"browseLeaves":[{"id":"M314","name":"Epoetin Alfa","asFound":"Sustained","relevance":"HIGH"},{"id":"M352828","name":"Luspatercept","asFound":"Transportation","relevance":"HIGH"},{"id":"M9485","name":"Hematinics","relevance":"LOW"}],"browseBranches":[{"abbrev":"Hemat","name":"Hematinics"},{"abbrev":"All","name":"All Drugs and Chemicals"}]}},"hasResults":false}