{"protocolSection":{"identificationModule":{"nctId":"NCT06561386","orgStudyIdInfo":{"id":"CA224-1093"},"secondaryIdInfos":[{"id":"2024-513682-40","type":"OTHER","domain":"EU CTR"},{"id":"U1111-1306-8896","type":"OTHER","domain":"WHO"}],"organization":{"fullName":"Bristol-Myers Squibb","class":"INDUSTRY"},"briefTitle":"A Study to Compare the Efficacy of Nivolumab and Relatlimab Plus Chemotherapy vs Pembrolizumab Plus Chemotherapy for Stage IV/Recurrent Non-squamous Non-small Cell Lung Cancer With PD-L1 Expression ≥ 1%","officialTitle":"A Phase 3, Randomized, Open-label Study of Nivolumab + Relatlimab Fixed-dose Combination With Chemotherapy Versus Pembrolizumab With Chemotherapy as First-line Treatment for Participants With Non-squamous (NSQ), Stage IV or Recurrent Non-small Cell Lung Cancer and With Tumor Cell PD-L1 Expression ≥ 1%","acronym":"RELATIVITY1093"},"statusModule":{"statusVerifiedDate":"2025-06","overallStatus":"RECRUITING","expandedAccessInfo":{"hasExpandedAccess":false},"startDateStruct":{"date":"2024-10-07","type":"ACTUAL"},"primaryCompletionDateStruct":{"date":"2030-07-30","type":"ESTIMATED"},"completionDateStruct":{"date":"2033-11-11","type":"ESTIMATED"},"studyFirstSubmitDate":"2024-08-16","studyFirstSubmitQcDate":"2024-08-16","studyFirstPostDateStruct":{"date":"2024-08-20","type":"ACTUAL"},"lastUpdateSubmitDate":"2025-06-16","lastUpdatePostDateStruct":{"date":"2025-06-17","type":"ACTUAL"}},"sponsorCollaboratorsModule":{"responsibleParty":{"type":"SPONSOR"},"leadSponsor":{"name":"Bristol-Myers Squibb","class":"INDUSTRY"}},"oversightModule":{"oversightHasDmc":true,"isFdaRegulatedDrug":true,"isFdaRegulatedDevice":false},"descriptionModule":{"briefSummary":"The purpose of this study is to compare the efficacy of Nivolumab and Relatlimab in combination with chemotherapy to Pembrolizumab with Chemotherapy in participants with stage IV or recurrent Non-squamous Non-small Cell Lung Cancer with PD-L1 expression ≥ 1%"},"conditionsModule":{"conditions":["Non-small Cell Lung Cancer"],"keywords":["Non-squamous","PDL-1 ≥ 1%"]},"designModule":{"studyType":"INTERVENTIONAL","phases":["PHASE3"],"designInfo":{"allocation":"RANDOMIZED","interventionModel":"PARALLEL","primaryPurpose":"TREATMENT","maskingInfo":{"masking":"NONE"}},"enrollmentInfo":{"count":1000,"type":"ESTIMATED"}},"armsInterventionsModule":{"armGroups":[{"label":"Arm A","type":"EXPERIMENTAL","interventionNames":["Drug: Nivolumab","Drug: Relatlimab","Drug: Carboplatin","Drug: Pemetrexed","Drug: Cisplatin"]},{"label":"Arm B","type":"ACTIVE_COMPARATOR","interventionNames":["Drug: Pembrolizumab","Drug: Carboplatin","Drug: Pemetrexed","Drug: Cisplatin"]}],"interventions":[{"type":"DRUG","name":"Nivolumab","description":"Specified dose on specified days","armGroupLabels":["Arm A"]},{"type":"DRUG","name":"Relatlimab","description":"Specified dose on specified days","armGroupLabels":["Arm A"]},{"type":"DRUG","name":"Pembrolizumab","description":"Specified dose on specified days","armGroupLabels":["Arm B"]},{"type":"DRUG","name":"Carboplatin","description":"Specified dose on specified days","armGroupLabels":["Arm A","Arm B"]},{"type":"DRUG","name":"Pemetrexed","description":"Specified dose on specified days","armGroupLabels":["Arm A","Arm B"]},{"type":"DRUG","name":"Cisplatin","description":"Specified dose on specified days","armGroupLabels":["Arm A","Arm B"]}]},"outcomesModule":{"primaryOutcomes":[{"measure":"Overall survival (OS) in randomized participants with PD-L1 1% to 49%","timeFrame":"Up to 5 years"}],"secondaryOutcomes":[{"measure":"OS in randomized participants with PD-L1 ≥ 1%","timeFrame":"Up to 5 years"},{"measure":"Progression-free survival (PFS) as assessed by Response Evaluation Criteria in Solid Tumors version 1.1 (RECIST v1.1) per blinded independent central review (BICR)","timeFrame":"Up to 5 years"},{"measure":"Overall response rate (ORR)","timeFrame":"Up to 5 years"},{"measure":"Duration of response (DoR)","timeFrame":"Up to 5 years"},{"measure":"Number of participants with adverse events (AEs)","timeFrame":"Up to 2.5 years"},{"measure":"Number of participants with serious adverse events (SAEs)","timeFrame":"Up to 2.5 years"},{"measure":"Number of participants with immune-mediated adverse events (IMAEs)","timeFrame":"Up to 2.5 years"},{"measure":"The time until definitive deterioration based on non-small cell lung cancer - symptom assessment questionnaire (NSCLC-SAQ) total score","timeFrame":"Up to 2 years"}]},"eligibilityModule":{"eligibilityCriteria":"Inclusion Criteria\n\n* Participants must have histologically confirmed Stage IV or recurrent Non-small Cell Lung Cancer (NSCLC) of non-squamous (NSQ) histology with no prior systemic anti-cancer therapy given as primary therapy for advanced or metastatic disease.\n* Participants must have measurable PD-L1 ≥ 1% Tumor Cell (TC) score by the investigational PD-L1 immunohistochemistry (IHC) assay VENTANA PD-L1 (SP263) CDx Assay conducted by central laboratory during the screening period prior to randomization.\n* Participants must have measurable disease by computed tomography (CT) or magnetic resonance imaging (MRI) per RECIST v1.1 criteria.\n* Participants must have an Easter Cooperative Oncology Group (ECOG) performance status of ≤ 1 at screening.\n* Participants must have a life expectancy of at least 3 months at the time of randomization.\n\nExclusion Criteria\n\n* Participants must not be pregnant and/or breastfeeding.\n* Participants with epidermal growth factor receptor (EGFR), anaplastic lymphoma kinase (ALK), or ROS-1 mutations that are sensitive to available targeted inhibitor therapy. Participants with unknown EGFR, ALK, or ROS-1 status are excluded.\n* Participants with known BRAFV600E mutations, that are sensitive to available targeted inhibitor therapy; participants with known activating rearranged during transfection (RET) mutations or neurotrophic tyrosine receptor kinase (NTRK) fusion gene alterations are excluded. Participants with unknown or indeterminate BRAF mutation, activating RET mutations or NTRK fusion gene alterations are eligible.\n* Participants must not have untreated central nervous system (CNS) metastases.\n* Participants must not have leptomeningeal metastases (carcinomatous meningitis).\n* Participants must not have concurrent malignancy requiring treatment.\n* Participants must not have an active autoimmune disease.\n* Participants must not have history of interstitial lung disease or pneumonitis that required oral or intravenous (IV) glucocorticoids to assist with management.\n* Participants must not have a history of myocarditis.\n* Participants must not have had prior treatment with an anti-PD-1, anti-PD-L1, anti-PD-L2, or anti-CTLA-4 antibody, or other antibody or drug targeting T-cell co-stimulation or checkpoint pathways.\n* Other protocol-defined Inclusion/Exclusion criteria apply.","healthyVolunteers":false,"sex":"ALL","minimumAge":"18 Years","stdAges":["ADULT","OLDER_ADULT"]},"contactsLocationsModule":{"centralContacts":[{"name":"BMS Study Connect www.BMSStudyConnect.com","role":"CONTACT","phone":"855-907-3286","email":"Clinical.Trials@bms.com"},{"name":"First line of the email MUST contain the NCT# and Site#","role":"CONTACT"}],"overallOfficials":[{"name":"Bristol-Myers Squibb","affiliation":"Bristol-Myers Squibb","role":"STUDY_DIRECTOR"}],"locations":[{"facility":"Local Institution - 0368","status":"NOT_YET_RECRUITING","city":"Tucson","state":"Arizona","zip":"85723","country":"United States","contacts":[{"name":"Site 0368","role":"CONTACT"}],"geoPoint":{"lat":32.22174,"lon":-110.92648}},{"facility":"Local Institution - 0112","status":"WITHDRAWN","city":"Los Angeles","state":"California","zip":"90404","country":"United States","geoPoint":{"lat":34.05223,"lon":-118.24368}},{"facility":"Local Institution - 0304","status":"NOT_YET_RECRUITING","city":"Sacramento","state":"California","zip":"95817","country":"United States","contacts":[{"name":"Site 0304","role":"CONTACT"}],"geoPoint":{"lat":38.58157,"lon":-121.4944}},{"facility":"San Francisco Oncology Associates","status":"RECRUITING","city":"San Francisco","state":"California","zip":"94115","country":"United States","contacts":[{"name":"Kevin Kim, Site 0159","role":"CONTACT","phone":"415-885-8600"}],"geoPoint":{"lat":37.77493,"lon":-122.41942}},{"facility":"UCLA Hematology/Oncology - Santa Monica","status":"RECRUITING","city":"Santa Monica","state":"California","zip":"90404","country":"United States","contacts":[{"name":"Edward Garon, Site 0111","role":"CONTACT","phone":"310-926-5333"}],"geoPoint":{"lat":34.01945,"lon":-118.49119}},{"facility":"University of Miami Hospital and Clinics, Sylvester Cancer Center","status":"RECRUITING","city":"Miami","state":"Florida","zip":"33136","country":"United States","contacts":[{"name":"Estelamari Rodriguez, Site 0206","role":"CONTACT","phone":"305-689-4059"}],"geoPoint":{"lat":25.77427,"lon":-80.19366}},{"facility":"Memorial Hospital West","status":"RECRUITING","city":"Pembroke Pines","state":"Florida","zip":"33028","country":"United States","contacts":[{"name":"Gelenis Domingo, Site 0162","role":"CONTACT","phone":"000-000-0000"}],"geoPoint":{"lat":26.00315,"lon":-80.22394}},{"facility":"Florida Cancer Specialists - North","status":"RECRUITING","city":"Saint Petersburg","state":"Florida","zip":"33705","country":"United States","contacts":[{"name":"Mamta Choksi, Site 0358","role":"CONTACT","phone":"727-842-8411"}],"geoPoint":{"lat":27.77086,"lon":-82.67927}},{"facility":"Florida Cancer Specialists - East","status":"RECRUITING","city":"West Palm Beach","state":"Florida","zip":"33401","country":"United States","contacts":[{"name":"Todd Gersten, Site 0360","role":"CONTACT","phone":"561-366-4100"}],"geoPoint":{"lat":26.71534,"lon":-80.05337}},{"facility":"Affiliated Oncologists, LLC","status":"RECRUITING","city":"Chicago Ridge","state":"Illinois","zip":"60415","country":"United States","contacts":[{"name":"Rami Haddad, Site 0376","role":"CONTACT","phone":"111111"}],"geoPoint":{"lat":41.70142,"lon":-87.77922}},{"facility":"Saint Elizabeth Medical Center Edgewood","status":"RECRUITING","city":"Edgewood","state":"Kentucky","zip":"41017","country":"United States","contacts":[{"name":"Colleen Darnell, Site 0128","role":"CONTACT","phone":"859-301-4000"}],"geoPoint":{"lat":39.01867,"lon":-84.58189}},{"facility":"Hattiesburg Clinic Hematology/Oncology","status":"RECRUITING","city":"Hattiesburg","state":"Mississippi","zip":"39401-7233","country":"United States","contacts":[{"name":"John Hrom, Site 0226","role":"CONTACT","phone":"601-261-1700"}],"geoPoint":{"lat":31.32712,"lon":-89.29034}},{"facility":"Bozeman Health Deaconess Hospital","status":"RECRUITING","city":"Bozeman","state":"Montana","zip":"59715","country":"United States","contacts":[{"name":"William Conkright, Site 0308","role":"CONTACT","phone":"406-414-5000"}],"geoPoint":{"lat":45.67965,"lon":-111.03856}},{"facility":"Renown Regional Medical Center","status":"RECRUITING","city":"Reno","state":"Nevada","zip":"89502","country":"United States","contacts":[{"name":"Katharine Thomas, Site 0207","role":"CONTACT"}],"geoPoint":{"lat":39.52963,"lon":-119.8138}},{"facility":"St. Joseph's Regional Medical Center","status":"RECRUITING","city":"Paterson","state":"New Jersey","zip":"07503","country":"United States","contacts":[{"name":"Mehandar Kumar, Site 0346","role":"CONTACT","phone":"973-754-2405"}],"geoPoint":{"lat":40.91677,"lon":-74.17181}},{"facility":"New Mexico VA Healthcare System","status":"RECRUITING","city":"Albuquerque","state":"New Mexico","zip":"87108","country":"United States","contacts":[{"name":"COTY HO, Site 0381","role":"CONTACT","phone":"505-265-1711EXT2223"}],"geoPoint":{"lat":35.08449,"lon":-106.65114}},{"facility":"Local Institution - 0357","status":"WITHDRAWN","city":"Bronx","state":"New York","zip":"10468","country":"United States","geoPoint":{"lat":40.84985,"lon":-73.86641}},{"facility":"Local Institution - 0356","status":"NOT_YET_RECRUITING","city":"Hawthorne","state":"New York","zip":"10532","country":"United States","contacts":[{"name":"Site 0356","role":"CONTACT"}],"geoPoint":{"lat":41.10732,"lon":-73.79597}},{"facility":"Local Institution - 0392","status":"NOT_YET_RECRUITING","city":"New York","state":"New York","zip":"10016","country":"United States","contacts":[{"name":"Site 0392","role":"CONTACT"}],"geoPoint":{"lat":40.71427,"lon":-74.00597}},{"facility":"Local Institution - 0380","status":"WITHDRAWN","city":"Northport","state":"New York","zip":"11768","country":"United States","geoPoint":{"lat":40.90093,"lon":-73.34317}},{"facility":"Local Institution - 0325","status":"NOT_YET_RECRUITING","city":"Rochester","state":"New York","zip":"14642","country":"United States","contacts":[{"name":"Site 0325","role":"CONTACT"}],"geoPoint":{"lat":43.15478,"lon":-77.61556}},{"facility":"Local Institution - 0324","status":"NOT_YET_RECRUITING","city":"Syracuse","state":"New York","zip":"13210","country":"United States","contacts":[{"name":"Site 0324","role":"CONTACT"}],"geoPoint":{"lat":43.04812,"lon":-76.14742}},{"facility":"Messino Cancer Centers","status":"RECRUITING","city":"Asheville","state":"North Carolina","zip":"28806","country":"United States","contacts":[{"name":"Andrew Beardsley, Site 0352","role":"CONTACT","phone":"828-212-7021"}],"geoPoint":{"lat":35.60095,"lon":-82.55402}},{"facility":"Local Institution - 0351","status":"NOT_YET_RECRUITING","city":"Greenville","state":"North Carolina","zip":"27858","country":"United States","contacts":[{"name":"Site 0351","role":"CONTACT"}],"geoPoint":{"lat":35.61266,"lon":-77.36635}},{"facility":"Local Institution - 0369","status":"WITHDRAWN","city":"Canton","state":"Ohio","zip":"44708","country":"United States","geoPoint":{"lat":40.79895,"lon":-81.37845}},{"facility":"University of Cincinnati Medical Center","status":"RECRUITING","city":"Cincinnati","state":"Ohio","zip":"45219","country":"United States","contacts":[{"name":"Jennifer Leddon, Site 0141","role":"CONTACT","phone":"513-556-9568"}],"geoPoint":{"lat":39.12713,"lon":-84.51435}},{"facility":"Louis Stokes Cleveland VA Medical Center","status":"RECRUITING","city":"Cleveland","state":"Ohio","zip":"44106","country":"United States","contacts":[{"name":"Charles Nock, Site 0199","role":"CONTACT","phone":"216-231-3241"}],"geoPoint":{"lat":41.4995,"lon":-81.69541}},{"facility":"Local Institution - 0366","status":"WITHDRAWN","city":"Massillon","state":"Ohio","zip":"44646","country":"United States","geoPoint":{"lat":40.79672,"lon":-81.52151}},{"facility":"Lancaster General Hospital - Ann B Barshinger Cancer Institute","status":"RECRUITING","city":"Lancaster","state":"Pennsylvania","zip":"17601","country":"United States","contacts":[{"name":"Samuel Kerr, Site 0272","role":"CONTACT","phone":"717-215-9561"}],"geoPoint":{"lat":40.03788,"lon":-76.30551}},{"facility":"Texas Oncology - West Texas","status":"RECRUITING","city":"Abilene","state":"Texas","zip":"79606-5208","country":"United States","contacts":[{"name":"Pankaj Khandelwal, Site 0359","role":"CONTACT","phone":"432-335-8275"}],"geoPoint":{"lat":32.44874,"lon":-99.73314}},{"facility":"Local Institution - 0305","status":"WITHDRAWN","city":"Harlingen","state":"Texas","zip":"78550","country":"United States","geoPoint":{"lat":26.19063,"lon":-97.6961}},{"facility":"University of Texas MD Anderson Cancer Center","status":"RECRUITING","city":"Houston","state":"Texas","zip":"77030","country":"United States","contacts":[{"name":"Mehmet Altan, Site 0378","role":"CONTACT","phone":"203-809-3721"}],"geoPoint":{"lat":29.76328,"lon":-95.36327}},{"facility":"The University of Texas Health Science Center at Tyler dba UT Health East Texas HOPE Cancer Center","status":"RECRUITING","city":"Tyler","state":"Texas","zip":"75701","country":"United States","contacts":[{"name":"Robert Droder, Site 0303","role":"CONTACT","phone":"903-592-6152"}],"geoPoint":{"lat":32.35126,"lon":-95.30106}},{"facility":"Local Institution - 0302","status":"NOT_YET_RECRUITING","city":"Salt Lake City","state":"Utah","zip":"84112","country":"United States","contacts":[{"name":"Site 0302","role":"CONTACT"}],"geoPoint":{"lat":40.76078,"lon":-111.89105}},{"facility":"Local Institution - 0379","status":"NOT_YET_RECRUITING","city":"Ciudad autónoma de Buenos Aires","state":"Buenos Aires","zip":"1280","country":"Argentina","contacts":[{"name":"Site 0379","role":"CONTACT"}],"geoPoint":{"lat":-34.61315,"lon":-58.37723}},{"facility":"Instituto Alexander Fleming","status":"RECRUITING","city":"Ciudad Autónoma de Buenos Aires","state":"Buenos Aires","zip":"C1426ANZ","country":"Argentina","contacts":[{"name":"Claudio Martin, Site 0217","role":"CONTACT","phone":"5491166936669"}],"geoPoint":{"lat":-34.61315,"lon":-58.37723}},{"facility":"Hospital Italiano de Buenos Aires","status":"RECRUITING","city":"ABB","state":"Ciudad Autónoma De Buenos Aires","zip":"C1199ABB","country":"Argentina","contacts":[{"name":"Lorena Lupinacci, Site 0219","role":"CONTACT","phone":"5411495902008159"}]},{"facility":"Instituto Médico Río Cuarto","status":"RECRUITING","city":"Río Cuarto","state":"Córdoba","zip":"X5800AEV","country":"Argentina","contacts":[{"name":"Alejo Lingua, Site 0218","role":"CONTACT","phone":"54351153819050"}],"geoPoint":{"lat":-33.13067,"lon":-64.34992}},{"facility":"Sanatorio Parque","status":"RECRUITING","city":"Rosario","state":"Santa Fe","zip":"S2000DSV","country":"Argentina","contacts":[{"name":"Gaston Martinengo, Site 0216","role":"CONTACT","phone":"5493416955611"}],"geoPoint":{"lat":-32.94682,"lon":-60.63932}},{"facility":"Hospital Privado Universitario de Córdoba","status":"RECRUITING","city":"Córdoba","zip":"5016","country":"Argentina","contacts":[{"name":"Jeremias Sierra, Site 0215","role":"CONTACT","phone":"543514862400"}],"geoPoint":{"lat":-31.4135,"lon":-64.18105}},{"facility":"Local Institution - 0370","status":"NOT_YET_RECRUITING","city":"Córdoba","zip":"X5000HWE","country":"Argentina","contacts":[{"name":"Site 0370","role":"CONTACT"}],"geoPoint":{"lat":-31.4135,"lon":-64.18105}},{"facility":"Hospital Privado de Comunidad","status":"RECRUITING","city":"Mar del Plata","zip":"7600","country":"Argentina","contacts":[{"name":"Omar Carranza, Site 0236","role":"CONTACT","phone":"5422349900005823"}],"geoPoint":{"lat":-38.00228,"lon":-57.55754}},{"facility":"Gosford Hospital","status":"RECRUITING","city":"Gosford","state":"New South Wales","zip":"2250","country":"Australia","contacts":[{"name":"Matthew Chan, Site 0058","role":"CONTACT","phone":"+61243209890"}],"geoPoint":{"lat":-33.4244,"lon":151.34399}},{"facility":"GenesisCare North Shore","status":"RECRUITING","city":"St Leonards","state":"New South Wales","zip":"2065","country":"Australia","contacts":[{"name":"Nick Pavlakis, Site 0061","role":"CONTACT","phone":"61294631172"}],"geoPoint":{"lat":-33.82344,"lon":151.19836}},{"facility":"The Prince Charles Hospital","status":"RECRUITING","city":"Brisbane","state":"Queensland","zip":"4032","country":"Australia","contacts":[{"name":"Brett Hughes, Site 0243","role":"CONTACT","phone":"61736468111"}],"geoPoint":{"lat":-27.46794,"lon":153.02809}},{"facility":"Gallipoli Medical Research Ltd","status":"RECRUITING","city":"Brisbane","state":"Queensland","zip":"4120","country":"Australia","contacts":[{"name":"Kenneth O'Byrne, Site 0068","role":"CONTACT","phone":"0731766505"}],"geoPoint":{"lat":-27.46794,"lon":153.02809}},{"facility":"Local Institution - 0057","status":"NOT_YET_RECRUITING","city":"Elizabeth Vale","state":"South Australia","zip":"5112","country":"Australia","contacts":[{"name":"Site 0057","role":"CONTACT"}],"geoPoint":{"lat":-34.74857,"lon":138.66819}},{"facility":"Box Hill Hospital","status":"RECRUITING","city":"Box Hill","state":"Victoria","zip":"3128","country":"Australia","contacts":[{"name":"Andrew Mant, Site 0054","role":"CONTACT","phone":"61398953281"}],"geoPoint":{"lat":-37.81887,"lon":145.12545}},{"facility":"Fiona Stanley Hospital","status":"RECRUITING","city":"Murdoch","state":"Western Australia","zip":"6150","country":"Australia","contacts":[{"name":"Lydia Warburton, Site 0053","role":"CONTACT","phone":"63833000"}],"geoPoint":{"lat":-32.06987,"lon":115.83757}},{"facility":"St. John of God Murdoch Hospital","status":"RECRUITING","city":"Murdoch","state":"Western Australia","zip":"6150","country":"Australia","contacts":[{"name":"Kynan Feeney, Site 0056","role":"CONTACT","phone":"+61894389599"}],"geoPoint":{"lat":-32.06987,"lon":115.83757}},{"facility":"Local Institution - 0314","status":"NOT_YET_RECRUITING","city":"Krems","state":"Niederösterreich","zip":"3500","country":"Austria","contacts":[{"name":"Site 0314","role":"CONTACT"}],"geoPoint":{"lat":48.40921,"lon":15.61415}},{"facility":"Local Institution - 0292","status":"NOT_YET_RECRUITING","city":"Wels","state":"Oberösterreich","zip":"4600","country":"Austria","contacts":[{"name":"Site 0292","role":"CONTACT"}],"geoPoint":{"lat":48.16667,"lon":14.03333}},{"facility":"Local Institution - 0293","status":"NOT_YET_RECRUITING","city":"Wien","zip":"1210","country":"Austria","contacts":[{"name":"Site 0293","role":"CONTACT"}],"geoPoint":{"lat":48.20849,"lon":16.37208}},{"facility":"Local Institution - 0396","status":"NOT_YET_RECRUITING","city":"Edegem","state":"Antwerpen","zip":"2650","country":"Belgium","contacts":[{"name":"Site 0396","role":"CONTACT"}],"geoPoint":{"lat":51.15662,"lon":4.44504}},{"facility":"Local Institution - 0039","status":"NOT_YET_RECRUITING","city":"Brussels","state":"Bruxelles-Capitale, Région De","zip":"1090","country":"Belgium","contacts":[{"name":"Site 0039","role":"CONTACT"}],"geoPoint":{"lat":50.85045,"lon":4.34878}},{"facility":"Local Institution - 0187","status":"NOT_YET_RECRUITING","city":"Hasselt","state":"Limburg","zip":"3500","country":"Belgium","contacts":[{"name":"Site 0187","role":"CONTACT"}],"geoPoint":{"lat":50.93106,"lon":5.33781}},{"facility":"Local Institution - 0038","status":"NOT_YET_RECRUITING","city":"Yvoir","state":"Namur","zip":"5530","country":"Belgium","contacts":[{"name":"Site 0038","role":"CONTACT"}],"geoPoint":{"lat":50.3279,"lon":4.88059}},{"facility":"Local Institution - 0041","status":"NOT_YET_RECRUITING","city":"Roeselare","state":"West-Vlaanderen","zip":"8800","country":"Belgium","contacts":[{"name":"Site 0041","role":"CONTACT"}],"geoPoint":{"lat":50.94653,"lon":3.12269}},{"facility":"Local Institution - 0185","status":"NOT_YET_RECRUITING","city":"Liège","zip":"4000","country":"Belgium","contacts":[{"name":"Site 0185","role":"CONTACT"}],"geoPoint":{"lat":50.63373,"lon":5.56749}},{"facility":"Pronutrir","status":"RECRUITING","city":"Fortaleza","state":"Ceará","zip":"60810180","country":"Brazil","contacts":[{"name":"Herbert Tavares Palmeira, Site 0382","role":"CONTACT","phone":"558532865934"}],"geoPoint":{"lat":-3.71722,"lon":-38.54306}},{"facility":"Cetus Oncologia - Unidade Belo Horizonte","status":"RECRUITING","city":"Belo Horizonte","state":"Minas Gerais","zip":"30110-022","country":"Brazil","contacts":[{"name":"Elisa Ramos, Site 0078","role":"CONTACT","phone":"5531998619660"}],"geoPoint":{"lat":-19.92083,"lon":-43.93778}},{"facility":"Local Institution - 0375","status":"NOT_YET_RECRUITING","city":"Belem","state":"Pará","zip":"66063-495","country":"Brazil","contacts":[{"name":"Site 0375","role":"CONTACT"}],"geoPoint":{"lat":-1.45583,"lon":-48.50444}},{"facility":"Local Institution - 0151","status":"NOT_YET_RECRUITING","city":"Natal","state":"Rio Grande Do Norte","zip":"59075-740","country":"Brazil","contacts":[{"name":"Site 0151","role":"CONTACT"}],"geoPoint":{"lat":-5.795,"lon":-35.20944}},{"facility":"Hospital de Clinicas de Porto Alegre","status":"RECRUITING","city":"Porto Alegre","state":"Rio Grande Do Sul","zip":"90035-903","country":"Brazil","contacts":[{"name":"Rodrigo Pereira, Site 0083","role":"CONTACT","phone":"5551999734670"}],"geoPoint":{"lat":-30.03306,"lon":-51.23}},{"facility":"Hospital São Lucas da PUCRS","status":"RECRUITING","city":"Porto Alegre","state":"Rio Grande Do Sul","zip":"90610-000","country":"Brazil","contacts":[{"name":"Ana Caroline Gelatti, Site 0076","role":"CONTACT","phone":"(51)3320-3039"}],"geoPoint":{"lat":-30.03306,"lon":-51.23}},{"facility":"Clínica de Neoplasias Litoral","status":"RECRUITING","city":"Itajaí","state":"Santa Catarina","zip":"88301-220","country":"Brazil","contacts":[{"name":"Giuliano Borges, Site 0084","role":"CONTACT","phone":"5547984046243"}],"geoPoint":{"lat":-26.90778,"lon":-48.66194}},{"facility":"Fundação Pio XII - Hospital de Câncer de Barretos","status":"RECRUITING","city":"Barretos","state":"São Paulo","zip":"14784400","country":"Brazil","contacts":[{"name":"Amélia de Melo, Site 0152","role":"CONTACT","phone":"+551733216637"}],"geoPoint":{"lat":-20.55722,"lon":-48.56778}},{"facility":"NAIC - Instituto do Câncer","status":"RECRUITING","city":"Bauru","state":"São Paulo","zip":"17033-490","country":"Brazil","contacts":[{"name":"Marcelo Antunes, Site 0149","role":"CONTACT","phone":"+5514997923873"}],"geoPoint":{"lat":-22.31472,"lon":-49.06056}},{"facility":"Centro de Oncologia - CEON+ - Unidade São Caetano do Sul","status":"RECRUITING","city":"São Caetano do Sul","state":"São Paulo","zip":"09541-270","country":"Brazil","contacts":[{"name":"Daniel Cubero, Site 0373","role":"CONTACT","phone":"551199964-2770"}],"geoPoint":{"lat":-23.62306,"lon":-46.55111}},{"facility":"Instituto Nacional de Câncer - INCA","status":"RECRUITING","city":"Rio de Janeiro","zip":"20231-050","country":"Brazil","contacts":[{"name":"Luiz Henrique Araujo, Site 0232","role":"CONTACT","phone":"552132076585"}],"geoPoint":{"lat":-22.90278,"lon":-43.2075}},{"facility":"Icesp - Instituto Do Câncer Do Estado de São Paulo","status":"RECRUITING","city":"São Paulo","zip":"01246-000","country":"Brazil","contacts":[{"name":"Milena Perez Mak, Site 0147","role":"CONTACT","phone":"551138932632"}],"geoPoint":{"lat":-23.5475,"lon":-46.63611}},{"facility":"Orlandi Oncologia","status":"RECRUITING","city":"Santiago","state":"Región Metropolitana De Santiago","zip":"0","country":"Chile","contacts":[{"name":"Francisco Orlandi, Site 0213","role":"CONTACT","phone":"56992214787"}],"geoPoint":{"lat":-33.45694,"lon":-70.64827}},{"facility":"Fundacion Arturo Lopez Perez (FALP)","status":"RECRUITING","city":"Santiago","state":"Región Metropolitana De Santiago","zip":"7500921","country":"Chile","contacts":[{"name":"Christian Caglevic, Site 0249","role":"CONTACT","phone":"56224457254"}],"geoPoint":{"lat":-33.45694,"lon":-70.64827}},{"facility":"Pontificia Universidad Catolica de Chile","status":"RECRUITING","city":"Santiago","state":"Región Metropolitana De Santiago","zip":"8330032","country":"Chile","contacts":[{"name":"Hector Galindo, Site 0212","role":"CONTACT","phone":"+56963413803"}],"geoPoint":{"lat":-33.45694,"lon":-70.64827}},{"facility":"Bradfordhill","status":"RECRUITING","city":"Santiago","state":"Región Metropolitana De Santiago","zip":"8420383","country":"Chile","contacts":[{"name":"Carlos Rojas, Site 0214","role":"CONTACT","phone":"+56998744662"}],"geoPoint":{"lat":-33.45694,"lon":-70.64827}},{"facility":"Oncocentro Apys","status":"RECRUITING","city":"Viña del Mar","state":"Valparaíso","zip":"2520598","country":"Chile","contacts":[{"name":"Alejandro Acevedo Gaete, Site 0452","role":"CONTACT","phone":"+56992369820"}],"geoPoint":{"lat":-33.02457,"lon":-71.55183}},{"facility":"Local Institution - 0182","status":"NOT_YET_RECRUITING","city":"Hefei","state":"Anhui","zip":"230031","country":"China","contacts":[{"name":"Site 0182","role":"CONTACT"}],"geoPoint":{"lat":31.86389,"lon":117.28083}},{"facility":"Beijing Cancer hospital","status":"RECRUITING","city":"Beijing","state":"Beijing","zip":"100142","country":"China","contacts":[{"name":"Jian Fang, Site 0070","role":"CONTACT","phone":"861088196479"}],"geoPoint":{"lat":39.9075,"lon":116.39723}},{"facility":"Chongqing University Cancer Hospital","status":"RECRUITING","city":"Chongqing","state":"Chongqing","zip":"400030","country":"China","contacts":[{"name":"Chunmei Wang, Site 0238","role":"CONTACT","phone":"8615111954802"}],"geoPoint":{"lat":29.56278,"lon":106.55278}},{"facility":"Chongqing Three Gorges Central Hospital","status":"RECRUITING","city":"Wanzhou","state":"Chongqing","zip":"404000","country":"China","contacts":[{"name":"Wei Wang, Site 0244","role":"CONTACT","phone":"8613635324483"}]},{"facility":"Fujian Cancer Hospital","status":"RECRUITING","city":"Fuzhou","state":"Fujian","zip":"350014","country":"China","contacts":[{"name":"Haipeng Xu, Site 0075","role":"CONTACT","phone":"8613675007687"}],"geoPoint":{"lat":26.06139,"lon":119.30611}},{"facility":"Local Institution - 0307","status":"NOT_YET_RECRUITING","city":"Guangzhou","state":"Guangdong","zip":"510080","country":"China","contacts":[{"name":"Site 0307","role":"CONTACT"}],"geoPoint":{"lat":23.11667,"lon":113.25}},{"facility":"The First Affiliated Hospital, Sun Yat-sen University","status":"RECRUITING","city":"Guangzhou","state":"Guangdong","zip":"510080","country":"China","contacts":[{"name":"Kejing Tang, Site 0098","role":"CONTACT","phone":"8613802946566"}],"geoPoint":{"lat":23.11667,"lon":113.25}},{"facility":"The First Affiliated Hospital of Guangzhou Medical University","status":"RECRUITING","city":"Guangzhou","state":"Guangdong","zip":"510140","country":"China","contacts":[{"name":"Haihong Yang, Site 0067","role":"CONTACT","phone":"13711244230"}],"geoPoint":{"lat":23.11667,"lon":113.25}},{"facility":"Huizhou Central People's Hospital","status":"RECRUITING","city":"Huizhou","state":"Guangdong","zip":"516001","country":"China","contacts":[{"name":"Ying He, Site 0326","role":"CONTACT","phone":"13928311788"}],"geoPoint":{"lat":23.11147,"lon":114.41523}},{"facility":"Liuzhou People's Hospital","status":"RECRUITING","city":"Liuzhou","state":"Guangxi","zip":"545006","country":"China","contacts":[{"name":"Jingzhang Li, Site 0353","role":"CONTACT","phone":"+8618078259868"}]},{"facility":"Guangxi Medical University Affiliated Tumor Hospital","status":"RECRUITING","city":"Nanning","state":"Guangxi","zip":"530201","country":"China","contacts":[{"name":"Qitao Yu, Site 0134","role":"CONTACT","phone":"13878106696"}],"geoPoint":{"lat":22.81667,"lon":108.31667}},{"facility":"Harbin Medical University Cancer Hospital","status":"RECRUITING","city":"Harbin","state":"Heilongjiang","zip":"150081","country":"China","contacts":[{"name":"Yan Yu, Site 0102","role":"CONTACT","phone":"13904505825"}],"geoPoint":{"lat":45.75,"lon":126.65}},{"facility":"Local Institution - 0420","status":"NOT_YET_RECRUITING","city":"Xinxiang","state":"Henan","zip":"453100","country":"China","contacts":[{"name":"Site 0420","role":"CONTACT"}],"geoPoint":{"lat":35.19033,"lon":113.80151}},{"facility":"The First Affiliated Hospital of Zhengzhou Universtiy","status":"RECRUITING","city":"Zhengzhou","state":"Henan","zip":"450000","country":"China","contacts":[{"name":"Siyuan Huang, Site 0237","role":"CONTACT","phone":"15136218850"}],"geoPoint":{"lat":34.75778,"lon":113.64861}},{"facility":"Local Institution - 0235","status":"WITHDRAWN","city":"Wuhan","state":"Hubei","zip":"430079","country":"China","geoPoint":{"lat":30.58333,"lon":114.26667}},{"facility":"Hunan Cancer Hospital","status":"RECRUITING","city":"Changsha","state":"Hunan","zip":"410013","country":"China","contacts":[{"name":"Lin Wu, Site 0072","role":"CONTACT","phone":"8613170419973"}],"geoPoint":{"lat":28.19874,"lon":112.97087}},{"facility":"First Huai'an Hospital Affiliated to Nanjing Medical University","status":"RECRUITING","city":"Huai'an","state":"Jiangsu","zip":"223300","country":"China","contacts":[{"name":"Zili Meng, Site 0354","role":"CONTACT","phone":"13952399232"}],"geoPoint":{"lat":33.50389,"lon":119.14417}},{"facility":"Local Institution - 0451","status":"NOT_YET_RECRUITING","city":"Nanchang","state":"Jiangxi","zip":"330209","country":"China","contacts":[{"name":"Site 0451","role":"CONTACT"}],"geoPoint":{"lat":28.68396,"lon":115.85306}},{"facility":"Liaoning Cancer Hospital","status":"RECRUITING","city":"Shenyang","state":"Liaoning","zip":"110042","country":"China","contacts":[{"name":"Rui Ma, Site 0181","role":"CONTACT","phone":"13304006343"}],"geoPoint":{"lat":41.79222,"lon":123.43278}},{"facility":"Xi'an International Medical Center Hospital","status":"RECRUITING","city":"Xi'an","state":"Shaanxi","zip":"710126","country":"China","contacts":[{"name":"Kejun Nan, Site 0423","role":"CONTACT","phone":"8613319286228"}],"geoPoint":{"lat":34.25833,"lon":108.92861}},{"facility":"Shandong Cancer Hospital","status":"RECRUITING","city":"Jinan","state":"Shandong","zip":"250117","country":"China","contacts":[{"name":"Ligang Xing, Site 0074","role":"CONTACT","phone":"86-15553181309"}],"geoPoint":{"lat":36.66833,"lon":116.99722}},{"facility":"Shanghai Chest Hospital","status":"RECRUITING","city":"Shanghai","state":"Shanghai","zip":"200030","country":"China","contacts":[{"name":"Zhen Zhou, Site 0064","role":"CONTACT","phone":"8618017321556"}],"geoPoint":{"lat":31.22222,"lon":121.45806}},{"facility":"Shanghai Chest Hospital","status":"RECRUITING","city":"Shanghai","state":"Shanghai","zip":"200030","country":"China","contacts":[{"name":"Hua Zhong, Site 0280","role":"CONTACT","phone":"13818200560"}],"geoPoint":{"lat":31.22222,"lon":121.45806}},{"facility":"Zhongshan Hospital,Fudan University","status":"RECRUITING","city":"Shanghai","state":"Shanghai","zip":"200032","country":"China","contacts":[{"name":"Yong Zhang, Site 0318","role":"CONTACT","phone":"15000229853"}],"geoPoint":{"lat":31.22222,"lon":121.45806}},{"facility":"Local Institution - 0435","status":"NOT_YET_RECRUITING","city":"Taiyuan","state":"Shanxi","zip":"030000","country":"China","contacts":[{"name":"Site 0435","role":"CONTACT"}],"geoPoint":{"lat":37.86944,"lon":112.56028}},{"facility":"Sichuan Cancer hospital","status":"RECRUITING","city":"Chengdu","state":"Sichuan","zip":"610041","country":"China","contacts":[{"name":"Juan Li, Site 0121","role":"CONTACT","phone":"+8613880276636"}],"geoPoint":{"lat":30.66667,"lon":104.06667}},{"facility":"The Second People's Hospital of Neijiang","status":"RECRUITING","city":"Neijiang","state":"Sichuan","zip":"641000","country":"China","contacts":[{"name":"Yu Liu, Site 0424","role":"CONTACT","phone":"+8613698308655"}],"geoPoint":{"lat":29.58354,"lon":105.06216}},{"facility":"Tianjin Medical University Cancer Institute & Hospital","status":"RECRUITING","city":"Tianjin","state":"Tianjin","zip":"300060","country":"China","contacts":[{"name":"Peng Chen, Site 0177","role":"CONTACT","phone":"022-23340123"}],"geoPoint":{"lat":39.14222,"lon":117.17667}},{"facility":"The first Affiliated Hospital, Zhejiang University School of Medicine","status":"RECRUITING","city":"Hangzhou","state":"Zhejiang","zip":"310003","country":"China","contacts":[{"name":"Jianya Zhou, Site 0071","role":"CONTACT","phone":"8613858123060"}],"geoPoint":{"lat":30.29365,"lon":120.16142}},{"facility":"Sir Run Run Shaw Hospital of Zhejiang University School of Medicine","status":"RECRUITING","city":"Hangzhou","state":"Zhejiang","zip":"310016","country":"China","contacts":[{"name":"Enguo Chen, Site 0099","role":"CONTACT","phone":"13588706779"}],"geoPoint":{"lat":30.29365,"lon":120.16142}},{"facility":"Zhejiang Cancer Hospital","status":"RECRUITING","city":"Hangzhou","state":"Zhejiang","zip":"310022","country":"China","contacts":[{"name":"Xinmin Yu, Site 0338","role":"CONTACT","phone":"8613705718617"}],"geoPoint":{"lat":30.29365,"lon":120.16142}},{"facility":"Taizhou Hospital of Zhejiang Province","status":"RECRUITING","city":"Linhai","state":"Zhejiang","zip":"317000","country":"China","contacts":[{"name":"Dongqing LV, Site 0101","role":"CONTACT","phone":"13867622009"}],"geoPoint":{"lat":28.85535,"lon":121.14469}},{"facility":"Local Institution - 0415","status":"NOT_YET_RECRUITING","city":"Medellín","state":"Antioquia","zip":"0","country":"Colombia","contacts":[{"name":"Site 0415","role":"CONTACT"}],"geoPoint":{"lat":6.25184,"lon":-75.56359}},{"facility":"Local Institution - 0417","status":"NOT_YET_RECRUITING","city":"Valledupar","state":"Cesar","zip":"200001","country":"Colombia","contacts":[{"name":"Site 0417","role":"CONTACT"}],"geoPoint":{"lat":10.46314,"lon":-73.25322}},{"facility":"Local Institution - 0443","status":"NOT_YET_RECRUITING","city":"Bogotá","state":"Distrito Capital De Bogotá","zip":"0","country":"Colombia","contacts":[{"name":"Site 0443","role":"CONTACT"}],"geoPoint":{"lat":4.60971,"lon":-74.08175}},{"facility":"Local Institution - 0418","status":"NOT_YET_RECRUITING","city":"Bogotá","state":"Distrito Capital De Bogotá","zip":"110131","country":"Colombia","contacts":[{"name":"Site 0418","role":"CONTACT"}],"geoPoint":{"lat":4.60971,"lon":-74.08175}},{"facility":"Local Institution - 0416","status":"NOT_YET_RECRUITING","city":"Pereira","state":"Risaralda","zip":"660001","country":"Colombia","contacts":[{"name":"Site 0416","role":"CONTACT"}],"geoPoint":{"lat":4.81333,"lon":-75.69611}},{"facility":"Local Institution - 0442","status":"NOT_YET_RECRUITING","city":"Cali","state":"Valle Del Cauca","zip":"760032","country":"Colombia","contacts":[{"name":"Site 0442","role":"CONTACT"}],"geoPoint":{"lat":3.43722,"lon":-76.5225}},{"facility":"Local Institution - 0198","status":"NOT_YET_RECRUITING","city":"Aarhus","state":"Midtjylland","zip":"8200","country":"Denmark","contacts":[{"name":"Site 0198","role":"CONTACT"}],"geoPoint":{"lat":56.15674,"lon":10.21076}},{"facility":"Local Institution - 0124","status":"NOT_YET_RECRUITING","city":"Soenderborg","state":"Syddanmark","zip":"6400","country":"Denmark","contacts":[{"name":"Site 0124","role":"CONTACT"}]},{"facility":"Local Institution - 0125","status":"NOT_YET_RECRUITING","city":"Copenhagen","zip":"2100","country":"Denmark","contacts":[{"name":"Site 0125","role":"CONTACT"}],"geoPoint":{"lat":55.67594,"lon":12.56553}},{"facility":"Local Institution - 0090","status":"NOT_YET_RECRUITING","city":"Toulouse","state":"Haute-Garonne","zip":"31059","country":"France","contacts":[{"name":"Site 0090","role":"CONTACT"}],"geoPoint":{"lat":43.60426,"lon":1.44367}},{"facility":"Local Institution - 0092","status":"NOT_YET_RECRUITING","city":"Montpellier","state":"Hérault","zip":"34298","country":"France","contacts":[{"name":"Site 0092","role":"CONTACT"}],"geoPoint":{"lat":43.61092,"lon":3.87723}},{"facility":"Local Institution - 0093","status":"NOT_YET_RECRUITING","city":"Rennes","state":"Ille-et-Vilaine","zip":"35033","country":"France","contacts":[{"name":"Site 0093","role":"CONTACT"}],"geoPoint":{"lat":48.11198,"lon":-1.67429}},{"facility":"Local Institution - 0395","status":"NOT_YET_RECRUITING","city":"Vandoeuvre lès Nancy","state":"Meurthe-et-Moselle","zip":"54511","country":"France","contacts":[{"name":"Site 0395","role":"CONTACT"}],"geoPoint":{"lat":48.65,"lon":6.18333}},{"facility":"Local Institution - 0096","status":"NOT_YET_RECRUITING","city":"Lille","state":"Nord-Pas-de-Calais","zip":"59037","country":"France","contacts":[{"name":"Site 0096","role":"CONTACT"}],"geoPoint":{"lat":50.63297,"lon":3.05858}},{"facility":"Local Institution - 0091","status":"NOT_YET_RECRUITING","city":"Toulon","state":"Provence-Alpes-Côte-d'Azur","zip":"83100","country":"France","contacts":[{"name":"Site 0091","role":"CONTACT"}],"geoPoint":{"lat":43.12442,"lon":5.92836}},{"facility":"Local Institution - 0157","status":"NOT_YET_RECRUITING","city":"Pierre-Bénite","state":"Rhône","zip":"69310","country":"France","contacts":[{"name":"Site 0157","role":"CONTACT"}],"geoPoint":{"lat":45.7009,"lon":4.82511}},{"facility":"Local Institution - 0421","status":"NOT_YET_RECRUITING","city":"Bayonne","zip":"64109","country":"France","contacts":[{"name":"Site 0421","role":"CONTACT"}],"geoPoint":{"lat":43.48333,"lon":-1.48333}},{"facility":"Local Institution - 0158","status":"NOT_YET_RECRUITING","city":"Marseille","zip":"13915","country":"France","contacts":[{"name":"Site 0158","role":"CONTACT"}],"geoPoint":{"lat":43.29551,"lon":5.38958}},{"facility":"Local Institution - 0089","status":"NOT_YET_RECRUITING","city":"Paris","zip":"75014","country":"France","contacts":[{"name":"Site 0089","role":"CONTACT"}],"geoPoint":{"lat":48.85341,"lon":2.3488}},{"facility":"Local Institution - 0095","status":"NOT_YET_RECRUITING","city":"Paris","zip":"75248","country":"France","contacts":[{"name":"Site 0095","role":"CONTACT"}],"geoPoint":{"lat":48.85341,"lon":2.3488}},{"facility":"Local Institution - 0284","status":"NOT_YET_RECRUITING","city":"Esslingen","state":"Baden-Württemberg","zip":"73730","country":"Germany","contacts":[{"name":"Site 0284","role":"CONTACT"}],"geoPoint":{"lat":48.73961,"lon":9.30473}},{"facility":"Local Institution - 0439","status":"NOT_YET_RECRUITING","city":"Ulm","state":"Baden-Württemberg","zip":"89081","country":"Germany","contacts":[{"name":"Site 0439","role":"CONTACT"}],"geoPoint":{"lat":48.39841,"lon":9.99155}},{"facility":"Local Institution - 0287","status":"NOT_YET_RECRUITING","city":"Kempten","state":"Bayern","zip":"87439","country":"Germany","contacts":[{"name":"Site 0287","role":"CONTACT"}],"geoPoint":{"lat":47.72674,"lon":10.31389}},{"facility":"Local Institution - 0347","status":"NOT_YET_RECRUITING","city":"München","state":"Bayern","zip":"81377","country":"Germany","contacts":[{"name":"Site 0347","role":"CONTACT"}],"geoPoint":{"lat":48.13743,"lon":11.57549}},{"facility":"Local Institution - 0313","status":"NOT_YET_RECRUITING","city":"Marburg","state":"Hessen","zip":"35033","country":"Germany","contacts":[{"name":"Site 0313","role":"CONTACT"}],"geoPoint":{"lat":50.80904,"lon":8.77069}},{"facility":"Local Institution - 0436","status":"NOT_YET_RECRUITING","city":"Hannover","state":"Niedersachsen","zip":"30161","country":"Germany","contacts":[{"name":"Site 0436","role":"CONTACT"}],"geoPoint":{"lat":52.37052,"lon":9.73322}},{"facility":"Local Institution - 0397","status":"NOT_YET_RECRUITING","city":"Herne","state":"Nordrhein-Westfalen","zip":"44651","country":"Germany","contacts":[{"name":"Site 0397","role":"CONTACT"}],"geoPoint":{"lat":51.5388,"lon":7.22572}},{"facility":"Local Institution - 0438","status":"NOT_YET_RECRUITING","city":"Münster","state":"Nordrhein-Westfalen","zip":"48149","country":"Germany","contacts":[{"name":"Site 0438","role":"CONTACT"}],"geoPoint":{"lat":51.96236,"lon":7.62571}},{"facility":"Local Institution - 0437","status":"NOT_YET_RECRUITING","city":"Chemnitz","state":"Sachsen","zip":"09116","country":"Germany","contacts":[{"name":"Site 0437","role":"CONTACT"}],"geoPoint":{"lat":50.8357,"lon":12.92922}},{"facility":"Local Institution - 0316","status":"NOT_YET_RECRUITING","city":"Grosshansdorf","state":"Schleswig-Holstein","zip":"22927","country":"Germany","contacts":[{"name":"Site 0316","role":"CONTACT"}],"geoPoint":{"lat":53.66667,"lon":10.28333}},{"facility":"Local Institution - 0285","status":"NOT_YET_RECRUITING","city":"Berlin","zip":"13353","country":"Germany","contacts":[{"name":"Site 0285","role":"CONTACT"}],"geoPoint":{"lat":52.52437,"lon":13.41053}},{"facility":"Local Institution - 0282","status":"NOT_YET_RECRUITING","city":"Bonn","zip":"53127","country":"Germany","contacts":[{"name":"Site 0282","role":"CONTACT"}],"geoPoint":{"lat":50.73438,"lon":7.09549}},{"facility":"Local Institution - 0288","status":"NOT_YET_RECRUITING","city":"Essen","zip":"45122","country":"Germany","contacts":[{"name":"Site 0288","role":"CONTACT"}],"geoPoint":{"lat":51.45657,"lon":7.01228}},{"facility":"Local Institution - 0286","status":"NOT_YET_RECRUITING","city":"Gauting","zip":"82131","country":"Germany","contacts":[{"name":"Site 0286","role":"CONTACT"}],"geoPoint":{"lat":48.06919,"lon":11.37703}},{"facility":"Local Institution - 0329","status":"NOT_YET_RECRUITING","city":"New Delhi","state":"Delhi","zip":"110029","country":"India","contacts":[{"name":"Site 0329","role":"CONTACT"}],"geoPoint":{"lat":28.63576,"lon":77.22445}},{"facility":"Local Institution - 0448","status":"NOT_YET_RECRUITING","city":"New Delhi","state":"Delhi","zip":"110029","country":"India","contacts":[{"name":"Site 0448","role":"CONTACT"}],"geoPoint":{"lat":28.63576,"lon":77.22445}},{"facility":"Local Institution - 0337","status":"NOT_YET_RECRUITING","city":"New Delhi","state":"Delhi","zip":"110085","country":"India","contacts":[{"name":"Site 0337","role":"CONTACT"}],"geoPoint":{"lat":28.63576,"lon":77.22445}},{"facility":"Local Institution - 0333","status":"NOT_YET_RECRUITING","city":"Bengaluru","state":"Karnataka","zip":"560017","country":"India","contacts":[{"name":"Site 0333","role":"CONTACT"}],"geoPoint":{"lat":12.97194,"lon":77.59369}},{"facility":"Local Institution - 0331","status":"NOT_YET_RECRUITING","city":"Thiruvananthapuram","state":"Kerala","zip":"695011","country":"India","contacts":[{"name":"Site 0331","role":"CONTACT"}],"geoPoint":{"lat":8.4855,"lon":76.94924}},{"facility":"Local Institution - 0446","status":"NOT_YET_RECRUITING","city":"Mumbai","state":"Maharashtra","zip":"400 057","country":"India","contacts":[{"name":"Site 0446","role":"CONTACT"}],"geoPoint":{"lat":19.07283,"lon":72.88261}},{"facility":"Local Institution - 0336","status":"NOT_YET_RECRUITING","city":"Mumbai","state":"Maharashtra","zip":"400012","country":"India","contacts":[{"name":"Site 0336","role":"CONTACT"}],"geoPoint":{"lat":19.07283,"lon":72.88261}},{"facility":"Local Institution - 0453","status":"NOT_YET_RECRUITING","city":"Secunderabad","state":"Telangana","zip":"500003","country":"India","contacts":[{"name":"Site 0453","role":"CONTACT"}],"geoPoint":{"lat":17.50427,"lon":78.54263}},{"facility":"Local Institution - 0328","status":"NOT_YET_RECRUITING","city":"Howrah","state":"West Bengal","zip":"711103","country":"India","contacts":[{"name":"Site 0328","role":"CONTACT"}],"geoPoint":{"lat":22.57688,"lon":88.31857}},{"facility":"Local Institution - 0367","status":"NOT_YET_RECRUITING","city":"Dublin","zip":"D08 E9P6","country":"Ireland","contacts":[{"name":"Site 0367","role":"CONTACT"}],"geoPoint":{"lat":53.33306,"lon":-6.24889}},{"facility":"Local Institution - 0028","status":"NOT_YET_RECRUITING","city":"Dublin","zip":"D18 AK68","country":"Ireland","contacts":[{"name":"Site 0028","role":"CONTACT"}],"geoPoint":{"lat":53.33306,"lon":-6.24889}},{"facility":"Local Institution - 0029","status":"NOT_YET_RECRUITING","city":"Dublin","zip":"D24 NR0A","country":"Ireland","contacts":[{"name":"Site 0029","role":"CONTACT"}],"geoPoint":{"lat":53.33306,"lon":-6.24889}},{"facility":"Local Institution - 0027","status":"WITHDRAWN","city":"Dublin","zip":"D9","country":"Ireland","geoPoint":{"lat":53.33306,"lon":-6.24889}},{"facility":"Local Institution - 0400","status":"NOT_YET_RECRUITING","city":"Ravenna","state":"Emilia-Romagna","zip":"48121","country":"Italy","contacts":[{"name":"Site 0400","role":"CONTACT"}],"geoPoint":{"lat":44.41344,"lon":12.20121}},{"facility":"Local Institution - 0045","status":"NOT_YET_RECRUITING","city":"Monza","state":"Lombardia","zip":"20900","country":"Italy","contacts":[{"name":"Site 0045","role":"CONTACT"}],"geoPoint":{"lat":45.58005,"lon":9.27246}},{"facility":"Local Institution - 0046","status":"NOT_YET_RECRUITING","city":"Naples","state":"Napoli","zip":"80131","country":"Italy","contacts":[{"name":"Site 0046","role":"CONTACT"}],"geoPoint":{"lat":40.85216,"lon":14.26811}},{"facility":"Local Institution - 0049","status":"NOT_YET_RECRUITING","city":"Naples","state":"Napoli","zip":"80131","country":"Italy","contacts":[{"name":"Site 0049","role":"CONTACT"}],"geoPoint":{"lat":40.85216,"lon":14.26811}},{"facility":"Local Institution - 0043","status":"NOT_YET_RECRUITING","city":"Bari","state":"Puglia","zip":"70124","country":"Italy","contacts":[{"name":"Site 0043","role":"CONTACT"}],"geoPoint":{"lat":41.11148,"lon":16.8554}},{"facility":"Local Institution - 0250","status":"NOT_YET_RECRUITING","city":"Rome","state":"Roma","zip":"00144","country":"Italy","contacts":[{"name":"Site 0250","role":"CONTACT"}],"geoPoint":{"lat":41.89193,"lon":12.51133}},{"facility":"Local Institution - 0221","status":"NOT_YET_RECRUITING","city":"Peschiera del Garda","state":"Verona","zip":"37019","country":"Italy","contacts":[{"name":"Site 0221","role":"CONTACT"}],"geoPoint":{"lat":45.43912,"lon":10.68614}},{"facility":"Local Institution - 0222","status":"WITHDRAWN","city":"Ravenna","zip":"48121","country":"Italy","geoPoint":{"lat":44.41344,"lon":12.20121}},{"facility":"Local Institution - 0312","status":"NOT_YET_RECRUITING","city":"Kashiwa","state":"Chiba","zip":"277-8577","country":"Japan","contacts":[{"name":"Site 0312","role":"CONTACT"}],"geoPoint":{"lat":35.86224,"lon":139.97732}},{"facility":"University of Occupational and Enviromental Health","status":"RECRUITING","city":"Kitakyushu","state":"Fukuoka","zip":"807-8556","country":"Japan","contacts":[{"name":"Fumihiro Tanaka, Site 0320","role":"CONTACT","phone":"81936031611"}],"geoPoint":{"lat":33.85181,"lon":130.85034}},{"facility":"Kurume University Hospital","status":"RECRUITING","city":"Kurume","state":"Fukuoka","zip":"830-0011","country":"Japan","contacts":[{"name":"Koichi Azuma, Site 0273","role":"CONTACT","phone":"81942317629"}],"geoPoint":{"lat":33.31667,"lon":130.51667}},{"facility":"Chugoku Central Hospital","status":"RECRUITING","city":"Fukuyama-shi","state":"Hiroshima","zip":"720-0001","country":"Japan","contacts":[{"name":"Kenichi Gemba, Site 0276","role":"CONTACT","phone":"+81849849702121"}],"geoPoint":{"lat":34.48333,"lon":133.36667}},{"facility":"National Hospital Organization Hokkaido Cancer Center","status":"RECRUITING","city":"Sapporo","state":"Hokkaido","zip":"003-0804","country":"Japan","contacts":[{"name":"Satoshi Oizumi, Site 0311","role":"CONTACT","phone":"+81118119111"}],"geoPoint":{"lat":43.06667,"lon":141.35}},{"facility":"Local Institution - 0449","status":"NOT_YET_RECRUITING","city":"Yokohama","state":"Kanagawa","zip":"236-0051","country":"Japan","contacts":[{"name":"Site 0449","role":"CONTACT"}],"geoPoint":{"lat":35.43333,"lon":139.65}},{"facility":"Kanagawa cancer center","status":"RECRUITING","city":"Yokohama","state":"Kanagawa","zip":"2418515","country":"Japan","contacts":[{"name":"Haruhiro Saito, Site 0321","role":"CONTACT","phone":"81455202222"}],"geoPoint":{"lat":35.43333,"lon":139.65}},{"facility":"Local Institution - 0444","status":"NOT_YET_RECRUITING","city":"Nankoku","state":"Kochi","zip":"783-8505","country":"Japan","contacts":[{"name":"Site 0444","role":"CONTACT"}],"geoPoint":{"lat":33.56943,"lon":133.64937}},{"facility":"Sendai Kousei Hospital","status":"RECRUITING","city":"Sendai","state":"Miyagi","zip":"9810914","country":"Japan","contacts":[{"name":"Shunichi Sugawara, Site 0339","role":"CONTACT","phone":"81227288000"}],"geoPoint":{"lat":38.26667,"lon":140.86667}},{"facility":"Nara Medical University Hospital","status":"RECRUITING","city":"Kashihara","state":"Nara","zip":"634-0813","country":"Japan","contacts":[{"name":"Masayuki Takeda, Site 0322","role":"CONTACT","phone":"81744223051"}],"geoPoint":{"lat":34.50896,"lon":135.7929}},{"facility":"Niigata Cancer Center Hospital","status":"RECRUITING","city":"Niigata-shi","state":"Niigata","zip":"951-8566","country":"Japan","contacts":[{"name":"Hiroshi Tanaka, Site 0279","role":"CONTACT","phone":"81252665111"}],"geoPoint":{"lat":37.88637,"lon":139.00589}},{"facility":"Kurashiki Central Hospital","status":"RECRUITING","city":"Kurashiki","state":"Okayama","zip":"710-8602","country":"Japan","contacts":[{"name":"Toshihide Yokoyama, Site 0306","role":"CONTACT","phone":"81864220210"}],"geoPoint":{"lat":34.58333,"lon":133.76667}},{"facility":"Kansai Medical University Hospital","status":"RECRUITING","city":"Hirakata","state":"Osaka","zip":"573-1191","country":"Japan","contacts":[{"name":"Takayasu Kurata, Site 0275","role":"CONTACT","phone":"81728042503"}],"geoPoint":{"lat":34.81352,"lon":135.64914}},{"facility":"Kindai University Hospital- Osakasayama Campus","status":"RECRUITING","city":"Osaka-sayama","state":"Osaka","zip":"589-8511","country":"Japan","contacts":[{"name":"Hidetoshi Hayashi, Site 0277","role":"CONTACT","phone":"81723681184"}],"geoPoint":{"lat":34.69374,"lon":135.50218}},{"facility":"Saitama Medical University International Medical Center","status":"RECRUITING","city":"Hidaka","state":"Saitama","zip":"350-1298","country":"Japan","contacts":[{"name":"Hiroshi Kagamu, Site 0274","role":"CONTACT","phone":"819014217189"}]},{"facility":"Hamamatsu University Hospital","status":"RECRUITING","city":"Hamamatsu","state":"Shizuoka","zip":"431-3192","country":"Japan","contacts":[{"name":"Naoki Inui, Site 0278","role":"CONTACT","phone":"81534352356"}],"geoPoint":{"lat":34.7,"lon":137.73333}},{"facility":"Shizuoka Cancer Center","status":"RECRUITING","city":"Nagaizumi-cho,Sunto-gun","state":"Shizuoka","zip":"411-8777","country":"Japan","contacts":[{"name":"Hirotsugu Kenmotsu, Site 0310","role":"CONTACT","phone":"81559895222"}]},{"facility":"The Cancer Institute Hospital of JFCR","status":"RECRUITING","city":"Koto","state":"Tokyo","zip":"135-8550","country":"Japan","contacts":[{"name":"Ken Uchibori, Site 0323","role":"CONTACT","phone":"81335200111"}],"geoPoint":{"lat":35.66667,"lon":139.81718}},{"facility":"Hyogo Cancer Center","status":"RECRUITING","city":"Akashi","zip":"6738558","country":"Japan","contacts":[{"name":"Yoshihiro Hattori, Site 0327","role":"CONTACT","phone":"81789291151"}],"geoPoint":{"lat":34.65522,"lon":135.00687}},{"facility":"Fukushima Medical University","status":"RECRUITING","city":"Fukushima","zip":"960-1295","country":"Japan","contacts":[{"name":"Hiroyuki Suzuki, Site 0319","role":"CONTACT","phone":"81245471111"}],"geoPoint":{"lat":37.75,"lon":140.46667}},{"facility":"Osaka International Cancer Institute","status":"RECRUITING","city":"Osaka","zip":"541-8567","country":"Japan","contacts":[{"name":"Kazumi Nishino, Site 0340","role":"CONTACT","phone":"81669721181"}],"geoPoint":{"lat":34.69374,"lon":135.50218}},{"facility":"Chungbuk National University Hospital","status":"RECRUITING","city":"Cheongju-si","state":"Chungcheongbuk-do [Chungbuk]","zip":"28644","country":"Korea, Republic of","contacts":[{"name":"Ki Hyeong Lee, Site 0220","role":"CONTACT","phone":"82432696015"}],"geoPoint":{"lat":36.63722,"lon":127.48972}},{"facility":"Gachon University Gil Medical Center","status":"RECRUITING","city":"Namdong-gu","state":"Incheon-gwangyeoksi [Incheon]","zip":"21565","country":"Korea, Republic of","contacts":[{"name":"Eun Kyung Cho, Site 0234","role":"CONTACT","phone":"82324603383"}]},{"facility":"Local Institution - 0458","status":"NOT_YET_RECRUITING","city":"Hwasun","state":"Jeonranamdo","zip":"58128","country":"Korea, Republic of","contacts":[{"name":"Site 0458","role":"CONTACT"}],"geoPoint":{"lat":35.06125,"lon":126.98746}},{"facility":"National Cancer Center","status":"RECRUITING","city":"Goyang-si","state":"Kyǒnggi-do","zip":"10408","country":"Korea, Republic of","contacts":[{"name":"Ji-Youn Han, Site 0201","role":"CONTACT","phone":"82319201154"}],"geoPoint":{"lat":37.65639,"lon":126.835}},{"facility":"Local Institution - 0450","status":"NOT_YET_RECRUITING","city":"Seongnam-si","state":"Kyǒnggi-do","zip":"13496","country":"Korea, Republic of","contacts":[{"name":"Site 0450","role":"CONTACT"}],"geoPoint":{"lat":37.43861,"lon":127.13778}},{"facility":"Local Institution - 0454","status":"NOT_YET_RECRUITING","city":"Busan","state":"Pusan-Kwangyǒkshi","zip":"49241","country":"Korea, Republic of","contacts":[{"name":"Site 0454","role":"CONTACT"}],"geoPoint":{"lat":35.10278,"lon":129.04028}},{"facility":"Severance Hospital, Yonsei University Health System","status":"RECRUITING","city":"Seoul","state":"Seoul-teukbyeolsi [Seoul]","zip":"03722","country":"Korea, Republic of","contacts":[{"name":"Hye Ryun Kim, Site 0175","role":"CONTACT","phone":"82222284190"}],"geoPoint":{"lat":37.566,"lon":126.9784}},{"facility":"Asan Medical Center","status":"RECRUITING","city":"Seoul","state":"Seoul-teukbyeolsi [Seoul]","zip":"05505","country":"Korea, Republic of","contacts":[{"name":"Sang-We Kim, Site 0233","role":"CONTACT","phone":"82230103215"}],"geoPoint":{"lat":37.566,"lon":126.9784}},{"facility":"Samsung Medical Center","status":"RECRUITING","city":"Seoul","state":"Seoul-teukbyeolsi [Seoul]","zip":"06351","country":"Korea, Republic of","contacts":[{"name":"Jin Seok Ahn, Site 0176","role":"CONTACT","phone":"821099333453"}],"geoPoint":{"lat":37.566,"lon":126.9784}},{"facility":"Local Institution - 0170","status":"NOT_YET_RECRUITING","city":"Guadalajara","state":"Jalisco","zip":"44260","country":"Mexico","contacts":[{"name":"Site 0170","role":"CONTACT"}],"geoPoint":{"lat":20.66682,"lon":-103.39182}},{"facility":"Local Institution - 0168","status":"NOT_YET_RECRUITING","city":"Santiago de Queretaro","state":"Querétaro","zip":"76000","country":"Mexico","contacts":[{"name":"Site 0168","role":"CONTACT"}],"geoPoint":{"lat":20.58806,"lon":-100.38806}},{"facility":"Local Institution - 0172","status":"NOT_YET_RECRUITING","city":"Mexico","zip":"06700","country":"Mexico","contacts":[{"name":"Site 0172","role":"CONTACT"}],"geoPoint":{"lat":19.42847,"lon":-99.12766}},{"facility":"Local Institution - 0169","status":"NOT_YET_RECRUITING","city":"San Luis Potosí","zip":"78250","country":"Mexico","contacts":[{"name":"Site 0169","role":"CONTACT"}],"geoPoint":{"lat":22.14982,"lon":-100.97916}},{"facility":"Local Institution - 0030","status":"WITHDRAWN","city":"Harderwijk","state":"Gelderland","zip":"3844 DG","country":"Netherlands","geoPoint":{"lat":52.34167,"lon":5.62083}},{"facility":"Local Institution - 0193","status":"NOT_YET_RECRUITING","city":"Heerlen","state":"Limburg","zip":"6419 PC","country":"Netherlands","contacts":[{"name":"Site 0193","role":"CONTACT"}],"geoPoint":{"lat":50.88365,"lon":5.98154}},{"facility":"Local Institution - 0196","status":"WITHDRAWN","city":"Den Bosch","state":"Noord-Brabant","zip":"5223 GZ","country":"Netherlands","geoPoint":{"lat":51.27,"lon":5.59167}},{"facility":"Local Institution - 0195","status":"WITHDRAWN","city":"Zwolle","state":"Overijssel","zip":"8025 AB","country":"Netherlands","geoPoint":{"lat":52.5125,"lon":6.09444}},{"facility":"Local Institution - 0036","status":"NOT_YET_RECRUITING","city":"Leiden","state":"Zuid-Holland","zip":"2333 ZA","country":"Netherlands","contacts":[{"name":"Site 0036","role":"CONTACT"}],"geoPoint":{"lat":52.15833,"lon":4.49306}},{"facility":"Local Institution - 0315","status":"WITHDRAWN","city":"The Hague","state":"Zuid-Holland","zip":"2512 VA","country":"Netherlands","geoPoint":{"lat":52.07667,"lon":4.29861}},{"facility":"Local Institution - 0033","status":"NOT_YET_RECRUITING","city":"Arnhem","zip":"6815 AD","country":"Netherlands","contacts":[{"name":"Site 0033","role":"CONTACT"}],"geoPoint":{"lat":51.98,"lon":5.91111}},{"facility":"Local Institution - 0032","status":"WITHDRAWN","city":"Groningen","zip":"9700 RB","country":"Netherlands","geoPoint":{"lat":53.21917,"lon":6.56667}},{"facility":"Local Institution - 0407","status":"NOT_YET_RECRUITING","city":"Tauranga","state":"Bay Of Plenty","zip":"3112","country":"New Zealand","contacts":[{"name":"Site 0407","role":"CONTACT"}],"geoPoint":{"lat":-37.68611,"lon":176.16667}},{"facility":"Local Institution - 0447","status":"NOT_YET_RECRUITING","city":"Tauranga","state":"Bay Of Plenty","zip":"3112","country":"New Zealand","contacts":[{"name":"Site 0447","role":"CONTACT"}],"geoPoint":{"lat":-37.68611,"lon":176.16667}},{"facility":"Local Institution - 0405","status":"NOT_YET_RECRUITING","city":"Auckland","zip":"1023","country":"New Zealand","contacts":[{"name":"Site 0405","role":"CONTACT"}],"geoPoint":{"lat":-36.84853,"lon":174.76349}},{"facility":"Local Institution - 0425","status":"NOT_YET_RECRUITING","city":"Dunedin","zip":"9016","country":"New Zealand","contacts":[{"name":"Site 0425","role":"CONTACT"}],"geoPoint":{"lat":-45.87416,"lon":170.50361}},{"facility":"Local Institution - 0406","status":"NOT_YET_RECRUITING","city":"Wellington","zip":"6021","country":"New Zealand","contacts":[{"name":"Site 0406","role":"CONTACT"}],"geoPoint":{"lat":-41.28664,"lon":174.77557}},{"facility":"Local Institution - 0259","status":"NOT_YET_RECRUITING","city":"Warsaw","state":"Mazowieckie","zip":"04-125","country":"Poland","contacts":[{"name":"Site 0259","role":"CONTACT"}],"geoPoint":{"lat":52.22977,"lon":21.01178}},{"facility":"Local Institution - 0258","status":"NOT_YET_RECRUITING","city":"Prabuty","state":"Pomorskie","zip":"82-550","country":"Poland","contacts":[{"name":"Site 0258","role":"CONTACT"}],"geoPoint":{"lat":53.755,"lon":19.20547}},{"facility":"Local Institution - 0255","status":"NOT_YET_RECRUITING","city":"Konin","state":"Wielkopolskie","zip":"62-500","country":"Poland","contacts":[{"name":"Site 0255","role":"CONTACT"}],"geoPoint":{"lat":52.22338,"lon":18.25121}},{"facility":"Local Institution - 0261","status":"NOT_YET_RECRUITING","city":"Poznan","state":"Wielkopolskie","zip":"60-693","country":"Poland","contacts":[{"name":"Site 0261","role":"CONTACT"}],"geoPoint":{"lat":52.40692,"lon":16.92993}},{"facility":"Local Institution - 0256","status":"NOT_YET_RECRUITING","city":"Poznań","state":"Wielkopolskie","zip":"60-192","country":"Poland","contacts":[{"name":"Site 0256","role":"CONTACT"}],"geoPoint":{"lat":52.40692,"lon":16.92993}},{"facility":"Local Institution - 0257","status":"NOT_YET_RECRUITING","city":"Koszalin","state":"Zachodniopomorskie","zip":"75-581","country":"Poland","contacts":[{"name":"Site 0257","role":"CONTACT"}],"geoPoint":{"lat":54.19438,"lon":16.17222}},{"facility":"Local Institution - 0260","status":"NOT_YET_RECRUITING","city":"Bydgoszcz","zip":"85796","country":"Poland","contacts":[{"name":"Site 0260","role":"CONTACT"}],"geoPoint":{"lat":53.1235,"lon":18.00762}},{"facility":"Local Institution - 0254","status":"NOT_YET_RECRUITING","city":"Łódź","state":"Łódzkie","zip":"93-338","country":"Poland","contacts":[{"name":"Site 0254","role":"CONTACT"}],"geoPoint":{"lat":51.75,"lon":19.46667}},{"facility":"Local Institution - 0402","status":"NOT_YET_RECRUITING","city":"Lisbon","state":"Lisboa","zip":"1099-023","country":"Portugal","contacts":[{"name":"Site 0402","role":"CONTACT"}],"geoPoint":{"lat":38.71667,"lon":-9.13333}},{"facility":"Local Institution - 0404","status":"NOT_YET_RECRUITING","city":"Coimbra","zip":"3040","country":"Portugal","contacts":[{"name":"Site 0404","role":"CONTACT"}],"geoPoint":{"lat":40.20564,"lon":-8.41955}},{"facility":"Local Institution - 0403","status":"NOT_YET_RECRUITING","city":"Porto","zip":"4200-072","country":"Portugal","contacts":[{"name":"Site 0403","role":"CONTACT"}],"geoPoint":{"lat":41.14961,"lon":-8.61099}},{"facility":"Local Institution - 0401","status":"NOT_YET_RECRUITING","city":"Porto","zip":"4200-319","country":"Portugal","contacts":[{"name":"Site 0401","role":"CONTACT"}],"geoPoint":{"lat":41.14961,"lon":-8.61099}},{"facility":"Local Institution - 0296","status":"NOT_YET_RECRUITING","city":"Bucharest","state":"București","zip":"013812","country":"Romania","contacts":[{"name":"Site 0296","role":"CONTACT"}],"geoPoint":{"lat":44.43225,"lon":26.10626}},{"facility":"Local Institution - 0298","status":"NOT_YET_RECRUITING","city":"Bucharest","state":"București","zip":"022338","country":"Romania","contacts":[{"name":"Site 0298","role":"CONTACT"}],"geoPoint":{"lat":44.43225,"lon":26.10626}},{"facility":"Local Institution - 0299","status":"NOT_YET_RECRUITING","city":"Florești","state":"Cluj","zip":"407280","country":"Romania","contacts":[{"name":"Site 0299","role":"CONTACT"}],"geoPoint":{"lat":45.05,"lon":25.78333}},{"facility":"Local Institution - 0295","status":"NOT_YET_RECRUITING","city":"Craiova","state":"Dolj","zip":"200542","country":"Romania","contacts":[{"name":"Site 0295","role":"CONTACT"}],"geoPoint":{"lat":44.31667,"lon":23.8}},{"facility":"Local Institution - 0297","status":"NOT_YET_RECRUITING","city":"Ploiești","state":"Prahova","zip":"100337","country":"Romania","contacts":[{"name":"Site 0297","role":"CONTACT"}],"geoPoint":{"lat":44.95,"lon":26.01667}},{"facility":"Local Institution - 0301","status":"NOT_YET_RECRUITING","city":"Cluj","zip":"400015","country":"Romania","contacts":[{"name":"Site 0301","role":"CONTACT"}],"geoPoint":{"lat":46.76667,"lon":23.6}},{"facility":"Local Institution - 0300","status":"NOT_YET_RECRUITING","city":"Iași","zip":"700483","country":"Romania","contacts":[{"name":"Site 0300","role":"CONTACT"}],"geoPoint":{"lat":47.16667,"lon":27.6}},{"facility":"Local Institution - 0408","status":"NOT_YET_RECRUITING","city":"Riyadh","state":"Ar Riyāḑ","zip":"11426","country":"Saudi Arabia","contacts":[{"name":"Site 0408","role":"CONTACT"}],"geoPoint":{"lat":24.68773,"lon":46.72185}},{"facility":"Local Institution - 0440","status":"NOT_YET_RECRUITING","city":"Dammam","state":"Ash Sharqīyah","zip":"31444","country":"Saudi Arabia","contacts":[{"name":"Site 0440","role":"CONTACT"}],"geoPoint":{"lat":26.43442,"lon":50.10326}},{"facility":"Local Institution - 0409","status":"NOT_YET_RECRUITING","city":"Jeddah","state":"Makkah Al Mukarramah","zip":"23433","country":"Saudi Arabia","contacts":[{"name":"Site 0409","role":"CONTACT"}],"geoPoint":{"lat":21.54238,"lon":39.19797}},{"facility":"Local Institution - 0429","status":"NOT_YET_RECRUITING","city":"Johannesburg","state":"GP","zip":"2193","country":"South Africa","contacts":[{"name":"Site 0429","role":"CONTACT"}],"geoPoint":{"lat":-26.20227,"lon":28.04363}},{"facility":"Local Institution - 0432","status":"NOT_YET_RECRUITING","city":"Pretoria","state":"GP","zip":"0181","country":"South Africa","contacts":[{"name":"Site 0432","role":"CONTACT"}],"geoPoint":{"lat":-25.74486,"lon":28.18783}},{"facility":"Local Institution - 0427","status":"NOT_YET_RECRUITING","city":"Sandton","state":"GP","zip":"2196","country":"South Africa","contacts":[{"name":"Site 0427","role":"CONTACT"}],"geoPoint":{"lat":-26.05524,"lon":28.05943}},{"facility":"Local Institution - 0431","status":"NOT_YET_RECRUITING","city":"Soweto","state":"GP","zip":"2013","country":"South Africa","contacts":[{"name":"Site 0431","role":"CONTACT"}],"geoPoint":{"lat":-26.26781,"lon":27.85849}},{"facility":"Local Institution - 0428","status":"NOT_YET_RECRUITING","city":"Cape Town","state":"Western Cape","zip":"7570","country":"South Africa","contacts":[{"name":"Site 0428","role":"CONTACT"}],"geoPoint":{"lat":-33.92584,"lon":18.42322}},{"facility":"Local Institution - 0270","status":"NOT_YET_RECRUITING","city":"A Coruña","state":"A Coruña [La Coruña]","zip":"15006","country":"Spain","contacts":[{"name":"Site 0270","role":"CONTACT"}],"geoPoint":{"lat":43.37135,"lon":-8.396}},{"facility":"Local Institution - 0264","status":"NOT_YET_RECRUITING","city":"Barcelona","state":"Barcelona [Barcelona]","zip":"08035","country":"Spain","contacts":[{"name":"Site 0264","role":"CONTACT"}],"geoPoint":{"lat":41.38879,"lon":2.15899}},{"facility":"Local Institution - 0434","status":"NOT_YET_RECRUITING","city":"Barcelona","state":"Catalunya [Cataluña]","zip":"08041","country":"Spain","contacts":[{"name":"Site 0434","role":"CONTACT"}],"geoPoint":{"lat":41.38879,"lon":2.15899}},{"facility":"Local Institution - 0267","status":"NOT_YET_RECRUITING","city":"L'Hospitalet de Llobregat","state":"Catalunya [Cataluña]","zip":"08908","country":"Spain","contacts":[{"name":"Site 0267","role":"CONTACT"}],"geoPoint":{"lat":41.35967,"lon":2.10028}},{"facility":"Local Institution - 0414","status":"NOT_YET_RECRUITING","city":"Palma","state":"Illes Balears [Islas Baleares]","zip":"07198","country":"Spain","contacts":[{"name":"Site 0414","role":"CONTACT"}],"geoPoint":{"lat":39.56939,"lon":2.65024}},{"facility":"Local Institution - 0413","status":"NOT_YET_RECRUITING","city":"Madrid","state":"Madrid, Comunidad De","zip":"28034","country":"Spain","contacts":[{"name":"Site 0413","role":"CONTACT"}],"geoPoint":{"lat":40.4165,"lon":-3.70256}},{"facility":"Local Institution - 0265","status":"NOT_YET_RECRUITING","city":"Madrid","state":"Madrid, Comunidad De","zip":"28041","country":"Spain","contacts":[{"name":"Site 0265","role":"CONTACT"}],"geoPoint":{"lat":40.4165,"lon":-3.70256}},{"facility":"Local Institution - 0426","status":"NOT_YET_RECRUITING","city":"Majadahonda","state":"Madrid, Comunidad De","zip":"28222","country":"Spain","contacts":[{"name":"Site 0426","role":"CONTACT"}],"geoPoint":{"lat":40.47353,"lon":-3.87182}},{"facility":"Local Institution - 0411","status":"NOT_YET_RECRUITING","city":"Valencia","state":"València","zip":"46015","country":"Spain","contacts":[{"name":"Site 0411","role":"CONTACT"}],"geoPoint":{"lat":39.46975,"lon":-0.37739}},{"facility":"Local Institution - 0266","status":"NOT_YET_RECRUITING","city":"Málaga","zip":"29011","country":"Spain","contacts":[{"name":"Site 0266","role":"CONTACT"}],"geoPoint":{"lat":36.72016,"lon":-4.42034}},{"facility":"Local Institution - 0268","status":"NOT_YET_RECRUITING","city":"Sevilla","zip":"41013","country":"Spain","contacts":[{"name":"Site 0268","role":"CONTACT"}],"geoPoint":{"lat":37.38283,"lon":-5.97317}},{"facility":"Local Institution - 0269","status":"NOT_YET_RECRUITING","city":"València","zip":"46026","country":"Spain","contacts":[{"name":"Site 0269","role":"CONTACT"}],"geoPoint":{"lat":39.46975,"lon":-0.37739}},{"facility":"Local Institution - 0341","status":"NOT_YET_RECRUITING","city":"Bellinzona","state":"Ticino","zip":"6500","country":"Switzerland","contacts":[{"name":"Site 0341","role":"CONTACT"}],"geoPoint":{"lat":46.19278,"lon":9.01703}},{"facility":"Local Institution - 0291","status":"NOT_YET_RECRUITING","city":"Lausanne","state":"Vaud","zip":"1011","country":"Switzerland","contacts":[{"name":"Site 0291","role":"CONTACT"}],"geoPoint":{"lat":46.516,"lon":6.63282}},{"facility":"Local Institution - 0290","status":"NOT_YET_RECRUITING","city":"Basel","zip":"4031","country":"Switzerland","contacts":[{"name":"Site 0290","role":"CONTACT"}],"geoPoint":{"lat":47.55839,"lon":7.57327}},{"facility":"Local Institution - 0398","status":"NOT_YET_RECRUITING","city":"Münsterlingen","zip":"8596","country":"Switzerland","contacts":[{"name":"Site 0398","role":"CONTACT"}],"geoPoint":{"lat":47.63172,"lon":9.23281}},{"facility":"Local Institution - 0445","status":"NOT_YET_RECRUITING","city":"Kaohsiung Niao Sung Dist","state":"Kaohsiung","zip":"83301","country":"Taiwan","contacts":[{"name":"Site 0445","role":"CONTACT"}]},{"facility":"Taipei Medical University Shuang Ho Hospital","status":"RECRUITING","city":"New Taipei","zip":"235","country":"Taiwan","contacts":[{"name":"Kang-Yun Lee, Site 0118","role":"CONTACT","phone":"8862224900882714"}],"geoPoint":{"lat":25.01111,"lon":121.44583}},{"facility":"Taichung Veterans General Hospital","status":"RECRUITING","city":"Taichung","zip":"407","country":"Taiwan","contacts":[{"name":"Tsung-Ying Yang, Site 0117","role":"CONTACT","phone":"8864235925253218"}],"geoPoint":{"lat":24.1469,"lon":120.6839}},{"facility":"National Taiwan University Hospital","status":"RECRUITING","city":"Taipei","zip":"10002","country":"Taiwan","contacts":[{"name":"Jin-Yuan Shih, Site 0116","role":"CONTACT","phone":"88622312345662905"}],"geoPoint":{"lat":25.04776,"lon":121.53185}},{"facility":"Taipei Veterans General Hospital","status":"RECRUITING","city":"Taipei","zip":"11217","country":"Taiwan","contacts":[{"name":"Yuh-Min Chen, Site 0119","role":"CONTACT","phone":"8862287112121x7865"}],"geoPoint":{"lat":25.04776,"lon":121.53185}},{"facility":"Local Institution - 0361","status":"NOT_YET_RECRUITING","city":"Adana","zip":"01140","country":"Turkey","contacts":[{"name":"Site 0361","role":"CONTACT"}],"geoPoint":{"lat":37.00167,"lon":35.32889}},{"facility":"Local Institution - 0365","status":"NOT_YET_RECRUITING","city":"Adana","zip":"01370","country":"Turkey","contacts":[{"name":"Site 0365","role":"CONTACT"}],"geoPoint":{"lat":37.00167,"lon":35.32889}},{"facility":"Local Institution - 0383","status":"NOT_YET_RECRUITING","city":"Ankara","zip":"06230","country":"Turkey","contacts":[{"name":"Site 0383","role":"CONTACT"}],"geoPoint":{"lat":39.91987,"lon":32.85427}},{"facility":"Local Institution - 0362","status":"NOT_YET_RECRUITING","city":"Ankara","zip":"06800","country":"Turkey","contacts":[{"name":"Site 0362","role":"CONTACT"}],"geoPoint":{"lat":39.91987,"lon":32.85427}},{"facility":"Local Institution - 0410","status":"NOT_YET_RECRUITING","city":"Istanbul","zip":"34214","country":"Turkey","contacts":[{"name":"Site 0410","role":"CONTACT"}],"geoPoint":{"lat":41.01384,"lon":28.94966}},{"facility":"Local Institution - 0364","status":"NOT_YET_RECRUITING","city":"Istanbul","zip":"34722","country":"Turkey","contacts":[{"name":"Site 0364","role":"CONTACT"}],"geoPoint":{"lat":41.01384,"lon":28.94966}},{"facility":"Local Institution - 0441","status":"NOT_YET_RECRUITING","city":"Exeter","state":"Devon","zip":"EX2 5DW","country":"United Kingdom","contacts":[{"name":"Site 0441","role":"CONTACT"}],"geoPoint":{"lat":50.7236,"lon":-3.52751}},{"facility":"Ninewells Hospital and Medical School","status":"RECRUITING","city":"Dundee","state":"Dundee City","zip":"DD1 9SY","country":"United Kingdom","contacts":[{"name":"Fay Tough, Site 0349","role":"CONTACT","phone":"07980301817"}],"geoPoint":{"lat":56.46913,"lon":-2.97489}},{"facility":"Forth Valley Royal Hospital","status":"RECRUITING","city":"Larbert","state":"Falkirk","zip":"FK5 4WR","country":"United Kingdom","contacts":[{"name":"Nicola Steele, Site 0271","role":"CONTACT","phone":"01413017118"}],"geoPoint":{"lat":56.02246,"lon":-3.82872}},{"facility":"Local Institution - 0189","status":"NOT_YET_RECRUITING","city":"Glasgow","state":"Glasgow City","zip":"g12OYN","country":"United Kingdom","contacts":[{"name":"Site 0189","role":"CONTACT"}],"geoPoint":{"lat":55.86515,"lon":-4.25763}},{"facility":"Local Institution - 0021","status":"WITHDRAWN","city":"London","state":"Kensington And Chelsea","zip":"SW3 6JJ","country":"United Kingdom","geoPoint":{"lat":51.50853,"lon":-0.12574}},{"facility":"St Bartholomew's Hospital","status":"RECRUITING","city":"London","state":"London, City Of","zip":"EC1A 7BE","country":"United Kingdom","contacts":[{"name":"Adam Januszewski, Site 0348","role":"CONTACT","phone":"447854094052"}],"geoPoint":{"lat":51.50853,"lon":-0.12574}},{"facility":"Local Institution - 0001","status":"NOT_YET_RECRUITING","city":"London","state":"London, City Of","zip":"SE1 9RT","country":"United Kingdom","contacts":[{"name":"Site 0001","role":"CONTACT"}],"geoPoint":{"lat":51.50853,"lon":-0.12574}},{"facility":"Local Institution - 0020","status":"WITHDRAWN","city":"Manchester","zip":"M20 4BX","country":"United Kingdom","geoPoint":{"lat":53.48095,"lon":-2.23743}},{"facility":"Local Institution - 0024","status":"WITHDRAWN","city":"Wirral","zip":"CH63 4JY","country":"United Kingdom","geoPoint":{"lat":53.37616,"lon":-3.10501}}]},"referencesModule":{"seeAlsoLinks":[{"label":"BMS Clinical Trial Information","url":"https://www.bms.com/researchers-and-partners/clinical-trials-and-research.html"},{"label":"BMS Clinical Trial Patient Recruiting","url":"https://www.bmsclinicaltrials.com/us/en/clinical-trials/NCT06561386.html"}]},"ipdSharingStatementModule":{"ipdSharing":"YES","description":"BMS will provide access to individual anonymized participant data upon request from qualified researchers, and subject to certain criteria. Additional information regarding Bristol Myer Squibb's data sharing policy and process can be found at: https://www.bms.com/researchers-and-partners/clinical-trials-and-research/disclosure-commitment.html","infoTypes":["STUDY_PROTOCOL","SAP","CSR"],"timeFrame":"See plan description","accessCriteria":"See plan description","url":"https://www.bms.com/researchers-and-partners/clinical-trials-and-research/disclosure-commitment.html"}},"derivedSection":{"miscInfoModule":{"versionHolder":"2025-07-07"},"conditionBrowseModule":{"meshes":[{"id":"D008175","term":"Lung Neoplasms"},{"id":"D002289","term":"Carcinoma, Non-Small-Cell Lung"}],"ancestors":[{"id":"D012142","term":"Respiratory Tract Neoplasms"},{"id":"D013899","term":"Thoracic Neoplasms"},{"id":"D009371","term":"Neoplasms by Site"},{"id":"D009369","term":"Neoplasms"},{"id":"D008171","term":"Lung Diseases"},{"id":"D012140","term":"Respiratory Tract Diseases"},{"id":"D002283","term":"Carcinoma, Bronchogenic"},{"id":"D001984","term":"Bronchial Neoplasms"}],"browseLeaves":[{"id":"M11172","name":"Lung Neoplasms","asFound":"Lung Cancer","relevance":"HIGH"},{"id":"M14850","name":"Recurrence","relevance":"LOW"},{"id":"M5546","name":"Carcinoma, Non-Small-Cell Lung","asFound":"Non-small Cell Lung Cancer","relevance":"HIGH"},{"id":"M5534","name":"Carcinoma","relevance":"LOW"},{"id":"M14979","name":"Respiratory Tract Neoplasms","relevance":"LOW"},{"id":"M16658","name":"Thoracic Neoplasms","relevance":"LOW"},{"id":"M11168","name":"Lung Diseases","relevance":"LOW"},{"id":"M14977","name":"Respiratory Tract Diseases","relevance":"LOW"},{"id":"M5540","name":"Carcinoma, Bronchogenic","relevance":"LOW"},{"id":"M5260","name":"Bronchial Neoplasms","relevance":"LOW"}],"browseBranches":[{"abbrev":"BC04","name":"Neoplasms"},{"abbrev":"BC08","name":"Respiratory Tract (Lung and Bronchial) Diseases"},{"abbrev":"All","name":"All Conditions"},{"abbrev":"BC23","name":"Symptoms and General Pathology"}]},"interventionBrowseModule":{"meshes":[{"id":"D016190","term":"Carboplatin"},{"id":"C582435","term":"Pembrolizumab"},{"id":"D000077594","term":"Nivolumab"},{"id":"D000068437","term":"Pemetrexed"},{"id":"C000721227","term":"Relatlimab"}],"ancestors":[{"id":"D000970","term":"Antineoplastic Agents"},{"id":"D000074322","term":"Antineoplastic Agents, Immunological"},{"id":"D000082082","term":"Immune Checkpoint Inhibitors"},{"id":"D045504","term":"Molecular Mechanisms of Pharmacological Action"},{"id":"D004791","term":"Enzyme Inhibitors"},{"id":"D005493","term":"Folic Acid Antagonists"},{"id":"D019384","term":"Nucleic Acid Synthesis Inhibitors"}],"browseLeaves":[{"id":"M18650","name":"Carboplatin","asFound":"Total","relevance":"HIGH"},{"id":"M1854","name":"Nivolumab","asFound":"Application","relevance":"HIGH"},{"id":"M264","name":"Pemetrexed","asFound":"Assigned","relevance":"HIGH"},{"id":"M6182","name":"Cisplatin","relevance":"LOW"},{"id":"M349416","name":"Pembrolizumab","asFound":"Type","relevance":"HIGH"},{"id":"M354150","name":"Relatlimab","asFound":"Hot pack","relevance":"HIGH"},{"id":"M1346","name":"Antineoplastic Agents, Immunological","relevance":"LOW"},{"id":"M2342","name":"Immune Checkpoint Inhibitors","relevance":"LOW"},{"id":"M7951","name":"Enzyme Inhibitors","relevance":"LOW"},{"id":"M8618","name":"Folic Acid","relevance":"LOW"},{"id":"M17546","name":"Vitamin B Complex","relevance":"LOW"},{"id":"M8619","name":"Folic Acid Antagonists","relevance":"LOW"},{"id":"T475","name":"Vitamin B9","relevance":"LOW"},{"id":"T446","name":"Folic Acid","relevance":"LOW"},{"id":"T447","name":"Folinic Acid","relevance":"LOW"},{"id":"T448","name":"Folate","relevance":"LOW"}],"browseBranches":[{"abbrev":"ANeo","name":"Antineoplastic Agents"},{"abbrev":"All","name":"All Drugs and Chemicals"},{"abbrev":"Micro","name":"Micronutrients"},{"abbrev":"Hemat","name":"Hematinics"},{"abbrev":"Vi","name":"Vitamins"}]}},"hasResults":false}