{"protocolSection":{"identificationModule":{"nctId":"NCT06282575","orgStudyIdInfo":{"id":"JZP598-302"},"secondaryIdInfos":[{"id":"2023-508219-21-00","type":"OTHER","domain":"CTIS"}],"organization":{"fullName":"Jazz Pharmaceuticals","class":"INDUSTRY"},"briefTitle":"Efficacy and Safety of Zanidatamab With Standard-of-care Therapy Against Standard-of-care Therapy for Advanced HER2-positive Biliary Tract Cancer","officialTitle":"An Open-label Randomized Trial of the Efficacy and Safety of Zanidatamab With Standard-of-care Therapy Against Standard-of-care Therapy Alone for Advanced HER2-positive Biliary Tract Cancer"},"statusModule":{"statusVerifiedDate":"2025-06","overallStatus":"RECRUITING","expandedAccessInfo":{"hasExpandedAccess":false},"startDateStruct":{"date":"2024-07-19","type":"ACTUAL"},"primaryCompletionDateStruct":{"date":"2028-12-01","type":"ESTIMATED"},"completionDateStruct":{"date":"2030-04-01","type":"ESTIMATED"},"studyFirstSubmitDate":"2024-02-21","studyFirstSubmitQcDate":"2024-02-21","studyFirstPostDateStruct":{"date":"2024-02-28","type":"ACTUAL"},"lastUpdateSubmitDate":"2025-06-20","lastUpdatePostDateStruct":{"date":"2025-06-24","type":"ACTUAL"}},"sponsorCollaboratorsModule":{"responsibleParty":{"type":"SPONSOR"},"leadSponsor":{"name":"Jazz Pharmaceuticals","class":"INDUSTRY"}},"oversightModule":{"isFdaRegulatedDrug":true,"isFdaRegulatedDevice":false},"descriptionModule":{"briefSummary":"The purpose of this study is to evaluate the efficacy and safety of Zanidatamab plus CisGem (Cisplatin and Gemcitabine) with or without the addition of a programmed death protein 1/ligand-1 (PD-1/L1) inhibitor (physician's choice of either Durvalumab or Pembrolizumab, where approved under local regulations) as first line of treatment for participants with human epidermal growth factor receptor 2 (HER2)-positive biliary tract cancer."},"conditionsModule":{"conditions":["Biliary Tract Cancer"],"keywords":["JZP598","ZW25","HER-2 positive BIliary Tract cancer","Gallbladder Cancer","Intrahepatic Cholangiocarcinoma (ICC)","Extrahepatic Cholangiocarcinoma (ECC)","Zanidatamab","HER-2 overexpression","HER-2 amplification"]},"designModule":{"studyType":"INTERVENTIONAL","phases":["PHASE3"],"designInfo":{"allocation":"RANDOMIZED","interventionModel":"PARALLEL","primaryPurpose":"TREATMENT","maskingInfo":{"masking":"NONE"}},"enrollmentInfo":{"count":286,"type":"ESTIMATED"}},"armsInterventionsModule":{"armGroups":[{"label":"Zanidatamab with Standard-of-care Therapy Arm","type":"EXPERIMENTAL","description":"Zanidatamab plus standard of care treatment of CisGem with or without a PD-1/L1 inhibitor. PD-1/L1 inhibitor will be physician's choice of either Durvalumab or Pembrolizumab, where approved under local regulations.","interventionNames":["Drug: Zanidatamab","Drug: Cisplatin","Drug: Gemcitabine","Drug: Pembrolizumab","Drug: Durvalumab"]},{"label":"Standard-of-care Therapy Arm","type":"ACTIVE_COMPARATOR","description":"Standard of care treatment of CisGem with or without a PD-1/L1 inhibitor. PD-1/L1 inhibitor will be physician's choice of either Durvalumab or Pembrolizumab, where approved under local regulations.","interventionNames":["Drug: Cisplatin","Drug: Gemcitabine","Drug: Pembrolizumab","Drug: Durvalumab"]}],"interventions":[{"type":"DRUG","name":"Zanidatamab","description":"Administered intravenously (IV)","armGroupLabels":["Zanidatamab with Standard-of-care Therapy Arm"],"otherNames":["ZW25","JZP598","ZIIHERA®"]},{"type":"DRUG","name":"Cisplatin","description":"Administered intravenously (IV)","armGroupLabels":["Standard-of-care Therapy Arm","Zanidatamab with Standard-of-care Therapy Arm"]},{"type":"DRUG","name":"Gemcitabine","description":"Administered intravenously (IV)","armGroupLabels":["Standard-of-care Therapy Arm","Zanidatamab with Standard-of-care Therapy Arm"]},{"type":"DRUG","name":"Pembrolizumab","description":"Administered intravenously (IV)","armGroupLabels":["Standard-of-care Therapy Arm","Zanidatamab with Standard-of-care Therapy Arm"]},{"type":"DRUG","name":"Durvalumab","description":"Administered intravenously (IV)","armGroupLabels":["Standard-of-care Therapy Arm","Zanidatamab with Standard-of-care Therapy Arm"]}]},"outcomesModule":{"primaryOutcomes":[{"measure":"Progression Free Survival (PFS) in participants with Immunohistochemistry (IHC) 3+ tumors","description":"PFS is defined as the time from the date of randomization to the date of documented disease progression, or death from any cause.","timeFrame":"Up to 52 months"}],"secondaryOutcomes":[{"measure":"Overall survival (OS) in participants with IHC 3+ tumors","description":"OS is defined as the time from randomization to death, due to any cause.","timeFrame":"Up to 68 months"},{"measure":"Progression Free Survival for all participants","description":"PFS is defined as the time from the date of randomization to the date of documented disease progression, or death from any cause.","timeFrame":"Up to 68 months"},{"measure":"OS for all participants","description":"OS is defined as the time from randomization to death, due to any cause.","timeFrame":"Up to 68 months"},{"measure":"Number of participants achieving Confirmed objective response rate (cORR)","description":"Confirmed objective response rate is defined as achieving a confirmed best overall response of Complete Response (CR) or Partial Response (PR)","timeFrame":"Up to 68 months"},{"measure":"Duration of response (DOR)","description":"Duration of response is defined as the time from the first objective response (CR or PR) to documented Progressive Disease (PD) or death, from any cause.","timeFrame":"Up to 68 months"},{"measure":"Number of Patients reporting Treatment-Emergent Adverse Events (TEAE)","timeFrame":"Up to 68 months"},{"measure":"Maximum serum concentration of Zanidatamab","timeFrame":"Up to 68 months"},{"measure":"Number of participants who develop Anti-drug antibodies (ADAs) to Zanidatamab","timeFrame":"Up to 68 months"},{"measure":"Time to definitive deterioration (TDD) for participants with IHC 3+ tumors in patient-reported Physical Functioning (PF) domain score as measured by the EORTC QLQ-C30","description":"TDD is defined as the time from randomization to the first confirmed clinical meaningful deterioration or death. European Organisation for Research and Treatment of Cancer (EORTC) Quality of Life Questionnaire - Core 30 (QLQ-C30) final scores range from 0 to 100, where higher scores reflect better functioning","timeFrame":"Up to 68 months"},{"measure":"TDD for all participants in patient-reported PF domain score as measured by the EORTC QLQ-C30","description":"TDD is defined as the time from randomization to the first confirmed clinical meaningful deterioration or death. EORTC QLQ-C30 final scores range from 0 to 100, where higher scores reflect better functioning.","timeFrame":"Up to 68 months"},{"measure":"TDD for participants with IHC 3+ tumors in patient-reported symptoms scores as measured by the EORTC QLQ-BIL21 (Pain, Jaundice, Abdominal Pain and Pruritis)","description":"TDD is defined as the time from randomization to the first confirmed clinical meaningful deterioration or death. EORTC Quality of Life Questionnaire - Cholangiocarcinoma and Gallbladder Cancer module (QLQ-BIL21) (Pain, Jaundice, Abdominal Pain, and Pruritis) final scores range from 0 to 100, where higher scores reflect better functioning.","timeFrame":"Up to 68 months"},{"measure":"TDD for all participants in patient-reported symptoms scores as measured by the EORTC QLQ-BIL21 (Pain, Jaundice, Abdominal Pain, and Pruritis)","description":"TDD is defined as the time from randomization to the first confirmed clinical meaningful deterioration or death. EORTC QLQ-BIL21 (Pain, Jaundice, Abdominal Pain, and Pruritis) final scores range from 0 to 100, where higher scores reflect better functioning.","timeFrame":"Up to 68 months"}]},"eligibilityModule":{"eligibilityCriteria":"Inclusion Criteria\n\n1. Histologically- or cytologically-confirmed Biliary Tract Cancer (BTC), including Gallbladder Cancer (GBC), Intrahepatic Cholangiocarcinoma (ICC), or Extrahepatic Cholangiocarcinoma (ECC).\n2. Locally advanced unresectable or metastatic BTC and not eligible for curative resection, transplantation, or ablative therapies.\n3. Received no more than 2 cycles of systemic therapy which is limited to Cisplatin and Gemcitabine (CisGem) with or without a PD-1/L1 inhibitor (physician's choice of durvalumab or pembrolizumab, where approved under local regulations) for advanced unresectable or metastatic disease.\n4. HER2-positive disease (defined as IHC 3+; or IHC 2+/ ISH+) by IHC and in situ Hybridization (ISH) assay (in participants with IHC 2+ tumors) at a central laboratory on new biopsy tissue or archival tissue from the most recent biopsy.\n5. Assessable (measurable or non-measurable) disease as defined by Response Evaluation Criteria in Solid Tumors Version 1.1 (RECIST 1.1), per investigator assessment.\n6. Male or female ≥ 18 years or age (or the legal age of adulthood per country-specific regulations).\n7. Eastern Cooperative Oncology Group (ECOG) performance status of 0 or 1.\n8. Adequate organ function\n9. Females of childbearing potential must have a negative pregnancy test result.\n10. Females of childbearing potential and males with a partner of childbearing potential must be willing to use 2 methods of birth control.\n\nExclusion Criteria\n\n1. Prior treatment with a HER2-targeted agent\n2. Prior treatment with checkpoint inhibitors, other than durvalumab or pembrolizumab\n3. The following BTC histologic subtypes are excluded: small cell cancer, neuroendocrine tumors, lymphoma, sarcoma, mixed tumor histology, and mucinous cystic neoplasms detected in the biliary tract region.\n4. Use of systemic corticosteroids.\n5. Brain metastases\n6. Severe chronic or active infections\n7. History of allogeneic organ transplantation.\n8. Active or prior autoimmune inflammatory conditions\n9. History of interstitial lung disease or non-infectious pneumonitis.\n10. Participation in another clinical trial with an investigational medicinal product within the last 3 months.\n11. Females who are breastfeeding\n12. Any other medical, social, or psychosocial factors that, in the opinion of the investigator, could impact safety or compliance with study procedures.\n13. Use of phenytoin","healthyVolunteers":false,"sex":"ALL","minimumAge":"18 Years","stdAges":["ADULT","OLDER_ADULT"]},"contactsLocationsModule":{"centralContacts":[{"name":"Clinical Trial Disclosure & Transparency","role":"CONTACT","phone":"215-832-3750","email":"ClinicalTrialDisclosure@JazzPharma.com"}],"locations":[{"facility":"Rocky Mountain Cancer Centers, LLP","status":"RECRUITING","city":"Lone Tree","state":"Colorado","zip":"80124","country":"United States","geoPoint":{"lat":39.55171,"lon":-104.8863}},{"facility":"AdventHealth Hematology and Oncology","status":"RECRUITING","city":"Orlando","state":"Florida","zip":"32804","country":"United States","geoPoint":{"lat":28.53834,"lon":-81.37924}},{"facility":"Winship Cancer Institute","status":"RECRUITING","city":"Atlanta","state":"Georgia","zip":"30322","country":"United States","geoPoint":{"lat":33.749,"lon":-84.38798}},{"facility":"The University of Kansas Cancer Center - Westwood","status":"RECRUITING","city":"Westwood","state":"Kansas","zip":"66205","country":"United States","geoPoint":{"lat":39.04056,"lon":-94.6169}},{"facility":"Norton Cancer Institute - Audubon","status":"RECRUITING","city":"Louisville","state":"Kentucky","zip":"40217","country":"United States","geoPoint":{"lat":38.25424,"lon":-85.75941}},{"facility":"Ochsner Clinic Foundation","status":"RECRUITING","city":"New Orleans","state":"Louisiana","zip":"70121","country":"United States","geoPoint":{"lat":29.95465,"lon":-90.07507}},{"facility":"Tufts Medical Center","status":"RECRUITING","city":"Boston","state":"Massachusetts","zip":"02111","country":"United States","geoPoint":{"lat":42.35843,"lon":-71.05977}},{"facility":"University of Michigan Hospital","status":"RECRUITING","city":"Ann Arbor","state":"Michigan","zip":"48109","country":"United States","geoPoint":{"lat":42.27756,"lon":-83.74088}},{"facility":"Henry Ford Health System","status":"RECRUITING","city":"Detroit","state":"Michigan","zip":"48202","country":"United States","geoPoint":{"lat":42.33143,"lon":-83.04575}},{"facility":"Minnesota Oncology Hematology, P.A.","status":"RECRUITING","city":"Maple Grove","state":"Minnesota","zip":"55369","country":"United States","geoPoint":{"lat":45.07246,"lon":-93.45579}},{"facility":"Atlantic Health System/Morristown Medical Center","status":"RECRUITING","city":"Morristown","state":"New Jersey","zip":"07960","country":"United States","geoPoint":{"lat":40.79677,"lon":-74.48154}},{"facility":"Laura and Isaac Perlmutter Cancer Center at NYU Langone - Ambulatory Care Center","status":"RECRUITING","city":"New York","state":"New York","zip":"10016","country":"United States","geoPoint":{"lat":40.71427,"lon":-74.00597}},{"facility":"Memorial Sloan Kettering Cancer Centers","status":"RECRUITING","city":"New York","state":"New York","zip":"10022","country":"United States","geoPoint":{"lat":40.71427,"lon":-74.00597}},{"facility":"Saint Francis Cancer Center","status":"RECRUITING","city":"Greenville","state":"South Carolina","zip":"29607","country":"United States","geoPoint":{"lat":34.85262,"lon":-82.39401}},{"facility":"SCRI Oncology Partners","status":"RECRUITING","city":"Nashville","state":"Tennessee","zip":"37203","country":"United States","geoPoint":{"lat":36.16589,"lon":-86.78444}},{"facility":"Texas Oncology - DFW","status":"RECRUITING","city":"Dallas","state":"Texas","zip":"75246","country":"United States","geoPoint":{"lat":32.78306,"lon":-96.80667}},{"facility":"University of Texas Southwestern Medical Center","status":"RECRUITING","city":"Dallas","state":"Texas","zip":"75390","country":"United States","geoPoint":{"lat":32.78306,"lon":-96.80667}},{"facility":"The Univerrsity of Texas MD Anderson Cancer Center","status":"RECRUITING","city":"Houston","state":"Texas","zip":"77030","country":"United States","geoPoint":{"lat":29.76328,"lon":-95.36327}},{"facility":"Virginia Commonwealth University, VCU Health","status":"RECRUITING","city":"Richmond","state":"Virginia","zip":"23219","country":"United States","geoPoint":{"lat":37.55376,"lon":-77.46026}},{"facility":"Hospital Italiano de Buenos Aires","status":"RECRUITING","city":"Ciudad Autónoma de Buenos Aires (CABA)","state":"Buenos Altes","zip":"C1199ABB","country":"Argentina","geoPoint":{"lat":-34.61315,"lon":-58.37723}},{"facility":"Fundación ARS Médica","status":"RECRUITING","city":"San Salvador De Jujuy","state":"Jujuy","zip":"4600","country":"Argentina","geoPoint":{"lat":-24.19457,"lon":-65.29712}},{"facility":"Centro de Investigaciónes Clínicas - Clínica Viedma","status":"RECRUITING","city":"Viedma","state":"Río Negro","zip":"R8500ACE","country":"Argentina","geoPoint":{"lat":-40.81345,"lon":-62.99668}},{"facility":"Hospital Provincial Del Centenario","status":"RECRUITING","city":"Rosario","state":"Santa Fe","zip":"2000","country":"Argentina","geoPoint":{"lat":-32.94682,"lon":-60.63932}},{"facility":"Instituto Médico de la Fundación Estudios Clínicos","status":"RECRUITING","city":"Rosario","state":"Santa Fe","zip":"S2013DTC","country":"Argentina","geoPoint":{"lat":-32.94682,"lon":-60.63932}},{"facility":"CAIPO Centro para la Atención Integral del Paciente Oncológico","status":"RECRUITING","city":"San Miguel De Tucumán","state":"Tucumán","zip":"4000","country":"Argentina","geoPoint":{"lat":-26.82414,"lon":-65.2226}},{"facility":"Centro Médico en Oncología Clínica EXELSUS S.R.L","status":"RECRUITING","city":"San Miguel De Tucumán","state":"Tucumán","zip":"4000","country":"Argentina","geoPoint":{"lat":-26.82414,"lon":-65.2226}},{"facility":"Centro Médico Privado CEMAIC","status":"RECRUITING","city":"Córdoba","zip":"X5008HHW","country":"Argentina","geoPoint":{"lat":-31.4135,"lon":-64.18105}},{"facility":"Imelda VZW","status":"RECRUITING","city":"Bonheiden","state":"Antwerpen","zip":"2820","country":"Belgium","geoPoint":{"lat":51.02261,"lon":4.54714}},{"facility":"UZ Antwerpen","status":"RECRUITING","city":"Edegem","state":"Antwerpen","zip":"2650","country":"Belgium","geoPoint":{"lat":51.15662,"lon":4.44504}},{"facility":"UZ Leuven","status":"RECRUITING","city":"Leuven","state":"Vlaams-Brabant","zip":"3000","country":"Belgium","geoPoint":{"lat":50.87959,"lon":4.70093}},{"facility":"Liga Norte Riograndense Contra O Cancer","status":"RECRUITING","city":"Natal","state":"Rio Grande Do Norte","zip":"59062-000","country":"Brazil","geoPoint":{"lat":-5.795,"lon":-35.20944}},{"facility":"Irmandade Da Santa Casa de Misericordia de Porto Alegre - ISCMPA","status":"RECRUITING","city":"Porto Alegrev","state":"Rio Grande Do Sul","zip":"90020-170","country":"Brazil"},{"facility":"Hospital de Clinicas de Porto Alegre - HCPA","status":"RECRUITING","city":"Porto Alegre","state":"Rio Grande Do Sul","zip":"90035-903","country":"Brazil","geoPoint":{"lat":-30.03306,"lon":-51.23}},{"facility":"Fundação Pio XII Hospital de Amor de Barretos","status":"RECRUITING","city":"Barretos","state":"São Paulo","zip":"14.784-400","country":"Brazil","geoPoint":{"lat":-20.55722,"lon":-48.56778}},{"facility":"Fundação Faculdade Regional de Medicina de São José do Rio Preto (FUNFARME)","status":"RECRUITING","city":"São José do Rio Preto","state":"São Paulo","zip":"15090-000","country":"Brazil","geoPoint":{"lat":-20.81972,"lon":-49.37944}},{"facility":"Hospital Nossa Senhora Da Conceição/Centro Integrado de Pesquisa em Oncologia CIPO-GHC","status":"RECRUITING","city":"Porto Alegre","zip":"91350-200","country":"Brazil","geoPoint":{"lat":-30.03306,"lon":-51.23}},{"facility":"Instituto Nacional de Cancer - INCA","status":"RECRUITING","city":"Rio de Janeiro","zip":"20230-130","country":"Brazil","geoPoint":{"lat":-22.90278,"lon":-43.2075}},{"facility":"London Health Sciences Centre","status":"RECRUITING","city":"LondonO","state":"Ontario","zip":"NGA 5W9","country":"Canada"},{"facility":"Princess Margaret Cancer Centre - University Health Network","status":"RECRUITING","city":"Toronto","state":"Ontario","zip":"M5G 2M9","country":"Canada","geoPoint":{"lat":43.70011,"lon":-79.4163}},{"facility":"James Lind Centro de Investigacion del Cancer","status":"RECRUITING","city":"Temuco","state":"Araucanía","zip":"4800827","country":"Chile","geoPoint":{"lat":-38.73965,"lon":-72.59842}},{"facility":"Servicios Médicos URUMED SpA","status":"RECRUITING","city":"Rancagua","state":"Libertador Gen Bernardo O Higgins","zip":"2820000","country":"Chile","geoPoint":{"lat":-34.17083,"lon":-70.74444}},{"facility":"Clinica Puerto Montt","status":"RECRUITING","city":"Puerto Montt","state":"Los Lagos","zip":"5507642","country":"Chile","geoPoint":{"lat":-41.46691,"lon":-72.94956}},{"facility":"Fundación Arturo López Pérez (FALP)","status":"RECRUITING","city":"Santiago","state":"Metropolitana","zip":"7500921","country":"Chile","geoPoint":{"lat":-33.45694,"lon":-70.64827}},{"facility":"Oncovida","status":"RECRUITING","city":"Santiago","state":"Metropolitana","zip":"7500994","country":"Chile","geoPoint":{"lat":-33.45694,"lon":-70.64827}},{"facility":"Hospital Clinico Universidad de Chile","status":"RECRUITING","city":"Santiago","state":"Region Metropolitana","zip":"8380494","country":"Chile","geoPoint":{"lat":-33.45694,"lon":-70.64827}},{"facility":"Centro de Investigacion y Especialidades Medicas (CDIEM)","status":"RECRUITING","city":"Santiago","state":"Región-Metropolitana","zip":"7500859","country":"Chile","geoPoint":{"lat":-33.45694,"lon":-70.64827}},{"facility":"Biocinetic Ltda","status":"RECRUITING","city":"Santiago","state":"Región-Metropolitana","zip":"8320000","country":"Chile","geoPoint":{"lat":-33.45694,"lon":-70.64827}},{"facility":"Fakultní nemocnice Brno, Interní hematologická a onkologická klinika","status":"RECRUITING","city":"Brno","zip":"625 00","country":"Czechia","geoPoint":{"lat":49.19522,"lon":16.60796}},{"facility":"Fakultni nemocnice Hradec Kralove, Klinika onkologie a radioterapie","status":"RECRUITING","city":"Hradec Kralove","zip":"50005","country":"Czechia","geoPoint":{"lat":50.20923,"lon":15.83277}},{"facility":"Fakultni nemocnice v Motole, Onkologicka klinika","status":"RECRUITING","city":"Praha 5","zip":"150 00","country":"Czechia","geoPoint":{"lat":50.08804,"lon":14.42076}},{"facility":"Docrates Cancer Center","status":"RECRUITING","city":"Helsinki","zip":"180","country":"Finland","geoPoint":{"lat":60.16952,"lon":24.93545}},{"facility":"Comprehensive Cancer Center, Helsinki University Hospital","status":"RECRUITING","city":"Helsinki","zip":"290","country":"Finland","geoPoint":{"lat":60.16952,"lon":24.93545}},{"facility":"Kuopio University Hospital","status":"RECRUITING","city":"Kuopio","zip":"70029","country":"Finland","geoPoint":{"lat":62.89238,"lon":27.67703}},{"facility":"CHU de Toulouse- (Toulouse University Hospital Center)","status":"RECRUITING","city":"Toulouse","state":"Cedex 9","zip":"31059","country":"France","geoPoint":{"lat":43.60426,"lon":1.44367}},{"facility":"CHU Besancon","status":"RECRUITING","city":"Besançon","state":"Cedex","zip":"25030","country":"France","geoPoint":{"lat":47.24878,"lon":6.01815}},{"facility":"CHU de Bordeaux - Hôpital Haut Leveque","status":"RECRUITING","city":"Pessac","state":"Cedex","zip":"33604","country":"France","geoPoint":{"lat":44.81011,"lon":-0.64129}},{"facility":"CHU Brest Hôpital de la Cavale Blanche","status":"RECRUITING","city":"Brest","zip":"29200","country":"France","geoPoint":{"lat":48.3903,"lon":-4.48628}},{"facility":"CHU Estaing","status":"RECRUITING","city":"Clermont-Ferrand","zip":"63100","country":"France","geoPoint":{"lat":45.77966,"lon":3.08628}},{"facility":"Hospital Beaujon University","status":"RECRUITING","city":"Clichy","zip":"92110","country":"France","geoPoint":{"lat":48.90018,"lon":2.30952}},{"facility":"Hopital Henri Mondor","status":"RECRUITING","city":"Créteil","zip":"94010","country":"France","geoPoint":{"lat":48.78333,"lon":2.46667}},{"facility":"CHU Montepellier - Hôpital Saint Eloi","status":"RECRUITING","city":"Montpellier","zip":"34000","country":"France","geoPoint":{"lat":43.61092,"lon":3.87723}},{"facility":"CHU Poitiers","status":"RECRUITING","city":"Poitiers","zip":"86000","country":"France","geoPoint":{"lat":46.58333,"lon":0.33333}},{"facility":"Institut de Cancérologie de l'Ouest","status":"RECRUITING","city":"Saint-Herblain Cedex","zip":"44805","country":"France","geoPoint":{"lat":47.21765,"lon":-1.64841}},{"facility":"Gustave Roussy","status":"RECRUITING","city":"Villejuif Cedex","zip":"94805","country":"France","geoPoint":{"lat":48.7939,"lon":2.35992}},{"facility":"Universitätsklinikum Tübingen - Medizinische Universitätsklinik, Innere Medizin I","status":"RECRUITING","city":"Tuebingen","state":"Baden-Wuttemberg","zip":"72076","country":"Germany","geoPoint":{"lat":48.52266,"lon":9.05222}},{"facility":"Universitätsklinikum Freiburg - Klinik für Innere Medizin II,","status":"RECRUITING","city":"Freiburg","state":"Baden-Württemberg","zip":"79106","country":"Germany","geoPoint":{"lat":47.9959,"lon":7.85222}},{"facility":"Nationales Centrum für Tumorerkrankungen (NCT) Heidelberg","status":"RECRUITING","city":"Heidelberg","state":"Baden-Württemberg","zip":"69120","country":"Germany","geoPoint":{"lat":49.40768,"lon":8.69079}},{"facility":"LMU Universitätsklinikum München, Campus Großhadern, Medizinische Klinik und Poliklinik III - Hämatologie und Onkologie","status":"RECRUITING","city":"München","state":"Bayern","zip":"81377","country":"Germany","geoPoint":{"lat":48.13743,"lon":11.57549}},{"facility":"Krankenhaus Nordwest - Institut für Klinisch-Onkologische Forschung (IFK)","status":"RECRUITING","city":"Frankfurt","state":"Hessen","zip":"60488","country":"Germany","geoPoint":{"lat":50.11552,"lon":8.68417}},{"facility":"Medizinische Hochschule Hannover - Klinik Fur Gastroenterologie, Hepatologie, Infektiologie und Endokrinologie","status":"RECRUITING","city":"Hannover","state":"Nieder-Sachsen","zip":"30625","country":"Germany","geoPoint":{"lat":52.37052,"lon":9.73322}},{"facility":"Technische Universität Dresden Medizinische Fakultät Carl Gustav Carus","status":"RECRUITING","city":"Dresden","state":"Sachsen","zip":"01307","country":"Germany","geoPoint":{"lat":51.05089,"lon":13.73832}},{"facility":"Universitätsklinikum Schleswig-Holstein - Campus Lübeck, Medizinische Klinik I (MKI)","status":"RECRUITING","city":"Lubeck","state":"Schleswig-Holstein","zip":"23562","country":"Germany","geoPoint":{"lat":53.86893,"lon":10.68729}},{"facility":"Charité - Universitätsmedizin Berlin - Campus Virchow Klinikum, Medizinische Klinik mit Schwerpunkt Hamatologie und Tumorimmunologie","status":"RECRUITING","city":"Berlin","zip":"13353","country":"Germany","geoPoint":{"lat":52.52437,"lon":13.41053}},{"facility":"Asklepios Tumorzentrum Hamburg, Asklepios Klinik Altona - Onkologie und Palliativmedizin mit Sektionen Hamatologie und Rheumatologie","status":"RECRUITING","city":"Hamburg","zip":"22763","country":"Germany","geoPoint":{"lat":53.57532,"lon":10.01534}},{"facility":"KLES Dr Prabhakar Kore Hospital and Medical Research Centre","status":"RECRUITING","city":"Belagavi","state":"Karnataka","zip":"590010","country":"India"},{"facility":"Tata Memorial Hospital","status":"RECRUITING","city":"Mumbai","state":"Maharashtra","zip":"4000012","country":"India","geoPoint":{"lat":19.07283,"lon":72.88261}},{"facility":"Chopda Medicare & Research Centre Pvt. Ltd - Magnum Heart Institute","status":"RECRUITING","city":"Nashik","state":"Maharashtra","zip":"422005","country":"India","geoPoint":{"lat":19.99727,"lon":73.79096}},{"facility":"AIG Hospitals (A Unit of Asian Institute of Gastroenterology)","status":"RECRUITING","city":"Hyderabad","state":"Telangana","zip":"500032","country":"India","geoPoint":{"lat":17.38405,"lon":78.45636}},{"facility":"Pi Health Cancer Hospital","status":"RECRUITING","city":"Hyderabad","state":"Telangana","zip":"500032","country":"India","geoPoint":{"lat":17.38405,"lon":78.45636}},{"facility":"Mahamana Pandit Madan Mohan Malviya Cancer Centre","status":"RECRUITING","city":"Varanasi","state":"Uttar Pradesh","zip":"221005","country":"India","geoPoint":{"lat":25.31668,"lon":83.01041}},{"facility":"Max Super Speciality Hospital - Saket (a unit of Devki Devi foundation)","status":"RECRUITING","city":"New Delhi","zip":"110017","country":"India","geoPoint":{"lat":28.63576,"lon":77.22445}},{"facility":"Rajiv Gandhi Cancer Institute And Research Centre","status":"RECRUITING","city":"New Delhi","zip":"110085","country":"India","geoPoint":{"lat":28.63576,"lon":77.22445}},{"facility":"Rambam Health Care Campus","status":"RECRUITING","city":"Haifa","zip":"3109601","country":"Israel","geoPoint":{"lat":32.81841,"lon":34.9885}},{"facility":"The Hadassah University Medical Center, Ein Kerem Hospital","status":"RECRUITING","city":"Jerusalem","zip":"91120","country":"Israel","geoPoint":{"lat":31.76904,"lon":35.21633}},{"facility":"Rabin Medical Center, Bellinson Hospital","status":"RECRUITING","city":"Petah-Tikva","zip":"49100","country":"Israel","geoPoint":{"lat":32.08707,"lon":34.88747}},{"facility":"The Chaim Sheba Medical Center, Tel Hashomer","status":"RECRUITING","city":"Ramat Gan, HaMerkaz","zip":"5265601","country":"Israel"},{"facility":"Tel Aviv Sourasky Medical Center (Ichilov)","status":"RECRUITING","city":"Tel Aviv","zip":"6423906","country":"Israel","geoPoint":{"lat":32.08088,"lon":34.78057}},{"facility":"Azienda Ospedaliero Universitaria di Cagliari Presidio Ospedaliero Duilio Casula","status":"RECRUITING","city":"Monserrato","state":"Cagliari","zip":"9042","country":"Italy","geoPoint":{"lat":39.25642,"lon":9.1444}},{"facility":"Instituo di Candiolo, Fondazione del Piemonte per l'Oncologia (IRCCS)","status":"RECRUITING","city":"Candiolo","state":"Torino","zip":"10060","country":"Italy","geoPoint":{"lat":44.95858,"lon":7.59812}},{"facility":"IRCCS Ospedale Policlinico San Martino","status":"RECRUITING","city":"Genova","zip":"16132","country":"Italy","geoPoint":{"lat":44.40478,"lon":8.94438}},{"facility":"Fondazione IRCCS Istituto Nazionale per lo studio e la cura dei Tumori","status":"RECRUITING","city":"Milano","zip":"20133","country":"Italy","geoPoint":{"lat":45.46427,"lon":9.18951}},{"facility":"AOU dell'Universit~ degli Studi della Campania Luigi Vanvitelli","status":"RECRUITING","city":"Napoli","zip":"80131","country":"Italy","geoPoint":{"lat":40.85216,"lon":14.26811}},{"facility":"Veneto Institute of Oncology IOV - I.R.C.C.S.","status":"RECRUITING","city":"Padova","zip":"35128","country":"Italy","geoPoint":{"lat":45.40797,"lon":11.88586}},{"facility":"Azienda Ospedaliero - Universitaria Pisana","status":"RECRUITING","city":"Pisa","zip":"56126","country":"Italy","geoPoint":{"lat":43.70853,"lon":10.4036}},{"facility":"Istituto Clinico Humanitas","status":"RECRUITING","city":"Rozzano","zip":"20089","country":"Italy","geoPoint":{"lat":45.38193,"lon":9.1559}},{"facility":"Azienda Sanitaria Universitaria Friuli Centrale - P.O. S. Maria della Misericordia","status":"RECRUITING","city":"Udine","zip":"33100","country":"Italy","geoPoint":{"lat":46.0693,"lon":13.23715}},{"facility":"Azienda Ospedaliera Universitaria Integrata Verona","status":"RECRUITING","city":"Verona","zip":"37134","country":"Italy","geoPoint":{"lat":45.4299,"lon":10.98444}},{"facility":"Aichi Cancer Center","status":"RECRUITING","city":"Nagoya-shi","state":"Aichi","zip":"464-8681","country":"Japan","geoPoint":{"lat":35.18147,"lon":136.90641}},{"facility":"Chiba Cancer Center","status":"RECRUITING","city":"Chiba-shi","state":"Chiba","zip":"260-8717","country":"Japan","geoPoint":{"lat":35.6,"lon":140.11667}},{"facility":"National Cancer Center Hospital East","status":"RECRUITING","city":"Kashiwa","state":"Chiba","zip":"277-8577","country":"Japan","geoPoint":{"lat":35.86224,"lon":139.97732}},{"facility":"National Hospital Organization Shikoku Cancer Center","status":"RECRUITING","city":"Matsuyama-Shi","state":"Ehime","zip":"791-0280","country":"Japan","geoPoint":{"lat":33.83916,"lon":132.76574}},{"facility":"National Hospital Organization Kyushu Cancer Center","status":"RECRUITING","city":"Fukuoka-shi","state":"Fukuoka","zip":"811-1395","country":"Japan","geoPoint":{"lat":33.6,"lon":130.41667}},{"facility":"Hokkaido University Hospital","status":"RECRUITING","city":"Sapporo-Shi","state":"Hokkaidô","zip":"060-8648","country":"Japan","geoPoint":{"lat":43.06667,"lon":141.35}},{"facility":"Kanazawa University Hospital","status":"RECRUITING","city":"Kanazawa-shi","state":"Isikawa","zip":"9208641","country":"Japan","geoPoint":{"lat":36.6,"lon":136.61667}},{"facility":"Kagoshima University Hospital","status":"RECRUITING","city":"Kagoshima-shi","state":"Kagoshima","zip":"890-8520","country":"Japan","geoPoint":{"lat":31.56667,"lon":130.55}},{"facility":"Kanagawa Cancer Center","status":"RECRUITING","city":"Yokohama-shi","state":"Kanagawa","zip":"241-8515","country":"Japan","geoPoint":{"lat":35.43333,"lon":139.65}},{"facility":"Kyoto University Hospital","status":"RECRUITING","city":"Kyoto City","state":"Kyôto","zip":"606-8507","country":"Japan","geoPoint":{"lat":35.02107,"lon":135.75385}},{"facility":"Mie University Hospital","status":"RECRUITING","city":"Tsu-Shi","state":"Mie","zip":"514-8507","country":"Japan","geoPoint":{"lat":34.73333,"lon":136.51667}},{"facility":"Tohoku University Hospital","status":"RECRUITING","city":"Sendai-Shi","state":"Miyagi","zip":"980-8574","country":"Japan","geoPoint":{"lat":38.26667,"lon":140.86667}},{"facility":"Niigata University Medical and Dental Hospital","status":"RECRUITING","city":"Niigata-shi","state":"Niigata","zip":"951-8520","country":"Japan","geoPoint":{"lat":37.88637,"lon":139.00589}},{"facility":"Osaka Prefectural Hospital Organization Osaka International Cancer Institute","status":"RECRUITING","city":"Osaka-shi","state":"Osaka","zip":"541-8567","country":"Japan","geoPoint":{"lat":34.69374,"lon":135.50218}},{"facility":"The University of Tokyo Hospital","status":"RECRUITING","city":"Bunkyo-ku","state":"Tokyo","zip":"113-8655","country":"Japan","geoPoint":{"lat":35.37517,"lon":139.92991}},{"facility":"National Cancer Center Hospital","status":"RECRUITING","city":"Chuo-Ku","state":"Tokyo","zip":"104-0045","country":"Japan","geoPoint":{"lat":35.57779,"lon":139.71685}},{"facility":"The Cancer Institute Hospital of Japanese Foundation For Cancer Research","status":"RECRUITING","city":"Koto-Ku","state":"Tokyo","zip":"135-8550","country":"Japan","geoPoint":{"lat":35.66667,"lon":139.81718}},{"facility":"Kyorin University Hospital","status":"RECRUITING","city":"Mitaka-shi","state":"Tokyo","zip":"181-8611","country":"Japan","geoPoint":{"lat":35.68351,"lon":139.55963}},{"facility":"Yamaguchi University Hospital","status":"RECRUITING","city":"Ube-Shi","state":"Yamaguchi","zip":"755-8505","country":"Japan","geoPoint":{"lat":33.94306,"lon":131.25111}},{"facility":"Osaka University Hospital","status":"RECRUITING","city":"Suita-Shi","state":"Ôsaka","zip":"565-0871","country":"Japan","geoPoint":{"lat":34.76143,"lon":135.51567}},{"facility":"CHA Bundang Medical Center, CHA University","status":"RECRUITING","city":"Bundang-Gu, Seongnam-Si","state":"Gyeonggi-do","zip":"13496","country":"Korea, Republic of"},{"facility":"National Cancer Center","status":"RECRUITING","city":"Ilsandong-gu, Goyang-si","state":"Gyeonggi-do","zip":"10408","country":"Korea, Republic of"},{"facility":"Seoul National University Bundang Hospital","status":"RECRUITING","city":"Seongnam-si","state":"Gyeonggi-do","zip":"13620","country":"Korea, Republic of","geoPoint":{"lat":37.43861,"lon":127.13778}},{"facility":"Pusan National University Hospital","status":"RECRUITING","city":"Busan","zip":"49241","country":"Korea, Republic of","geoPoint":{"lat":35.10278,"lon":129.04028}},{"facility":"Korea University Anam Hospital","status":"RECRUITING","city":"Seoul","zip":"2841","country":"Korea, Republic of","geoPoint":{"lat":37.566,"lon":126.9784}},{"facility":"Seoul National University Hospital","status":"RECRUITING","city":"Seoul","zip":"3080","country":"Korea, Republic of","geoPoint":{"lat":37.566,"lon":126.9784}},{"facility":"Severance Hospital, Yonsei University Health System","status":"RECRUITING","city":"Seoul","zip":"3722","country":"Korea, Republic of","geoPoint":{"lat":37.566,"lon":126.9784}},{"facility":"Hanyang University Seoul Hospital","status":"WITHDRAWN","city":"Seoul","zip":"4763","country":"Korea, Republic of","geoPoint":{"lat":37.566,"lon":126.9784}},{"facility":"Asan Medical Center","status":"RECRUITING","city":"Seoul","zip":"5505","country":"Korea, Republic of","geoPoint":{"lat":37.566,"lon":126.9784}},{"facility":"Samsung Medical Center","status":"RECRUITING","city":"Seoul","zip":"6351","country":"Korea, Republic of","geoPoint":{"lat":37.566,"lon":126.9784}},{"facility":"Korea University Guro Hospital","status":"RECRUITING","city":"Seoul","zip":"8308","country":"Korea, Republic of","geoPoint":{"lat":37.566,"lon":126.9784}},{"facility":"Unidade Local de Saude de Almada-Seixal, E.P.E. - Hospital Garcia de Orta","status":"RECRUITING","city":"Almada","zip":"2805-267","country":"Portugal","geoPoint":{"lat":38.67902,"lon":-9.1569}},{"facility":"Unidade Local de Saude de Coimbra, EPE - Hospitais da Universidade de Coimbra","status":"RECRUITING","city":"Coimbra","zip":"3004-561","country":"Portugal","geoPoint":{"lat":40.20564,"lon":-8.41955}},{"facility":"Unidade Local de Saúde de São José - Hospital de Santo António dos Capuchos","status":"RECRUITING","city":"Lisboa","zip":"1150-314","country":"Portugal","geoPoint":{"lat":38.71667,"lon":-9.13333}},{"facility":"Champalimaud Clinical Center","status":"RECRUITING","city":"Lisboa","zip":"1400-038","country":"Portugal","geoPoint":{"lat":38.71667,"lon":-9.13333}},{"facility":"Instituto Português de Oncologia Do Porto Francisco Gentil, EPE","status":"RECRUITING","city":"Porto","zip":"4200-072","country":"Portugal","geoPoint":{"lat":41.14961,"lon":-8.61099}},{"facility":"Hospital Oncologico, Puerto Rico Medical Center","status":"RECRUITING","city":"Rio Piedras","zip":"935","country":"Puerto Rico","geoPoint":{"lat":18.39745,"lon":-66.04989}},{"facility":"Spital Clinic Judetean de Urgenta Bihor","status":"RECRUITING","city":"Oradea","state":"Bihor","zip":"410169","country":"Romania","geoPoint":{"lat":47.0458,"lon":21.91833}},{"facility":"Centrul De Oncologie \"SF. Nectarie\" S.R.L.","status":"RECRUITING","city":"Craiova","state":"Dolj","zip":"200542","country":"Romania","geoPoint":{"lat":44.31667,"lon":23.8}},{"facility":"Institutul Clinic Fundeni","status":"RECRUITING","city":"Bucharest","zip":"22328","country":"Romania","geoPoint":{"lat":44.43225,"lon":26.10626}},{"facility":"Centrul de Oncologie Euroclinic SRL","status":"RECRUITING","city":"Iasi","zip":"700106","country":"Romania","geoPoint":{"lat":47.16667,"lon":27.6}},{"facility":"University Clinical Center of Serbia, Clinic for Gastroenterohepatology","status":"RECRUITING","city":"Belgrade","zip":"11000","country":"Serbia","geoPoint":{"lat":44.80401,"lon":20.46513}},{"facility":"Military Medical Academy, Clinic for Gastroenterology and Hepatology","status":"RECRUITING","city":"Belgrade","zip":"11040","country":"Serbia","geoPoint":{"lat":44.80401,"lon":20.46513}},{"facility":"Oncology Institute of Vojvodina, Internal Oncology Clinic","status":"RECRUITING","city":"Sremska Kamenica","zip":"21204","country":"Serbia","geoPoint":{"lat":45.22158,"lon":19.84367}},{"facility":"Complejo Hospitalario Universitario de Santiago -Hospital Clinico Universitario de Santiago","status":"RECRUITING","city":"Santiago de Compostela","state":"A Coruna","zip":"15706","country":"Spain","geoPoint":{"lat":42.88052,"lon":-8.54569}},{"facility":"Vall d'Hebron Institute of Oncology/Hospital Universitari de Vall d'Hebron","status":"RECRUITING","city":"Barcelona","zip":"8035","country":"Spain","geoPoint":{"lat":41.38879,"lon":2.15899}},{"facility":"Hospital Universitario Reina Sofia","status":"RECRUITING","city":"Cordoba","zip":"14004","country":"Spain","geoPoint":{"lat":37.89155,"lon":-4.77275}},{"facility":"Hospital Universitario Fundacion Jimenez Diaz","status":"RECRUITING","city":"Madrid","zip":"28040","country":"Spain","geoPoint":{"lat":40.4165,"lon":-3.70256}},{"facility":"Hospital Universitario 12 de Octubre","status":"RECRUITING","city":"Madrid","zip":"28041","country":"Spain","geoPoint":{"lat":40.4165,"lon":-3.70256}},{"facility":"Hospital Universitario La Paz","status":"RECRUITING","city":"Madrid","zip":"28048","country":"Spain","geoPoint":{"lat":40.4165,"lon":-3.70256}},{"facility":"Hospital Regional Universitario de Malaga","status":"RECRUITING","city":"Malaga","zip":"29010","country":"Spain","geoPoint":{"lat":36.72016,"lon":-4.42034}},{"facility":"Clinica Universidad de Navarra","status":"RECRUITING","city":"Pamplona","zip":"31008","country":"Spain","geoPoint":{"lat":42.81687,"lon":-1.64323}},{"facility":"Hospital Universitario Virgen Macarena","status":"RECRUITING","city":"Sevilla","zip":"41009","country":"Spain","geoPoint":{"lat":37.38283,"lon":-5.97317}},{"facility":"Hospital Universitario y Politecnico La Fe","status":"RECRUITING","city":"Valencia","zip":"46026","country":"Spain","geoPoint":{"lat":39.46975,"lon":-0.37739}},{"facility":"Hospital Universitario Miguel Servet","status":"RECRUITING","city":"Zaragoza","zip":"50009","country":"Spain","geoPoint":{"lat":41.65606,"lon":-0.87734}},{"facility":"Onkologiska mottagningen, Sahlgrenska Universitetssjukhuset","status":"RECRUITING","city":"Göteborg","zip":"413 45","country":"Sweden","geoPoint":{"lat":57.70716,"lon":11.96679}},{"facility":"Cancerstudieenheten Huddinge, Karolinska Universitetssjukhuset Huddinge","status":"RECRUITING","city":"Huddinge","zip":"14186","country":"Sweden","geoPoint":{"lat":59.23705,"lon":17.98192}},{"facility":"Onkologiska mottagningen, Skånes Universitetssjukhus Malmö","status":"RECRUITING","city":"Malmö","zip":"205 02","country":"Sweden","geoPoint":{"lat":55.60587,"lon":13.00073}},{"facility":"Kaohsiung Medical University - Chung-Ho Memorial Hospital","status":"RECRUITING","city":"Kaohsiung","zip":"807","country":"Taiwan","geoPoint":{"lat":22.61626,"lon":120.31333}},{"facility":"Chang Gung Memorial Hospital Kaohsiung Branch of the Chang Gung Medical Foundation","status":"RECRUITING","city":"Kaohsiung","zip":"833","country":"Taiwan","geoPoint":{"lat":22.61626,"lon":120.31333}},{"facility":"National Cheng Kung University Hospital","status":"RECRUITING","city":"Tainan","zip":"704","country":"Taiwan","geoPoint":{"lat":22.99083,"lon":120.21333}},{"facility":"National Taiwan University Cancer Center","status":"RECRUITING","city":"Taipei","zip":"106","country":"Taiwan","geoPoint":{"lat":25.04776,"lon":121.53185}},{"facility":"Chang Gung Memorial Hospital Linkou Branch of the Chang Gung Medical Foundation","status":"RECRUITING","city":"Taoyuan","zip":"333","country":"Taiwan","geoPoint":{"lat":24.95233,"lon":121.20193}},{"facility":"Istanbul University Cerrahpasa Medical Faculty Hospital/Clinical Research Center","status":"RECRUITING","city":"Istanbul","state":"Fatih","zip":"34096","country":"Turkey","geoPoint":{"lat":41.01384,"lon":28.94966}},{"facility":"Hacettepe University Cancer Institute","status":"RECRUITING","city":"Ankara","state":"Sihhiye","zip":"06230","country":"Turkey","geoPoint":{"lat":39.91987,"lon":32.85427}},{"facility":"Akdeniz University Medical Faculty Hospital","status":"RECRUITING","city":"Antalya","zip":"07070","country":"Turkey","geoPoint":{"lat":36.90812,"lon":30.69556}},{"facility":"Trakya University Faculty of Medicine","status":"RECRUITING","city":"Edirne","zip":"22030","country":"Turkey","geoPoint":{"lat":41.67719,"lon":26.55597}},{"facility":"Mount Vernon Cancer Centre","status":"RECRUITING","city":"London","state":"England","zip":"HA 6 2RN","country":"United Kingdom","geoPoint":{"lat":51.50853,"lon":-0.12574}},{"facility":"NHS Foundation Trust Royal Marsden Hospital","status":"RECRUITING","city":"London","state":"England","zip":"SW3 6JJ","country":"United Kingdom","geoPoint":{"lat":51.50853,"lon":-0.12574}},{"facility":"The Christie NHS Foundation Trust","status":"RECRUITING","city":"Manchester","state":"England","zip":"M20 4BX","country":"United Kingdom","geoPoint":{"lat":53.48095,"lon":-2.23743}},{"facility":"Royal Marsden Hospital NHS Foundation Trust","status":"RECRUITING","city":"Surrey","state":"England","zip":"SM2 5PT","country":"United Kingdom"},{"facility":"Western General Hospital, Edinburgh Cancer Centre","status":"RECRUITING","city":"Edinburgh","state":"Scotland","zip":"EH4 2XU","country":"United Kingdom","geoPoint":{"lat":55.95206,"lon":-3.19648}}]},"ipdSharingStatementModule":{"ipdSharing":"NO"}},"derivedSection":{"miscInfoModule":{"versionHolder":"2025-07-07"},"conditionBrowseModule":{"meshes":[{"id":"D001661","term":"Biliary Tract Neoplasms"}],"ancestors":[{"id":"D004067","term":"Digestive System Neoplasms"},{"id":"D009371","term":"Neoplasms by Site"},{"id":"D009369","term":"Neoplasms"},{"id":"D001660","term":"Biliary Tract Diseases"},{"id":"D004066","term":"Digestive System Diseases"}],"browseLeaves":[{"id":"M20426","name":"Cholangiocarcinoma","relevance":"LOW"},{"id":"M4947","name":"Biliary Tract Neoplasms","asFound":"Biliary Tract Cancer","relevance":"HIGH"},{"id":"M8886","name":"Gastrointestinal Neoplasms","relevance":"LOW"},{"id":"M7256","name":"Digestive System Neoplasms","relevance":"LOW"},{"id":"M4946","name":"Biliary Tract Diseases","relevance":"LOW"},{"id":"M7255","name":"Digestive System Diseases","relevance":"LOW"},{"id":"M8883","name":"Gastrointestinal Diseases","relevance":"LOW"},{"id":"T755","name":"Bile Duct Cancer","relevance":"LOW"},{"id":"T3096","name":"Intrahepatic Cholangiocarcinoma","relevance":"LOW"},{"id":"T761","name":"Biliary Tract Cancer","asFound":"Biliary Tract Cancer","relevance":"HIGH"},{"id":"T2425","name":"Gallbladder Cancer","relevance":"LOW"}],"browseBranches":[{"abbrev":"BC04","name":"Neoplasms"},{"abbrev":"All","name":"All Conditions"},{"abbrev":"BC06","name":"Digestive System Diseases"},{"abbrev":"Rare","name":"Rare Diseases"}]},"interventionBrowseModule":{"meshes":[{"id":"D000093542","term":"Gemcitabine"},{"id":"C582435","term":"Pembrolizumab"},{"id":"C000613593","term":"Durvalumab"}],"ancestors":[{"id":"D000970","term":"Antineoplastic Agents"},{"id":"D000964","term":"Antimetabolites, Antineoplastic"},{"id":"D000963","term":"Antimetabolites"},{"id":"D045504","term":"Molecular Mechanisms of Pharmacological Action"},{"id":"D000074322","term":"Antineoplastic Agents, Immunological"},{"id":"D000082082","term":"Immune Checkpoint Inhibitors"}],"browseLeaves":[{"id":"M2985","name":"Gemcitabine","asFound":"Vaccine","relevance":"HIGH"},{"id":"M6182","name":"Cisplatin","relevance":"LOW"},{"id":"M349416","name":"Pembrolizumab","asFound":"Type","relevance":"HIGH"},{"id":"M272500","name":"Durvalumab","asFound":"Extension","relevance":"HIGH"},{"id":"M4281","name":"Antimetabolites","relevance":"LOW"},{"id":"M1346","name":"Antineoplastic Agents, Immunological","relevance":"LOW"},{"id":"M2342","name":"Immune Checkpoint Inhibitors","relevance":"LOW"}],"browseBranches":[{"abbrev":"ANeo","name":"Antineoplastic Agents"},{"abbrev":"All","name":"All Drugs and Chemicals"}]}},"hasResults":false}