{"protocolSection":{"identificationModule":{"nctId":"NCT06129864","orgStudyIdInfo":{"id":"D798EC00001"},"organization":{"fullName":"AstraZeneca","class":"INDUSTRY"},"briefTitle":"A Global Study of Volrustomig (MEDI5752) for Participants With Unresected Locally Advanced Head and Neck Squamous Cell Carcinoma Following Definitive Concurrent Chemoradiotherapy","officialTitle":"A Phase III, Randomized, Open-Label, Multi-Center, Global Study of Volrustomig (MEDI5752) as Sequential Therapy Versus Observation in Participants With Unresected Locally Advanced Head and Neck Squamous Cell Carcinoma, Who Have Not Progressed Following Definitive Concurrent Chemoradiotherapy (eVOLVE-HNSCC)","acronym":"eVOLVE-HNSCC"},"statusModule":{"statusVerifiedDate":"2024-09","overallStatus":"RECRUITING","expandedAccessInfo":{"hasExpandedAccess":false},"startDateStruct":{"date":"2023-12-14","type":"ACTUAL"},"primaryCompletionDateStruct":{"date":"2029-01-19","type":"ESTIMATED"},"completionDateStruct":{"date":"2030-05-23","type":"ESTIMATED"},"studyFirstSubmitDate":"2023-11-03","studyFirstSubmitQcDate":"2023-11-10","studyFirstPostDateStruct":{"date":"2023-11-13","type":"ACTUAL"},"lastUpdateSubmitDate":"2024-10-02","lastUpdatePostDateStruct":{"date":"2024-10-03","type":"ACTUAL"}},"sponsorCollaboratorsModule":{"responsibleParty":{"type":"SPONSOR"},"leadSponsor":{"name":"AstraZeneca","class":"INDUSTRY"}},"oversightModule":{"oversightHasDmc":true,"isFdaRegulatedDrug":true,"isFdaRegulatedDevice":false},"descriptionModule":{"briefSummary":"The main purpose of this study is to assess the efficacy and safety of volrustomig compared to observation in participants with unresected locally advanced head and neck squamous cell carcinoma (LA-HNSCC) who have not progressed after receiving definitive concurrent chemoradiotherapy (cCRT)."},"conditionsModule":{"conditions":["Locally Advanced Head and Neck Squamous Cell Carcinoma"]},"designModule":{"studyType":"INTERVENTIONAL","phases":["PHASE3"],"designInfo":{"allocation":"RANDOMIZED","interventionModel":"PARALLEL","primaryPurpose":"TREATMENT","maskingInfo":{"masking":"SINGLE","whoMasked":["OUTCOMES_ASSESSOR"]}},"enrollmentInfo":{"count":1145,"type":"ESTIMATED"}},"armsInterventionsModule":{"armGroups":[{"label":"Study Arm","type":"EXPERIMENTAL","description":"Participants in this arm will receive volrustomig.","interventionNames":["Drug: volrustomig"]},{"label":"Observation Arm","type":"NO_INTERVENTION","description":"Patients in this arm will undergo observation."}],"interventions":[{"type":"DRUG","name":"volrustomig","description":"volrustomig","armGroupLabels":["Study Arm"],"otherNames":["MEDI5752"]}]},"outcomesModule":{"primaryOutcomes":[{"measure":"Progression-Free Survival (PFS) in participants with unresected LA-HNSCC with PD-L1 expressing tumors","description":"PFS is defined as time from randomization until first objective radiological progression per RECIST 1.1 as assessed by Blinded Independent Central Review (BICR), or death due to any cause (in the absence of progression).\n\nThe analysis will include all randomized participants with PD-L1 expressing tumors.","timeFrame":"Up to approximately 7 years"}],"secondaryOutcomes":[{"measure":"Progression-Free Survival (PFS) in the unresected LA-HNSCC intent-to-treat (ITT) population","description":"PFS is defined as time from randomization until first objective radiological progression per RECIST 1.1 as assessed by BICR, or death due to any cause (in the absence of progression).\n\nThe analysis will include all randomized participants.","timeFrame":"Up to approximately 7 years"},{"measure":"Landmark Progression-Free Survival (PFS) Rates","description":"PFS is defined as time from randomization until first objective radiological progression per RECIST 1.1 as assessed by BICR, or death due to any cause (in the absence of progression).\n\nThese analyses will include participants with PD-L1 expressing tumors and all randomized participants.","timeFrame":"Up to approximately 7 years"},{"measure":"Overall Survival (OS) in participants with unresected LA-HNSCC with PD-L1 expressing tumors","description":"Overall survival (OS) is defined as the time from randomization until the date of death due to any cause.\n\nThe analysis will include all randomized participants with PD-L1 expressing tumors.","timeFrame":"Up to approximately 7 years"},{"measure":"Landmark Overall Survival (OS) Rates","description":"OS is defined as the time from randomization until the date of death due to any cause.\n\nThese analyses will include participants with PD-L1 expressing tumors as randomized and all randomized participants.","timeFrame":"Up to approximately 7 years"},{"measure":"Overall Survival (OS) in the unresected LA-HNSCC ITT population","description":"OS is defined as the time from randomization until the date of death due to any cause.\n\nThe analysis will include all randomized participants.","timeFrame":"Up to approximately 7 years"},{"measure":"Progression Free Survival 2 (PFS2)","description":"PFS2 is defined as the time from randomization until the earliest of the progression event (following the initial investigator-assessed progression), after the start of the first subsequent therapy, or death from any cause, whichever occurs first. The date of the second progression will be recorded by the investigator in the eCRF and defined according to local standard clinical practice.\n\nThese analyses will include participants with PD-L1 expressing tumors as randomized and all randomized participants.","timeFrame":"Up to approximately 7 years"},{"measure":"Presence of Anti-Drug-Antibodies (ADAs) against volrustomig in serum","description":"To investigate the immunogenicity of volrustomig.","timeFrame":"Up to approximately 7 years"},{"measure":"Participant-reported physical functioning","description":"Change from baseline of physical functioning as measured by scores on the Patient-Reported Outcomes Measurement Information System (PROMIS) Short Form v.20 - Physical Function 8c are reported on a T score metric (mean = 50 and SD = 10), with higher scores reflecting better physical functioning.\n\nThe analysis will include all randomized participants.","timeFrame":"Up to approximately 7 years"},{"measure":"Participant-reported global health status (GHS)/quality of life (QoL)","description":"Change from baseline of Global Health Status/Quality of Life subscale scores as measured by the European Organization for Research and Treatment of Cancer (EORTC) Item Library 172 are transformed to a 0-100 range; a higher score represents higher quality of life.\n\nThe analysis will include all randomized participants.","timeFrame":"Up to approximately 7 years"},{"measure":"Percentage of participants with Adverse Events","description":"Adverse Events as assessed by Common Terminology Criteria for Adverse Events (CTCAE).","timeFrame":"Up to approximately 7 years"},{"measure":"Area under the curve (AUC)","description":"The concentration of MEDI5752 in serum will be determined. Area under the curve is the integral of the concentration-time curve. The AUC reflects the actual body exposure to drug after administration. The AUC is dependent on the rate of elimination of the drug from the body and the dose administered.","timeFrame":"Up to approximately 7 years"},{"measure":"Maximum plasma concentration of the drug (Cmax)","description":"The concentration of MEDI5752 in serum will be determined (Cmax will be derived).","timeFrame":"Up to approximately 7 years"},{"measure":"The time taken to reach the maximum concentration (Tmax)","description":"The concentration of MEDI5752 in serum will be determined (Tmax will be derived).","timeFrame":"Up to approximately 7 years"}]},"eligibilityModule":{"eligibilityCriteria":"Inclusion Criteria:\n\n* Histologically or cytologically documented locally advanced squamous cell carcinoma of the oropharynx, hypopharynx, oral cavity, or larynx with no evidence of metastatic disease (i.e. M0).\n* Confirmed unresected Stage III, Stage IVA or IVB according to the eighth edition of the American Joint Committee on Cancer (AJCC) staging manual (tumor, node, metastasis (TNM) staging system).\n* Participants will have completed definitive concurrent chemoradiotherapy (cCRT) with curative intent within 12 weeks prior to randomization.\n\nExclusion Criteria:\n\n* Histologically/cytologically confirmed head and neck cancer of any other primary anatomic location in the head and neck not specified in the inclusion criteria including participants with squamous cell carcinoma of unknown primary or non-squamous histologies (eg, nasopharynx or salivary gland). Participants with \\>1 primary tumors are not eligible for the study.\n* Participants with any of the following:\n\n  1. Residual disease that needs further treatment with curative intent after definitive cCRT administration;\n  2. LA-HNSCC that was resected before definitive cCRT\n  3. LA-HNSCC that was treated and is recurrent at the time of screening\n* Participants who have received radiotherapy (RT) alone as definitive local therapy for LA-HNSCC.\n* Receipt of the last dose of anticancer therapy (chemotherapy and/or RT) \\> 12 weeks (84 days) prior to randomization.","healthyVolunteers":false,"sex":"ALL","minimumAge":"18 Years","maximumAge":"130 Years","stdAges":["ADULT","OLDER_ADULT"]},"contactsLocationsModule":{"centralContacts":[{"name":"AstraZeneca Clinical Study Information Center","role":"CONTACT","phone":"1-877-240-9479","email":"information.center@astrazeneca.com"}],"overallOfficials":[{"name":"Robert Haddad, MD","affiliation":"Dana Farber Cancer Institute Massachusetts, USA","role":"STUDY_CHAIR"},{"name":"Lisa Licitra, MD","affiliation":"Fondazione IRCCS Istituto Nazionale dei Tumori and University of Milan Milan, Italy","role":"STUDY_CHAIR"}],"locations":[{"facility":"Research Site","status":"WITHDRAWN","city":"Birmingham","state":"Alabama","zip":"35233","country":"United States","geoPoint":{"lat":33.52066,"lon":-86.80249}},{"facility":"Research Site","status":"RECRUITING","city":"Prescott Valley","state":"Arizona","zip":"86314","country":"United States","geoPoint":{"lat":34.61002,"lon":-112.31572}},{"facility":"Research Site","status":"RECRUITING","city":"Springdale","state":"Arkansas","zip":"72762","country":"United States","geoPoint":{"lat":36.18674,"lon":-94.12881}},{"facility":"Research Site","status":"RECRUITING","city":"Los Angeles","state":"California","zip":"90024","country":"United States","geoPoint":{"lat":34.05223,"lon":-118.24368}},{"facility":"Research Site","status":"RECRUITING","city":"Orange","state":"California","zip":"92868","country":"United States","geoPoint":{"lat":33.78779,"lon":-117.85311}},{"facility":"Research Site","status":"NOT_YET_RECRUITING","city":"San Francisco","state":"California","zip":"94143","country":"United States","geoPoint":{"lat":37.77493,"lon":-122.41942}},{"facility":"Research Site","status":"RECRUITING","city":"Santa Rosa","state":"California","zip":"95403","country":"United States","geoPoint":{"lat":38.44047,"lon":-122.71443}},{"facility":"Research Site","status":"RECRUITING","city":"Aurora","state":"Colorado","zip":"80045","country":"United States","geoPoint":{"lat":39.72943,"lon":-104.83192}},{"facility":"Research Site","status":"NOT_YET_RECRUITING","city":"Lone Tree","state":"Colorado","zip":"80124","country":"United States","geoPoint":{"lat":39.55171,"lon":-104.8863}},{"facility":"Research Site","status":"RECRUITING","city":"Fort Myers","state":"Florida","zip":"33901","country":"United States","geoPoint":{"lat":26.62168,"lon":-81.84059}},{"facility":"Research Site","status":"WITHDRAWN","city":"Gainesville","state":"Florida","zip":"32610","country":"United States","geoPoint":{"lat":29.65163,"lon":-82.32483}},{"facility":"Research Site","status":"WITHDRAWN","city":"Miami","state":"Florida","zip":"33125","country":"United States","geoPoint":{"lat":25.77427,"lon":-80.19366}},{"facility":"Research Site","status":"RECRUITING","city":"Palm Bay","state":"Florida","zip":"32909","country":"United States","geoPoint":{"lat":28.03446,"lon":-80.58866}},{"facility":"Research Site","status":"RECRUITING","city":"West Palm Beach","state":"Florida","zip":"33401","country":"United States","geoPoint":{"lat":26.71534,"lon":-80.05337}},{"facility":"Research Site","status":"RECRUITING","city":"Niles","state":"Illinois","zip":"60714","country":"United States","geoPoint":{"lat":42.01892,"lon":-87.80284}},{"facility":"Research Site","status":"RECRUITING","city":"Des Moines","state":"Iowa","zip":"50309","country":"United States","geoPoint":{"lat":41.60054,"lon":-93.60911}},{"facility":"Research Site","status":"RECRUITING","city":"Kansas City","state":"Kansas","zip":"66160","country":"United States","geoPoint":{"lat":39.11417,"lon":-94.62746}},{"facility":"Research Site","status":"RECRUITING","city":"Louisville","state":"Kentucky","zip":"40202","country":"United States","geoPoint":{"lat":38.25424,"lon":-85.75941}},{"facility":"Research Site","status":"RECRUITING","city":"Baton Rouge","state":"Louisiana","zip":"70817","country":"United States","geoPoint":{"lat":30.45075,"lon":-91.15455}},{"facility":"Research Site","status":"WITHDRAWN","city":"Shreveport","state":"Louisiana","zip":"71101","country":"United States","geoPoint":{"lat":32.52515,"lon":-93.75018}},{"facility":"Research Site","status":"NOT_YET_RECRUITING","city":"Baltimore","state":"Maryland","zip":"21231","country":"United States","geoPoint":{"lat":39.29038,"lon":-76.61219}},{"facility":"Research Site","status":"NOT_YET_RECRUITING","city":"Hyattsville","state":"Maryland","zip":"20782","country":"United States","geoPoint":{"lat":38.95594,"lon":-76.94553}},{"facility":"Research Site","status":"RECRUITING","city":"Towson","state":"Maryland","zip":"21204","country":"United States","geoPoint":{"lat":39.4015,"lon":-76.60191}},{"facility":"Research Site","status":"RECRUITING","city":"Upper Marlboro","state":"Maryland","zip":"20774","country":"United States","geoPoint":{"lat":38.81595,"lon":-76.74969}},{"facility":"Research Site","status":"NOT_YET_RECRUITING","city":"Boston","state":"Massachusetts","zip":"02215","country":"United States","geoPoint":{"lat":42.35843,"lon":-71.05977}},{"facility":"Research Site","status":"RECRUITING","city":"Ann Arbor","state":"Michigan","zip":"48105","country":"United States","geoPoint":{"lat":42.27756,"lon":-83.74088}},{"facility":"Research Site","status":"WITHDRAWN","city":"Ann Arbor","state":"Michigan","zip":"48109","country":"United States","geoPoint":{"lat":42.27756,"lon":-83.74088}},{"facility":"Research Site","status":"NOT_YET_RECRUITING","city":"Minneapolis","state":"Minnesota","zip":"55417","country":"United States","geoPoint":{"lat":44.97997,"lon":-93.26384}},{"facility":"Research Site","status":"NOT_YET_RECRUITING","city":"Columbia","state":"Missouri","zip":"65211","country":"United States","geoPoint":{"lat":38.95171,"lon":-92.33407}},{"facility":"Research Site","status":"RECRUITING","city":"Saint Louis","state":"Missouri","zip":"63110","country":"United States","geoPoint":{"lat":38.62727,"lon":-90.19789}},{"facility":"Research Site","status":"NOT_YET_RECRUITING","city":"Saint Louis","state":"Missouri","zip":"63110","country":"United States","geoPoint":{"lat":38.62727,"lon":-90.19789}},{"facility":"Research Site","status":"WITHDRAWN","city":"East Brunswick","state":"New Jersey","zip":"08816","country":"United States","geoPoint":{"lat":40.42788,"lon":-74.41598}},{"facility":"Research Site","status":"RECRUITING","city":"Hackensack","state":"New Jersey","zip":"07601","country":"United States","geoPoint":{"lat":40.88593,"lon":-74.04347}},{"facility":"Research Site","status":"RECRUITING","city":"New Brunswick","state":"New Jersey","zip":"08901","country":"United States","geoPoint":{"lat":40.48622,"lon":-74.45182}},{"facility":"Research Site","status":"RECRUITING","city":"Albuquerque","state":"New Mexico","zip":"87108","country":"United States","geoPoint":{"lat":35.08449,"lon":-106.65114}},{"facility":"Research Site","status":"NOT_YET_RECRUITING","city":"New York","state":"New York","zip":"10065","country":"United States","geoPoint":{"lat":40.71427,"lon":-74.00597}},{"facility":"Research Site","status":"NOT_YET_RECRUITING","city":"New York","state":"New York","zip":"10075","country":"United States","geoPoint":{"lat":40.71427,"lon":-74.00597}},{"facility":"Research Site","status":"NOT_YET_RECRUITING","city":"Stony Brook","state":"New York","zip":"11794","country":"United States","geoPoint":{"lat":40.92565,"lon":-73.14094}},{"facility":"Research Site","status":"RECRUITING","city":"Charlotte","state":"North Carolina","zip":"28204","country":"United States","geoPoint":{"lat":35.22709,"lon":-80.84313}},{"facility":"Research Site","status":"RECRUITING","city":"Winston-Salem","state":"North Carolina","zip":"27157","country":"United States","geoPoint":{"lat":36.09986,"lon":-80.24422}},{"facility":"Research Site","status":"WITHDRAWN","city":"Cleveland","state":"Ohio","zip":"44106","country":"United States","geoPoint":{"lat":41.4995,"lon":-81.69541}},{"facility":"Research Site","status":"RECRUITING","city":"Portland","state":"Oregon","zip":"97213","country":"United States","geoPoint":{"lat":45.52345,"lon":-122.67621}},{"facility":"Research Site","status":"NOT_YET_RECRUITING","city":"Portland","state":"Oregon","zip":"97239","country":"United States","geoPoint":{"lat":45.52345,"lon":-122.67621}},{"facility":"Research Site","status":"NOT_YET_RECRUITING","city":"Philadelphia","state":"Pennsylvania","zip":"19107","country":"United States","geoPoint":{"lat":39.95233,"lon":-75.16379}},{"facility":"Research Site","status":"RECRUITING","city":"Pittsburgh","state":"Pennsylvania","zip":"15261","country":"United States","geoPoint":{"lat":40.44062,"lon":-79.99589}},{"facility":"Research Site","status":"RECRUITING","city":"York","state":"Pennsylvania","zip":"17403","country":"United States","geoPoint":{"lat":39.9626,"lon":-76.72774}},{"facility":"Research Site","status":"RECRUITING","city":"Sioux Falls","state":"South Dakota","zip":"57105","country":"United States","geoPoint":{"lat":43.54997,"lon":-96.70033}},{"facility":"Research Site","status":"NOT_YET_RECRUITING","city":"Nashville","state":"Tennessee","zip":"37212","country":"United States","geoPoint":{"lat":36.16589,"lon":-86.78444}},{"facility":"Research Site","status":"NOT_YET_RECRUITING","city":"Austin","state":"Texas","zip":"78745","country":"United States","geoPoint":{"lat":30.26715,"lon":-97.74306}},{"facility":"Research Site","status":"NOT_YET_RECRUITING","city":"Dallas","state":"Texas","zip":"75251","country":"United States","geoPoint":{"lat":32.78306,"lon":-96.80667}},{"facility":"Research Site","status":"WITHDRAWN","city":"Flower Mound","state":"Texas","zip":"75028","country":"United States","geoPoint":{"lat":33.01457,"lon":-97.09696}},{"facility":"Research Site","status":"WITHDRAWN","city":"Houston","state":"Texas","zip":"77030","country":"United States","geoPoint":{"lat":29.76328,"lon":-95.36327}},{"facility":"Research Site","status":"RECRUITING","city":"Odessa","state":"Texas","zip":"79761","country":"United States","geoPoint":{"lat":31.84568,"lon":-102.36764}},{"facility":"Research Site","status":"WITHDRAWN","city":"Tyler","state":"Texas","zip":"75702","country":"United States","geoPoint":{"lat":32.35126,"lon":-95.30106}},{"facility":"Research Site","status":"NOT_YET_RECRUITING","city":"Salt Lake City","state":"Utah","zip":"84112","country":"United States","geoPoint":{"lat":40.76078,"lon":-111.89105}},{"facility":"Research Site","status":"RECRUITING","city":"West Jordan","state":"Utah","zip":"84088","country":"United States","geoPoint":{"lat":40.60967,"lon":-111.9391}},{"facility":"Research Site","status":"RECRUITING","city":"Fairfax","state":"Virginia","zip":"22031","country":"United States","geoPoint":{"lat":38.84622,"lon":-77.30637}},{"facility":"Research Site","status":"RECRUITING","city":"Norfolk","state":"Virginia","zip":"23502","country":"United States","geoPoint":{"lat":36.84681,"lon":-76.28522}},{"facility":"Research Site","status":"RECRUITING","city":"Richmond","state":"Virginia","zip":"23230","country":"United States","geoPoint":{"lat":37.55376,"lon":-77.46026}},{"facility":"Research Site","status":"RECRUITING","city":"Spokane","state":"Washington","zip":"99204","country":"United States","geoPoint":{"lat":47.65966,"lon":-117.42908}},{"facility":"Research Site","status":"NOT_YET_RECRUITING","city":"Tacoma","state":"Washington","zip":"98405","country":"United States","geoPoint":{"lat":47.25288,"lon":-122.44429}},{"facility":"Research Site","status":"RECRUITING","city":"Tacoma","state":"Washington","zip":"98415","country":"United States","geoPoint":{"lat":47.25288,"lon":-122.44429}},{"facility":"Research Site","status":"NOT_YET_RECRUITING","city":"Graz","zip":"8036","country":"Austria","geoPoint":{"lat":47.06667,"lon":15.45}},{"facility":"Research Site","status":"NOT_YET_RECRUITING","city":"Innsbruck","zip":"6020","country":"Austria","geoPoint":{"lat":47.26266,"lon":11.39454}},{"facility":"Research Site","status":"NOT_YET_RECRUITING","city":"Linz","zip":"4010","country":"Austria","geoPoint":{"lat":48.30639,"lon":14.28611}},{"facility":"Research Site","status":"NOT_YET_RECRUITING","city":"Salzburg","zip":"5020","country":"Austria","geoPoint":{"lat":47.79941,"lon":13.04399}},{"facility":"Research Site","status":"NOT_YET_RECRUITING","city":"Wien","zip":"1080","country":"Austria","geoPoint":{"lat":48.20849,"lon":16.37208}},{"facility":"Research Site","status":"NOT_YET_RECRUITING","city":"Charleroi","zip":"6000","country":"Belgium","geoPoint":{"lat":50.41136,"lon":4.44448}},{"facility":"Research Site","status":"NOT_YET_RECRUITING","city":"Edegem","zip":"2650","country":"Belgium","geoPoint":{"lat":51.15662,"lon":4.44504}},{"facility":"Research Site","status":"NOT_YET_RECRUITING","city":"Jette","zip":"1090","country":"Belgium","geoPoint":{"lat":50.87309,"lon":4.33419}},{"facility":"Research Site","status":"NOT_YET_RECRUITING","city":"La Louvière","zip":"7100","country":"Belgium","geoPoint":{"lat":50.48657,"lon":4.18785}},{"facility":"Research Site","status":"NOT_YET_RECRUITING","city":"Namur","zip":"5000","country":"Belgium","geoPoint":{"lat":50.4669,"lon":4.86746}},{"facility":"Research Site","status":"RECRUITING","city":"Barretos","zip":"14784-400","country":"Brazil","geoPoint":{"lat":-20.55722,"lon":-48.56778}},{"facility":"Research Site","status":"RECRUITING","city":"Florianópolis","zip":"88034-000","country":"Brazil","geoPoint":{"lat":-27.59667,"lon":-48.54917}},{"facility":"Research Site","status":"RECRUITING","city":"Fortaleza","zip":"60336-045","country":"Brazil","geoPoint":{"lat":-3.71722,"lon":-38.54306}},{"facility":"Research Site","status":"RECRUITING","city":"Ijuí","zip":"98700-000","country":"Brazil","geoPoint":{"lat":-28.38778,"lon":-53.91472}},{"facility":"Research Site","status":"RECRUITING","city":"Ipatinga","zip":"35162-189","country":"Brazil","geoPoint":{"lat":-19.46833,"lon":-42.53667}},{"facility":"Research Site","status":"RECRUITING","city":"Londrina","zip":"86015-520","country":"Brazil","geoPoint":{"lat":-23.31028,"lon":-51.16278}},{"facility":"Research Site","status":"RECRUITING","city":"Porto Alegre","zip":"91350200","country":"Brazil","geoPoint":{"lat":-30.03306,"lon":-51.23}},{"facility":"Research Site","status":"RECRUITING","city":"Ribeirão Preto","zip":"14051-140","country":"Brazil","geoPoint":{"lat":-21.1775,"lon":-47.81028}},{"facility":"Research Site","status":"NOT_YET_RECRUITING","city":"Rio de Janeiro","zip":"20231-050","country":"Brazil","geoPoint":{"lat":-22.90278,"lon":-43.2075}},{"facility":"Research Site","status":"RECRUITING","city":"Sao Paulo","zip":"01509-900","country":"Brazil","geoPoint":{"lat":-23.5475,"lon":-46.63611}},{"facility":"Research Site","status":"NOT_YET_RECRUITING","city":"Sao Paulo","zip":"04538-132","country":"Brazil","geoPoint":{"lat":-23.5475,"lon":-46.63611}},{"facility":"Research Site","status":"RECRUITING","city":"Teresina","zip":"64049-200","country":"Brazil","geoPoint":{"lat":-5.08917,"lon":-42.80194}},{"facility":"Research Site","status":"NOT_YET_RECRUITING","city":"Calgary","state":"Alberta","zip":"T2N 4N2","country":"Canada","geoPoint":{"lat":51.05011,"lon":-114.08529}},{"facility":"Research Site","status":"WITHDRAWN","city":"Edmonton","state":"Alberta","zip":"T6G 1Z2","country":"Canada","geoPoint":{"lat":53.55014,"lon":-113.46871}},{"facility":"Research Site","status":"NOT_YET_RECRUITING","city":"Kelowna","state":"British Columbia","zip":"V1Y 5L3","country":"Canada","geoPoint":{"lat":49.88307,"lon":-119.48568}},{"facility":"Research Site","status":"RECRUITING","city":"Kingston","state":"Ontario","zip":"K7L 2V7","country":"Canada","geoPoint":{"lat":44.22976,"lon":-76.48101}},{"facility":"Research Site","status":"NOT_YET_RECRUITING","city":"London","state":"Ontario","zip":"N6A 5W9","country":"Canada","geoPoint":{"lat":42.98339,"lon":-81.23304}},{"facility":"Research Site","status":"RECRUITING","city":"Toronto","state":"Ontario","zip":"M4N 3M5","country":"Canada","geoPoint":{"lat":43.70011,"lon":-79.4163}},{"facility":"Research Site","status":"RECRUITING","city":"Montreal","state":"Quebec","zip":"H2X 0C1","country":"Canada","geoPoint":{"lat":45.50884,"lon":-73.58781}},{"facility":"Research Site","status":"RECRUITING","city":"Montreal","state":"Quebec","zip":"H3T 1E2","country":"Canada","geoPoint":{"lat":45.50884,"lon":-73.58781}},{"facility":"Research Site","status":"RECRUITING","city":"Montreal","state":"Quebec","zip":"H4A 3J1","country":"Canada","geoPoint":{"lat":45.50884,"lon":-73.58781}},{"facility":"Research Site","status":"NOT_YET_RECRUITING","city":"Regina","zip":"S4T 7T1","country":"Canada","geoPoint":{"lat":50.45008,"lon":-104.6178}},{"facility":"Research Site","status":"NOT_YET_RECRUITING","city":"Beijing","zip":"100142","country":"China","geoPoint":{"lat":39.9075,"lon":116.39723}},{"facility":"Research Site","status":"NOT_YET_RECRUITING","city":"Beijing","zip":"100210","country":"China","geoPoint":{"lat":39.9075,"lon":116.39723}},{"facility":"Research Site","status":"NOT_YET_RECRUITING","city":"Bengbu","zip":"233060","country":"China","geoPoint":{"lat":32.94083,"lon":117.36083}},{"facility":"Research Site","status":"WITHDRAWN","city":"Changchun","zip":"130000","country":"China","geoPoint":{"lat":43.88,"lon":125.32278}},{"facility":"Research Site","status":"NOT_YET_RECRUITING","city":"Changsha","zip":"410008","country":"China","geoPoint":{"lat":28.19874,"lon":112.97087}},{"facility":"Research Site","status":"NOT_YET_RECRUITING","city":"Changsha","zip":"410013","country":"China","geoPoint":{"lat":28.19874,"lon":112.97087}},{"facility":"Research Site","status":"NOT_YET_RECRUITING","city":"Chengdu","zip":"610000","country":"China","geoPoint":{"lat":30.66667,"lon":104.06667}},{"facility":"Research Site","status":"NOT_YET_RECRUITING","city":"Chengdu","zip":"610042","country":"China","geoPoint":{"lat":30.66667,"lon":104.06667}},{"facility":"Research Site","status":"NOT_YET_RECRUITING","city":"Chengdu","zip":"610072","country":"China","geoPoint":{"lat":30.66667,"lon":104.06667}},{"facility":"Research Site","status":"NOT_YET_RECRUITING","city":"Chongqing","zip":"400016","country":"China","geoPoint":{"lat":29.56278,"lon":106.55278}},{"facility":"Research Site","status":"NOT_YET_RECRUITING","city":"Chongqing","zip":"400030","country":"China","geoPoint":{"lat":29.56278,"lon":106.55278}},{"facility":"Research Site","status":"NOT_YET_RECRUITING","city":"Fuzhou","zip":"350014","country":"China","geoPoint":{"lat":26.06139,"lon":119.30611}},{"facility":"Research Site","status":"NOT_YET_RECRUITING","city":"Guangzhou","zip":"510060","country":"China","geoPoint":{"lat":23.11667,"lon":113.25}},{"facility":"Research Site","status":"NOT_YET_RECRUITING","city":"Guangzhou","zip":"510080","country":"China","geoPoint":{"lat":23.11667,"lon":113.25}},{"facility":"Research Site","status":"NOT_YET_RECRUITING","city":"Guangzhou","zip":"510095","country":"China","geoPoint":{"lat":23.11667,"lon":113.25}},{"facility":"Research Site","status":"NOT_YET_RECRUITING","city":"Guiyang","zip":"550002","country":"China","geoPoint":{"lat":26.58333,"lon":106.71667}},{"facility":"Research Site","status":"NOT_YET_RECRUITING","city":"Hangzhou","zip":"310022","country":"China","geoPoint":{"lat":30.29365,"lon":120.16142}},{"facility":"Research Site","status":"NOT_YET_RECRUITING","city":"Harbin","zip":"150049","country":"China","geoPoint":{"lat":45.75,"lon":126.65}},{"facility":"Research Site","status":"NOT_YET_RECRUITING","city":"Hefei","zip":"230001","country":"China","geoPoint":{"lat":31.86389,"lon":117.28083}},{"facility":"Research Site","status":"NOT_YET_RECRUITING","city":"Jinan","zip":"250117","country":"China","geoPoint":{"lat":36.66833,"lon":116.99722}},{"facility":"Research Site","status":"NOT_YET_RECRUITING","city":"Kunming","zip":"650118","country":"China","geoPoint":{"lat":25.03889,"lon":102.71833}},{"facility":"Research Site","status":"NOT_YET_RECRUITING","city":"Nanchang","zip":"330029","country":"China","geoPoint":{"lat":28.68396,"lon":115.85306}},{"facility":"Research Site","status":"NOT_YET_RECRUITING","city":"Nanning","zip":"530021","country":"China","geoPoint":{"lat":22.81667,"lon":108.31667}},{"facility":"Research Site","status":"NOT_YET_RECRUITING","city":"Shanghai","zip":"20032","country":"China","geoPoint":{"lat":31.22222,"lon":121.45806}},{"facility":"Research Site","status":"NOT_YET_RECRUITING","city":"Shenyang","zip":"110004","country":"China","geoPoint":{"lat":41.79222,"lon":123.43278}},{"facility":"Research Site","status":"NOT_YET_RECRUITING","city":"Tianjin Shi","zip":"300060","country":"China"},{"facility":"Research Site","status":"NOT_YET_RECRUITING","city":"Tianjin","zip":"300060","country":"China","geoPoint":{"lat":39.14222,"lon":117.17667}},{"facility":"Research Site","status":"WITHDRAWN","city":"Urumqi","zip":"830000","country":"China","geoPoint":{"lat":43.80096,"lon":87.60046}},{"facility":"Research Site","status":"NOT_YET_RECRUITING","city":"Wuhan","zip":"430030","country":"China","geoPoint":{"lat":30.58333,"lon":114.26667}},{"facility":"Research Site","status":"NOT_YET_RECRUITING","city":"Wuxi","zip":"214122","country":"China","geoPoint":{"lat":31.56887,"lon":120.28857}},{"facility":"Research Site","status":"WITHDRAWN","city":"Xiamen","zip":"361003","country":"China","geoPoint":{"lat":24.47979,"lon":118.08187}},{"facility":"Research Site","status":"NOT_YET_RECRUITING","city":"Xian","zip":"710061","country":"China","geoPoint":{"lat":34.25833,"lon":108.92861}},{"facility":"Research Site","status":"NOT_YET_RECRUITING","city":"Zhengzhou","zip":"450008","country":"China","geoPoint":{"lat":34.75778,"lon":113.64861}},{"facility":"Research Site","status":"NOT_YET_RECRUITING","city":"Avignon Cedex 09","zip":"84918","country":"France","geoPoint":{"lat":43.94834,"lon":4.80892}},{"facility":"Research Site","status":"NOT_YET_RECRUITING","city":"Bordeaux","zip":"33075","country":"France","geoPoint":{"lat":44.84044,"lon":-0.5805}},{"facility":"Research Site","status":"NOT_YET_RECRUITING","city":"Lyon","zip":"69373","country":"France","geoPoint":{"lat":45.74848,"lon":4.84669}},{"facility":"Research Site","status":"NOT_YET_RECRUITING","city":"Saint Herblain","zip":"44805","country":"France","geoPoint":{"lat":47.21765,"lon":-1.64841}},{"facility":"Research Site","status":"NOT_YET_RECRUITING","city":"Toulouse Cedex 09","zip":"31059","country":"France","geoPoint":{"lat":43.60426,"lon":1.44367}},{"facility":"Research Site","status":"NOT_YET_RECRUITING","city":"Villejuif","zip":"94805","country":"France","geoPoint":{"lat":48.7939,"lon":2.35992}},{"facility":"Research Site","status":"NOT_YET_RECRUITING","city":"Berlin","zip":"12200","country":"Germany","geoPoint":{"lat":52.52437,"lon":13.41053}},{"facility":"Research Site","status":"NOT_YET_RECRUITING","city":"Essen","zip":"45122","country":"Germany","geoPoint":{"lat":51.45657,"lon":7.01228}},{"facility":"Research Site","status":"NOT_YET_RECRUITING","city":"Greifswald","zip":"17475","country":"Germany","geoPoint":{"lat":54.09311,"lon":13.38786}},{"facility":"Research Site","status":"NOT_YET_RECRUITING","city":"Hamburg","zip":"20246","country":"Germany","geoPoint":{"lat":53.57532,"lon":10.01534}},{"facility":"Research Site","status":"NOT_YET_RECRUITING","city":"Hannover","zip":"30625","country":"Germany","geoPoint":{"lat":52.37052,"lon":9.73322}},{"facility":"Research Site","status":"NOT_YET_RECRUITING","city":"Leipzig","zip":"04103","country":"Germany","geoPoint":{"lat":51.33962,"lon":12.37129}},{"facility":"Research Site","status":"NOT_YET_RECRUITING","city":"Lübeck","zip":"23538","country":"Germany","geoPoint":{"lat":53.86893,"lon":10.68729}},{"facility":"Research Site","status":"NOT_YET_RECRUITING","city":"München","zip":"81675","country":"Germany","geoPoint":{"lat":48.13743,"lon":11.57549}},{"facility":"Research Site","status":"NOT_YET_RECRUITING","city":"Rostock","zip":"18059","country":"Germany","geoPoint":{"lat":54.0887,"lon":12.14049}},{"facility":"Research Site","status":"NOT_YET_RECRUITING","city":"Tübingen","zip":"72076","country":"Germany","geoPoint":{"lat":48.52266,"lon":9.05222}},{"facility":"Research Site","status":"NOT_YET_RECRUITING","city":"Ulm","zip":"89075","country":"Germany","geoPoint":{"lat":48.39841,"lon":9.99155}},{"facility":"Research Site","status":"NOT_YET_RECRUITING","city":"Würzburg","zip":"97070","country":"Germany","geoPoint":{"lat":49.79391,"lon":9.95121}},{"facility":"Research Site","status":"NOT_YET_RECRUITING","city":"Budapest","zip":"1083","country":"Hungary","geoPoint":{"lat":47.49801,"lon":19.03991}},{"facility":"Research Site","status":"NOT_YET_RECRUITING","city":"Budapest","zip":"1122","country":"Hungary","geoPoint":{"lat":47.49801,"lon":19.03991}},{"facility":"Research Site","status":"NOT_YET_RECRUITING","city":"Budapest","zip":"1145","country":"Hungary","geoPoint":{"lat":47.49801,"lon":19.03991}},{"facility":"Research Site","status":"NOT_YET_RECRUITING","city":"Győr","zip":"9024","country":"Hungary","geoPoint":{"lat":47.68333,"lon":17.63512}},{"facility":"Research Site","status":"NOT_YET_RECRUITING","city":"Kecskemét","zip":"6000","country":"Hungary","geoPoint":{"lat":46.90618,"lon":19.69128}},{"facility":"Research Site","status":"NOT_YET_RECRUITING","city":"Miskolc","zip":"3526","country":"Hungary","geoPoint":{"lat":48.1,"lon":20.78333}},{"facility":"Research Site","status":"NOT_YET_RECRUITING","city":"Nyíregyháza","zip":"4400","country":"Hungary","geoPoint":{"lat":47.95539,"lon":21.71671}},{"facility":"Research Site","status":"NOT_YET_RECRUITING","city":"Pécs","zip":"7624","country":"Hungary","geoPoint":{"lat":46.08333,"lon":18.23333}},{"facility":"Research Site","status":"NOT_YET_RECRUITING","city":"Szekszárd","zip":"7100","country":"Hungary","geoPoint":{"lat":46.35014,"lon":18.70905}},{"facility":"Research Site","status":"RECRUITING","city":"Bengaluru","zip":"560027","country":"India","geoPoint":{"lat":12.97194,"lon":77.59369}},{"facility":"Research Site","status":"RECRUITING","city":"Hyderabad","zip":"500032","country":"India","geoPoint":{"lat":17.38405,"lon":78.45636}},{"facility":"Research Site","status":"NOT_YET_RECRUITING","city":"Jaipur","zip":"302022","country":"India","geoPoint":{"lat":26.91962,"lon":75.78781}},{"facility":"Research Site","status":"RECRUITING","city":"Kanpur","zip":"208005","country":"India","geoPoint":{"lat":26.46523,"lon":80.34975}},{"facility":"Research Site","status":"RECRUITING","city":"Kochi","zip":"682027","country":"India","geoPoint":{"lat":9.93988,"lon":76.26022}},{"facility":"Research Site","status":"RECRUITING","city":"Kolkata","zip":"700099","country":"India","geoPoint":{"lat":22.56263,"lon":88.36304}},{"facility":"Research Site","status":"NOT_YET_RECRUITING","city":"Lucknow","zip":"226003","country":"India","geoPoint":{"lat":26.83928,"lon":80.92313}},{"facility":"Research Site","status":"RECRUITING","city":"Madurai","zip":"625107","country":"India","geoPoint":{"lat":9.91769,"lon":78.11898}},{"facility":"Research Site","status":"NOT_YET_RECRUITING","city":"Mohali","zip":"160055","country":"India","geoPoint":{"lat":30.67995,"lon":76.72211}},{"facility":"Research Site","status":"RECRUITING","city":"New Delhi","zip":"110076","country":"India","geoPoint":{"lat":28.63576,"lon":77.22445}},{"facility":"Research Site","status":"NOT_YET_RECRUITING","city":"Thiruvananthapuram","zip":"695011","country":"India","geoPoint":{"lat":8.4855,"lon":76.94924}},{"facility":"Research Site","status":"RECRUITING","city":"Vadodara","zip":"391760","country":"India","geoPoint":{"lat":22.29941,"lon":73.20812}},{"facility":"Research Site","status":"RECRUITING","city":"Varanasi","zip":"221005","country":"India","geoPoint":{"lat":25.31668,"lon":83.01041}},{"facility":"Research Site","status":"NOT_YET_RECRUITING","city":"Aviano","zip":"33081","country":"Italy","geoPoint":{"lat":46.07056,"lon":12.59472}},{"facility":"Research Site","status":"NOT_YET_RECRUITING","city":"Firenze","zip":"50139","country":"Italy","geoPoint":{"lat":43.77925,"lon":11.24626}},{"facility":"Research Site","status":"NOT_YET_RECRUITING","city":"Milano","zip":"20133","country":"Italy","geoPoint":{"lat":45.46427,"lon":9.18951}},{"facility":"Research Site","status":"NOT_YET_RECRUITING","city":"Modena","zip":"41124","country":"Italy","geoPoint":{"lat":44.64783,"lon":10.92539}},{"facility":"Research Site","status":"NOT_YET_RECRUITING","city":"Napoli","zip":"80131","country":"Italy","geoPoint":{"lat":40.85216,"lon":14.26811}},{"facility":"Research Site","status":"NOT_YET_RECRUITING","city":"Padova","zip":"35128","country":"Italy","geoPoint":{"lat":45.40797,"lon":11.88586}},{"facility":"Research Site","status":"NOT_YET_RECRUITING","city":"Pavia","zip":"27100","country":"Italy","geoPoint":{"lat":45.19205,"lon":9.15917}},{"facility":"Research Site","status":"NOT_YET_RECRUITING","city":"Rozzano","zip":"20089","country":"Italy","geoPoint":{"lat":45.38193,"lon":9.1559}},{"facility":"Research Site","status":"RECRUITING","city":"Bunkyo-ku","zip":"113-8519","country":"Japan","geoPoint":{"lat":35.37517,"lon":139.92991}},{"facility":"Research Site","status":"RECRUITING","city":"Chiba-shi","zip":"260-8717","country":"Japan","geoPoint":{"lat":35.6,"lon":140.11667}},{"facility":"Research Site","status":"RECRUITING","city":"Chuo-ku","zip":"104-0045","country":"Japan","geoPoint":{"lat":35.57779,"lon":139.71685}},{"facility":"Research Site","status":"RECRUITING","city":"Fukuoka","zip":"811-1395","country":"Japan","geoPoint":{"lat":33.6,"lon":130.41667}},{"facility":"Research Site","status":"RECRUITING","city":"Hiroshima-shi","zip":"734-8551","country":"Japan","geoPoint":{"lat":34.4,"lon":132.45}},{"facility":"Research Site","status":"RECRUITING","city":"Kashiwa","zip":"277-8577","country":"Japan","geoPoint":{"lat":35.86224,"lon":139.97732}},{"facility":"Research Site","status":"RECRUITING","city":"Kobe-shi","zip":"650-0017","country":"Japan","geoPoint":{"lat":34.6913,"lon":135.183}},{"facility":"Research Site","status":"RECRUITING","city":"Koto-ku","zip":"135-8550","country":"Japan","geoPoint":{"lat":35.66667,"lon":139.81718}},{"facility":"Research Site","status":"RECRUITING","city":"Nagoya-shi","zip":"464-8681","country":"Japan","geoPoint":{"lat":35.18147,"lon":136.90641}},{"facility":"Research Site","status":"RECRUITING","city":"Nagoya-shi","zip":"466-8560","country":"Japan","geoPoint":{"lat":35.18147,"lon":136.90641}},{"facility":"Research Site","status":"RECRUITING","city":"Niigata-shi","zip":"951-8520","country":"Japan","geoPoint":{"lat":37.88637,"lon":139.00589}},{"facility":"Research Site","status":"RECRUITING","city":"Okayama-shi","zip":"700-8558","country":"Japan","geoPoint":{"lat":34.65,"lon":133.93333}},{"facility":"Research Site","status":"RECRUITING","city":"Osaka-shi","zip":"541-8567","country":"Japan","geoPoint":{"lat":34.69374,"lon":135.50218}},{"facility":"Research Site","status":"RECRUITING","city":"Osakasayama-shi","zip":"589-8511","country":"Japan","geoPoint":{"lat":34.69374,"lon":135.50218}},{"facility":"Research Site","status":"RECRUITING","city":"Sapporo-shi","zip":"060-8638","country":"Japan","geoPoint":{"lat":43.06667,"lon":141.35}},{"facility":"Research Site","status":"RECRUITING","city":"Sendai-shi","zip":"980-8574","country":"Japan","geoPoint":{"lat":38.26667,"lon":140.86667}},{"facility":"Research Site","status":"RECRUITING","city":"Shiwa-gun","zip":"028-3695","country":"Japan","geoPoint":{"lat":33.23058,"lon":133.24871}},{"facility":"Research Site","status":"RECRUITING","city":"Sunto-gun","zip":"411-8777","country":"Japan"},{"facility":"Research Site","status":"RECRUITING","city":"Yokohama-shi","zip":"236-0004","country":"Japan","geoPoint":{"lat":35.43333,"lon":139.65}},{"facility":"Research Site","status":"RECRUITING","city":"Yokohama-shi","zip":"241-8515","country":"Japan","geoPoint":{"lat":35.43333,"lon":139.65}},{"facility":"Research Site","status":"RECRUITING","city":"Goyang-si","zip":"410-769","country":"Korea, Republic of","geoPoint":{"lat":37.65639,"lon":126.835}},{"facility":"Research Site","status":"RECRUITING","city":"Gyeonggi-do","zip":"13620","country":"Korea, Republic of","geoPoint":{"lat":37.58944,"lon":126.76917}},{"facility":"Research Site","status":"RECRUITING","city":"Incheon","zip":"21565","country":"Korea, Republic of","geoPoint":{"lat":37.45646,"lon":126.70515}},{"facility":"Research Site","status":"RECRUITING","city":"Seoul","zip":"06351","country":"Korea, Republic of","geoPoint":{"lat":37.566,"lon":126.9784}},{"facility":"Research Site","status":"RECRUITING","city":"Seoul","zip":"5505","country":"Korea, Republic of","geoPoint":{"lat":37.566,"lon":126.9784}},{"facility":"Research Site","status":"RECRUITING","city":"Suwon","zip":"16247","country":"Korea, Republic of","geoPoint":{"lat":37.29111,"lon":127.00889}},{"facility":"Research Site","status":"RECRUITING","city":"George Town","zip":"10450","country":"Malaysia","geoPoint":{"lat":5.41123,"lon":100.33543}},{"facility":"Research Site","status":"RECRUITING","city":"Johor Bahru","zip":"81100","country":"Malaysia","geoPoint":{"lat":1.4655,"lon":103.7578}},{"facility":"Research Site","status":"NOT_YET_RECRUITING","city":"Kuala Lumpur","zip":"50586","country":"Malaysia","geoPoint":{"lat":3.1412,"lon":101.68653}},{"facility":"Research Site","status":"NOT_YET_RECRUITING","city":"Kuala Lumpur","zip":"59100","country":"Malaysia","geoPoint":{"lat":3.1412,"lon":101.68653}},{"facility":"Research Site","status":"RECRUITING","city":"Kuching","zip":"93586","country":"Malaysia","geoPoint":{"lat":1.54999,"lon":110.33333}},{"facility":"Research Site","status":"NOT_YET_RECRUITING","city":"Selangor","zip":"62250","country":"Malaysia"},{"facility":"Research Site","status":"NOT_YET_RECRUITING","city":"Białystok","zip":"15-027","country":"Poland","geoPoint":{"lat":53.13333,"lon":23.16433}},{"facility":"Research Site","status":"NOT_YET_RECRUITING","city":"Bielsko-Biała","zip":"43-300","country":"Poland","geoPoint":{"lat":49.82245,"lon":19.04686}},{"facility":"Research Site","status":"NOT_YET_RECRUITING","city":"Gliwice","zip":"44-102","country":"Poland","geoPoint":{"lat":50.29761,"lon":18.67658}},{"facility":"Research Site","status":"NOT_YET_RECRUITING","city":"Piotrków Trybunalski","zip":"97-300","country":"Poland","geoPoint":{"lat":51.40547,"lon":19.70321}},{"facility":"Research Site","status":"WITHDRAWN","city":"Tomaszów Mazowiecki","zip":"97-200","country":"Poland","geoPoint":{"lat":51.53131,"lon":20.00855}},{"facility":"Research Site","status":"NOT_YET_RECRUITING","city":"Warszawa","zip":"02-781","country":"Poland","geoPoint":{"lat":52.22977,"lon":21.01178}},{"facility":"Research Site","status":"NOT_YET_RECRUITING","city":"Badalona","zip":"08916","country":"Spain","geoPoint":{"lat":41.45004,"lon":2.24741}},{"facility":"Research Site","status":"NOT_YET_RECRUITING","city":"Barcelona","zip":"08035","country":"Spain","geoPoint":{"lat":41.38879,"lon":2.15899}},{"facility":"Research Site","status":"NOT_YET_RECRUITING","city":"Barcelona","zip":"08036","country":"Spain","geoPoint":{"lat":41.38879,"lon":2.15899}},{"facility":"Research Site","status":"NOT_YET_RECRUITING","city":"Jaén","zip":"23007","country":"Spain","geoPoint":{"lat":37.76922,"lon":-3.79028}},{"facility":"Research Site","status":"NOT_YET_RECRUITING","city":"Madrid","zip":"28007","country":"Spain","geoPoint":{"lat":40.4165,"lon":-3.70256}},{"facility":"Research Site","status":"NOT_YET_RECRUITING","city":"Madrid","zip":"28034","country":"Spain","geoPoint":{"lat":40.4165,"lon":-3.70256}},{"facility":"Research Site","status":"NOT_YET_RECRUITING","city":"Madrid","zip":"28040","country":"Spain","geoPoint":{"lat":40.4165,"lon":-3.70256}},{"facility":"Research Site","status":"NOT_YET_RECRUITING","city":"Valencia","zip":"46026","country":"Spain","geoPoint":{"lat":39.46975,"lon":-0.37739}},{"facility":"Research Site","status":"NOT_YET_RECRUITING","city":"València","zip":"46014","country":"Spain","geoPoint":{"lat":39.46975,"lon":-0.37739}},{"facility":"Research Site","status":"RECRUITING","city":"Changhua","zip":"500","country":"Taiwan","geoPoint":{"lat":24.07327,"lon":120.56276}},{"facility":"Research Site","status":"RECRUITING","city":"Kaohsiung City","zip":"833401","country":"Taiwan","geoPoint":{"lat":22.61626,"lon":120.31333}},{"facility":"Research Site","status":"RECRUITING","city":"Taichung","zip":"404","country":"Taiwan","geoPoint":{"lat":24.1469,"lon":120.6839}},{"facility":"Research Site","status":"RECRUITING","city":"Taichung","zip":"40705","country":"Taiwan","geoPoint":{"lat":24.1469,"lon":120.6839}},{"facility":"Research Site","status":"RECRUITING","city":"Taipei City","zip":"11217","country":"Taiwan","geoPoint":{"lat":25.04776,"lon":121.53185}},{"facility":"Research Site","status":"RECRUITING","city":"Taipei","zip":"10002","country":"Taiwan","geoPoint":{"lat":25.04776,"lon":121.53185}},{"facility":"Research Site","status":"RECRUITING","city":"Bangkok","zip":"10400","country":"Thailand","geoPoint":{"lat":13.75398,"lon":100.50144}},{"facility":"Research Site","status":"RECRUITING","city":"Bangkok","zip":"10700","country":"Thailand","geoPoint":{"lat":13.75398,"lon":100.50144}},{"facility":"Research Site","status":"RECRUITING","city":"Chaing Mai","zip":"50200","country":"Thailand"},{"facility":"Research Site","status":"RECRUITING","city":"Hat Yai","zip":"90110","country":"Thailand","geoPoint":{"lat":7.00836,"lon":100.47668}},{"facility":"Research Site","status":"RECRUITING","city":"Khon Kaen","zip":"40002","country":"Thailand","geoPoint":{"lat":16.44671,"lon":102.833}},{"facility":"Research Site","status":"RECRUITING","city":"Ankara","zip":"06230","country":"Turkey","geoPoint":{"lat":39.91987,"lon":32.85427}},{"facility":"Research Site","status":"RECRUITING","city":"Ankara","zip":"6200","country":"Turkey","geoPoint":{"lat":39.91987,"lon":32.85427}},{"facility":"Research Site","status":"RECRUITING","city":"Antalya","zip":"07059","country":"Turkey","geoPoint":{"lat":36.90812,"lon":30.69556}},{"facility":"Research Site","status":"RECRUITING","city":"Istanbul","zip":"34722","country":"Turkey","geoPoint":{"lat":41.01384,"lon":28.94966}},{"facility":"Research Site","status":"RECRUITING","city":"Karsiyaka","zip":"35575","country":"Turkey","geoPoint":{"lat":40.6936,"lon":29.94154}},{"facility":"Research Site","status":"RECRUITING","city":"Yenimahalle","zip":"06170","country":"Turkey"},{"facility":"Research Site","status":"RECRUITING","city":"Aberdeen","zip":"AB25 2ZN","country":"United Kingdom","geoPoint":{"lat":57.14369,"lon":-2.09814}},{"facility":"Research Site","status":"RECRUITING","city":"Cambridge","zip":"CB2 0XY","country":"United Kingdom","geoPoint":{"lat":52.2,"lon":0.11667}},{"facility":"Research Site","status":"NOT_YET_RECRUITING","city":"Hampshire","zip":"SO16 6YD","country":"United Kingdom"},{"facility":"Research Site","status":"NOT_YET_RECRUITING","city":"Leeds","zip":"LS9 7TF","country":"United Kingdom","geoPoint":{"lat":53.79648,"lon":-1.54785}},{"facility":"Research Site","status":"NOT_YET_RECRUITING","city":"London","zip":"EC1A 7BE","country":"United Kingdom","geoPoint":{"lat":51.50853,"lon":-0.12574}},{"facility":"Research Site","status":"WITHDRAWN","city":"London","zip":"SE1 9RT","country":"United Kingdom","geoPoint":{"lat":51.50853,"lon":-0.12574}},{"facility":"Research Site","status":"RECRUITING","city":"London","zip":"SW3 6JJ","country":"United Kingdom","geoPoint":{"lat":51.50853,"lon":-0.12574}},{"facility":"Research Site","status":"RECRUITING","city":"Manchester","zip":"M20 4BX","country":"United Kingdom","geoPoint":{"lat":53.48095,"lon":-2.23743}},{"facility":"Research Site","status":"RECRUITING","city":"Northwood","zip":"HA6 2RN","country":"United Kingdom"},{"facility":"Research Site","status":"RECRUITING","city":"Sutton","zip":"SM2 5PT","country":"United Kingdom","geoPoint":{"lat":51.35,"lon":-0.2}},{"facility":"Research Site","status":"NOT_YET_RECRUITING","city":"Taunton","zip":"TA1 5DA","country":"United Kingdom","geoPoint":{"lat":51.01494,"lon":-3.10293}},{"facility":"Research Site","status":"WITHDRAWN","city":"Wirral","zip":"CH63 4JY","country":"United Kingdom","geoPoint":{"lat":53.37616,"lon":-3.10501}},{"facility":"Research Site","status":"RECRUITING","city":"Hanoi","zip":"100000","country":"Vietnam","geoPoint":{"lat":21.0245,"lon":105.84117}},{"facility":"Research Site","status":"RECRUITING","city":"Ho Chi Minh City","zip":"700000","country":"Vietnam","geoPoint":{"lat":10.82302,"lon":106.62965}},{"facility":"Research Site","status":"RECRUITING","city":"Ho Chi Minh","zip":"700000","country":"Vietnam","geoPoint":{"lat":10.82302,"lon":106.62965}},{"facility":"Research Site","status":"RECRUITING","city":"Vinh","zip":"460000","country":"Vietnam","geoPoint":{"lat":18.67337,"lon":105.69232}}]},"ipdSharingStatementModule":{"ipdSharing":"YES","description":"Qualified researchers can request access to anonymized individual patient-level data from AstraZeneca group of companies sponsored clinical trials via the request portal.\n\nAll request will be evaluated as per the AZ disclosure commitment: https://astrazenecagrouptrials.pharmacm.com/ST/Submission/Disclosure","infoTypes":["STUDY_PROTOCOL","SAP"],"timeFrame":"AstraZeneca will meet or exceed data availability as per the commitments made to the EFPIA Pharma Data Sharing Principles.\n\nFor details of our timelines, please rerefer to our disclosure commitment at https://astrazenecagrouptrials.pharmacm.com/ST/Submission/Disclosure","accessCriteria":"When a request has been approved AstraZeneca will provide access to the deidentified individual patient-level data in an approved sponsored tool .\n\nSigned Data Sharing Agreement (non-negotiable contract for data accessors) must be in place before accessing requested information.\n\nAdditionally, all users will need to accept the terms and conditions of the SAS MSE to gain access. For additional details, please review the Disclosure Statements at https://astrazenecagrouptrials.pharmacm.com/ST/Submission/Disclosure.","url":"https://astrazenecagroup-dt.pharmacm.com/DT/Home"}},"derivedSection":{"miscInfoModule":{"versionHolder":"2025-07-07"},"conditionBrowseModule":{"meshes":[{"id":"D002277","term":"Carcinoma"},{"id":"D002294","term":"Carcinoma, Squamous Cell"},{"id":"D000077195","term":"Squamous Cell Carcinoma of Head and Neck"}],"ancestors":[{"id":"D009375","term":"Neoplasms, Glandular and Epithelial"},{"id":"D009370","term":"Neoplasms by Histologic Type"},{"id":"D009369","term":"Neoplasms"},{"id":"D018307","term":"Neoplasms, Squamous Cell"},{"id":"D006258","term":"Head and Neck Neoplasms"},{"id":"D009371","term":"Neoplasms by Site"}],"browseLeaves":[{"id":"M5534","name":"Carcinoma","asFound":"Carcinoma","relevance":"HIGH"},{"id":"M5550","name":"Carcinoma, Squamous Cell","asFound":"Squamous Cell Carcinoma","relevance":"HIGH"},{"id":"M1689","name":"Squamous Cell Carcinoma of Head and Neck","asFound":"Head and Neck Squamous Cell Carcinoma","relevance":"HIGH"},{"id":"M12320","name":"Neoplasms, Glandular and Epithelial","relevance":"LOW"},{"id":"M12315","name":"Neoplasms by Histologic Type","relevance":"LOW"},{"id":"M20451","name":"Neoplasms, Squamous Cell","relevance":"LOW"},{"id":"M9348","name":"Head and Neck Neoplasms","relevance":"LOW"}],"browseBranches":[{"abbrev":"BC04","name":"Neoplasms"},{"abbrev":"All","name":"All Conditions"}]}},"hasResults":false}