{"protocolSection":{"identificationModule":{"nctId":"NCT06417814","orgStudyIdInfo":{"id":"D516KC00001"},"secondaryIdInfos":[{"id":"2024-511362-37-00","type":"REGISTRY","domain":"CTIS"}],"organization":{"fullName":"AstraZeneca","class":"INDUSTRY"},"briefTitle":"A Study to Investigate the Efficacy and Safety of Dato-DXd With or Without Osimertinib Compared With Platinum Based Doublet Chemotherapy in Participants With EGFR-Mutated Locally Advanced or Metastatic Non-Small Cell Lung Cancer","officialTitle":"A Phase III, Open-label, Sponsor-blind, Randomized Study of Dato-DXd With or Without Osimertinib Versus Platinum-based Doublet Chemotherapy for Participants With EGFR-mutated Locally Advanced or Metastatic Non-small Cell Lung Cancer Whose Disease Has Progressed on Prior Osimertinib Treatment (TROPION-Lung15)","acronym":"TROPION-Lung15"},"statusModule":{"statusVerifiedDate":"2025-06","overallStatus":"RECRUITING","expandedAccessInfo":{"hasExpandedAccess":false},"startDateStruct":{"date":"2024-10-04","type":"ACTUAL"},"primaryCompletionDateStruct":{"date":"2026-06-11","type":"ESTIMATED"},"completionDateStruct":{"date":"2027-11-29","type":"ESTIMATED"},"studyFirstSubmitDate":"2024-05-13","studyFirstSubmitQcDate":"2024-05-13","studyFirstPostDateStruct":{"date":"2024-05-16","type":"ACTUAL"},"lastUpdateSubmitDate":"2025-06-04","lastUpdatePostDateStruct":{"date":"2025-06-05","type":"ACTUAL"}},"sponsorCollaboratorsModule":{"responsibleParty":{"type":"SPONSOR"},"leadSponsor":{"name":"AstraZeneca","class":"INDUSTRY"},"collaborators":[{"name":"Daiichi Sankyo","class":"INDUSTRY"}]},"oversightModule":{"oversightHasDmc":true,"isFdaRegulatedDrug":true,"isFdaRegulatedDevice":false},"descriptionModule":{"briefSummary":"This study will assess the effect of Dato-DXd in combination with osimertinib or Dato-DXd monotherapy versus platinum-based doublet chemotherapy in terms of progression-free survival (PFS).","detailedDescription":"This is a Phase III, open-label, 3-arm, multicenter study assessing the effects of Dato-DXd in combination with osimertinib or Dato-DXd monotherapy versus platinum-based doublet chemotherapy in participants with epidermal growth factor receptor gene mutation (EGFRm) locally advanced or metastatic non-small cell lung cancer (NSCLC) whose disease has progressed on prior osimertinib treatment.\n\nParticipants will be randomized in a 1:1:1 ratio to one of the following intervention groups:\n\n1. Dato-DXd + osimertinib combination therapy\n2. Dato-DXd monotherapy\n3. Platinum-based doublet chemotherapy\n\nParticipants will receive study intervention until Response Evaluation Criteria in Solid Tumors, Version 1.1 (RECIST v1.1) -defined radiological progression by the investigator, unacceptable toxicity, or other discontinuation criterion is met.\n\nAfter study intervention discontinuation, all participants will undergo an end of treatment (EoT) visit within 35 days of discontinuation and will be followed up for safety assessments 28 (+ 7) days after their last dose of study intervention."},"conditionsModule":{"conditions":["Metastatic Non-small Cell Lung Cancer"],"keywords":["Epidermal growth factor receptor gene mutation","Standard of Care","Locally, advanced carcinoma","Metastatic carcinoma","Non-small cell lung cancer","Dato-dxd","Datopotamab deruxtecan","Osimertinib","Tagrisso","Pemetrexed","Carboplatin","Cisplatin"]},"designModule":{"studyType":"INTERVENTIONAL","phases":["PHASE3"],"designInfo":{"allocation":"RANDOMIZED","interventionModel":"PARALLEL","primaryPurpose":"TREATMENT","maskingInfo":{"masking":"NONE"}},"enrollmentInfo":{"count":630,"type":"ESTIMATED"}},"armsInterventionsModule":{"armGroups":[{"label":"Group 1: Dato-DXd + Osimertinib Combination Therapy","type":"EXPERIMENTAL","description":"Participants will receive Dato-DXd 6 mg/kg as IV infusion Q3W on Day 1 of every 21-day cycle, and osimertinib 80 milligrams (mg) once daily (QD) orally, until RECIST v1.1-defined radiological progression by investigator, unacceptable toxicity, or other discontinuation criterion is met.","interventionNames":["Drug: Dato-DXd","Drug: Osimertinib"]},{"label":"Group 2: Dato-DXd Monotherapy","type":"EXPERIMENTAL","description":"Participants will receive Dato-DXd 6 milligrams per kilogram (mg/kg) as intravenous (IV) infusion every 3 weeks (Q3W) on Day 1 of every 21-day cycle, until RECIST v1.1-defined radiological progression by investigator, unacceptable toxicity, or other discontinuation criterion is met.","interventionNames":["Drug: Dato-DXd"]},{"label":"Group 3: Platinum-based Doublet Chemotherapy","type":"EXPERIMENTAL","description":"Participants will receive pemetrexed 500 milligrams per meter square (mg/m2) in combination with carboplatin (AUC5) or cisplatin 75 mg/m2 as IV infusion Q3W for 4 cycles followed by pemetrexed maintenance 500 mg/m2 as IV infusion Q3W, until RECIST v1.1-defined radiological progression by investigator, unacceptable toxicity, or another discontinuation criterion is met.","interventionNames":["Drug: Pemetrexed","Drug: Carboplatin","Drug: Cisplatin"]}],"interventions":[{"type":"DRUG","name":"Dato-DXd","description":"Dato-DXd will be administered as IV infusion.","armGroupLabels":["Group 1: Dato-DXd + Osimertinib Combination Therapy","Group 2: Dato-DXd Monotherapy"],"otherNames":["DS-1062a"]},{"type":"DRUG","name":"Osimertinib","description":"Osimertinib will be administered orally.","armGroupLabels":["Group 1: Dato-DXd + Osimertinib Combination Therapy"],"otherNames":["Tagrisso","AZD9291"]},{"type":"DRUG","name":"Pemetrexed","description":"Pemetrexed will be administered as IV infusion.","armGroupLabels":["Group 3: Platinum-based Doublet Chemotherapy"]},{"type":"DRUG","name":"Carboplatin","description":"Carboplatin will be administered as IV infusion.","armGroupLabels":["Group 3: Platinum-based Doublet Chemotherapy"]},{"type":"DRUG","name":"Cisplatin","description":"Cisplatin will be administered as IV infusion.","armGroupLabels":["Group 3: Platinum-based Doublet Chemotherapy"]}]},"outcomesModule":{"primaryOutcomes":[{"measure":"Progression free Survival (PFS)","description":"PFS is defined as the time from randomization to Blinded Independent Central Review (BICR)-assessed progression using RECIST v1.1 or death due to any cause, regardless of whether the participant withdraws from study therapy, receives other anti-cancer therapy, or clinical progression.","timeFrame":"Up to 2.5 years"}],"secondaryOutcomes":[{"measure":"Overall Survival (OS)","description":"OS is defined as time from randomization until the date of death due to any cause.","timeFrame":"Up to 3.5 years"},{"measure":"Central Nervous System Progression-free Survival (CNS PFS)","description":"CNS PFS is defined as the time from randomization to BICR confirmed progression in the CNS or death due to any cause, regardless of whether the participant withdraws from study therapy, receives other anti-cancer therapy, or clinically progresses prior to BICR confirmed CNS modified RECIST v1.1 progression.","timeFrame":"Up to 2.5 years"},{"measure":"Objective Response Rate (ORR)","description":"ORR is defined as the percentage of participants who have a confirmed complete response (CR) or confirmed partial response (PR), as determined by BICR per RECIST v1.1.","timeFrame":"Up to 2.5 years"},{"measure":"Duration of Response (DoR)","description":"DoR is defined as the time from the date of first documented response until date of documented progression per RECIST v1.1, as assessed by BICR or death due to any cause.","timeFrame":"Up to 2.5 years"},{"measure":"Progression-free Survival-2 (PFS-2)","description":"PFS2 is defined as the time from randomization to the earliest of the progression event (following the initial investigator assessed progression), after first subsequent therapy, or death.","timeFrame":"Up to 3.5 years"},{"measure":"Objective Response Rate (ORR) Using CNS Modified RECIST v1.1","description":"ORR is defined as the percentage of participants who have a confirmed CR or confirmed PR, using CNS modified RECIST v1.1.","timeFrame":"Up to 2.5 years"},{"measure":"Duration of Response (DoR) Using CNS Modified RECIST v1.1","description":"DoR is defined as the time from the date of first documented response until date of documented progression or death due to any cause using CNS modified RECIST v1.1.","timeFrame":"Up to 2.5 years"},{"measure":"Time to Deterioration in Pulmonary Symptoms","description":"Time to deterioration (in pulmonary symptoms \\[dyspnea, cough, and chest pain\\]) is defined as the time from randomization until the date of deterioration. Deterioration is defined as change from baseline that reaches a meaningful change threshold.","timeFrame":"Up to 3.5 years"},{"measure":"Time to Deterioration in Physical Functioning","description":"Time to deterioration in physical functioning as measured by Patient-Reported Outcomes Measurement Information System (PROMIS) Physical Function short form 8c will be evaluated. Time to deterioration (in physical functionating) is defined as the time from randomization until the date of deterioration. Deterioration is defined as change from baseline that reaches a meaningful change threshold.","timeFrame":"Up to 3.5 years"},{"measure":"Time to Deterioration in Global Health Status (GHS)/Quality of Life (QoL)","description":"Time to deterioration in GHS/QoL as measured by the GHS/QoL scale from EORTC IL172 will be reported. Time to deterioration (in GHS/QoL) is defined as the time from randomization until the date of deterioration. Deterioration is defined as change from baseline that reaches a meaningful change threshold.","timeFrame":"Up to 3.5 years"},{"measure":"Pharmacokinetics (PK) of Dato-DXd","description":"Concentration of Dato-DXd, total anti-TROP2 antibody and DXd in plasma.","timeFrame":"Up to 3.5 years"},{"measure":"Immunogenicity of Dato-DXd","description":"Presence of antidrug antibody (ADAs) for Dato-DXd (confirmatory results: positive or negative, titers).","timeFrame":"Up to 3.5 years"}]},"eligibilityModule":{"eligibilityCriteria":"Inclusion Criteria:\n\n* Histologically or cytologically confirmed non-squamous NSCLC.\n* Must have evidence of documented pre-existing EGFRm information (EGFRm known to be associated with (epidermal growth factor receptor \\[EGFR\\] tyrosine kinase inhibitor \\[TKis\\] sensitivity \\[Ex19del, L858R, G719X, S768I, or L861Q\\], either alone or in combination with other EGFR mutations, which may include T790M).\n* Documented extra-cranial radiologic progression on prior osimertinib monotherapy (as most recent line of treatment) in the adjuvant, locally advanced, or metastatic setting.\n* Less than or equal to (\\<=2) prior lines of EGFR TKIs (osimertinib is the only permitted prior third generation EGFR TKI).\n* At least one lesion, not previously irradiated, that qualifies as a RECIST v1.1 TL at baseline and can be accurately measured at baseline.\n* World Health Organization (WHO)/Eastern Cooperative Oncology Group (ECOG) performance status of 0 or 1.\n* Adequate bone marrow reserve and organ function within 7 days before randomization.\n\nExclusion Criteria:\n\n* Use of chemotherapy, vascular endothelial growth factor inhibitor, immunotherapy or any anti-cancer therapy in the metastatic setting. Platinum-based chemotherapy in non-metastatic setting within 12 months prior to randomization.\n* History of another primary malignancy except for malignancy treated with curative intent with no known active disease within 2 years before the first dose of study intervention.\n* Any evidence of severe or uncontrolled systemic diseases, including, but not limited to active bleeding diseases, active infection, active ILD/pneumonitis, cardiac disease.\n* Has significant third-space fluid retention (example \\[eg.\\], ascites or pleural effusion) as judged by the investigator and is not amenable for required repeated drainage.\n* History of non-infectious ILD/pneumonitis including radiation pneumonitis that required steroids or drug-induced ILD, has current ILD/pneumonitis, or has suspected ILD/pneumonitis that cannot be ruled out by imaging at screening.\n* Has severe pulmonary function compromise resulting from intercurrent pulmonary illnesses.\n* Unstable spinal cord compression and/or unstable brain metastases.\n* Participants with symptomatic brain metastases (including leptomeningeal involvement).\n* Clinically significant corneal disease.\n* Uncontrolled infection requiring IV antibiotics, antivirals, or antifungals, suspected infections or inability to rule out infections.\n* Has known human immunodeficiency virus (HIV) infection that is not well controlled.","healthyVolunteers":false,"sex":"ALL","minimumAge":"18 Years","stdAges":["ADULT","OLDER_ADULT"]},"contactsLocationsModule":{"centralContacts":[{"name":"AstraZeneca Clinical Study Information Center","role":"CONTACT","phone":"1-877-240-9479","email":"information.center@astrazeneca.com"}],"locations":[{"facility":"Research Site","status":"RECRUITING","city":"Fayetteville","state":"Arkansas","zip":"72703","country":"United States","geoPoint":{"lat":36.06258,"lon":-94.15743}},{"facility":"Research Site","status":"NOT_YET_RECRUITING","city":"Duarte","state":"California","zip":"91010","country":"United States","geoPoint":{"lat":34.13945,"lon":-117.97729}},{"facility":"Research Site","status":"RECRUITING","city":"Fountain Valley","state":"California","zip":"92708","country":"United States","geoPoint":{"lat":33.70918,"lon":-117.95367}},{"facility":"Research Site","status":"RECRUITING","city":"La Jolla","state":"California","zip":"92093","country":"United States","geoPoint":{"lat":32.84727,"lon":-117.2742}},{"facility":"Research Site","status":"NOT_YET_RECRUITING","city":"Los Angeles","state":"California","zip":"90048","country":"United States","geoPoint":{"lat":34.05223,"lon":-118.24368}},{"facility":"Research Site","status":"NOT_YET_RECRUITING","city":"San Diego","state":"California","zip":"92123","country":"United States","geoPoint":{"lat":32.71533,"lon":-117.15726}},{"facility":"Research Site","status":"NOT_YET_RECRUITING","city":"Fort Collins","state":"Colorado","zip":"80528","country":"United States","geoPoint":{"lat":40.58526,"lon":-105.08442}},{"facility":"Research Site","status":"NOT_YET_RECRUITING","city":"Jacksonville","state":"Florida","zip":"32256","country":"United States","geoPoint":{"lat":30.33218,"lon":-81.65565}},{"facility":"Research Site","status":"RECRUITING","city":"Athens","state":"Georgia","zip":"30607","country":"United States","geoPoint":{"lat":33.96095,"lon":-83.37794}},{"facility":"Research Site","status":"NOT_YET_RECRUITING","city":"Chicago","state":"Illinois","zip":"60611","country":"United States","geoPoint":{"lat":41.85003,"lon":-87.65005}},{"facility":"Research Site","status":"NOT_YET_RECRUITING","city":"Evanston","state":"Illinois","zip":"60201-1718","country":"United States","geoPoint":{"lat":42.04114,"lon":-87.69006}},{"facility":"Research Site","status":"NOT_YET_RECRUITING","city":"Baltimore","state":"Maryland","zip":"21201","country":"United States","geoPoint":{"lat":39.29038,"lon":-76.61219}},{"facility":"Research Site","status":"RECRUITING","city":"Bethesda","state":"Maryland","zip":"20817","country":"United States","geoPoint":{"lat":38.98067,"lon":-77.10026}},{"facility":"Research Site","status":"NOT_YET_RECRUITING","city":"Boston","state":"Massachusetts","zip":"02114","country":"United States","geoPoint":{"lat":42.35843,"lon":-71.05977}},{"facility":"Research Site","status":"NOT_YET_RECRUITING","city":"Boston","state":"Massachusetts","zip":"02215","country":"United States","geoPoint":{"lat":42.35843,"lon":-71.05977}},{"facility":"Research Site","status":"RECRUITING","city":"Detroit","state":"Michigan","zip":"48202","country":"United States","geoPoint":{"lat":42.33143,"lon":-83.04575}},{"facility":"Research Site","status":"NOT_YET_RECRUITING","city":"Omaha","state":"Nebraska","zip":"68124","country":"United States","geoPoint":{"lat":41.25626,"lon":-95.94043}},{"facility":"Research Site","status":"RECRUITING","city":"Morristown","state":"New Jersey","zip":"07960","country":"United States","geoPoint":{"lat":40.79677,"lon":-74.48154}},{"facility":"Research Site","status":"RECRUITING","city":"Northfield","state":"New Jersey","zip":"08225","country":"United States","geoPoint":{"lat":39.37039,"lon":-74.55015}},{"facility":"Research Site","status":"RECRUITING","city":"Bronx","state":"New York","zip":"10461","country":"United States","geoPoint":{"lat":40.84985,"lon":-73.86641}},{"facility":"Research Site","status":"SUSPENDED","city":"New York","state":"New York","zip":"10016","country":"United States","geoPoint":{"lat":40.71427,"lon":-74.00597}},{"facility":"Research Site","status":"RECRUITING","city":"New York","state":"New York","zip":"10065","country":"United States","geoPoint":{"lat":40.71427,"lon":-74.00597}},{"facility":"Research Site","status":"NOT_YET_RECRUITING","city":"Philadelphia","state":"Pennsylvania","zip":"19107","country":"United States","geoPoint":{"lat":39.95233,"lon":-75.16379}},{"facility":"Research Site","status":"NOT_YET_RECRUITING","city":"Pittsburgh","state":"Pennsylvania","zip":"15232","country":"United States","geoPoint":{"lat":40.44062,"lon":-79.99589}},{"facility":"Research Site","status":"RECRUITING","city":"Chattanooga","state":"Tennessee","zip":"37404","country":"United States","geoPoint":{"lat":35.04563,"lon":-85.30968}},{"facility":"Research Site","status":"RECRUITING","city":"Nashville","state":"Tennessee","zip":"37203","country":"United States","geoPoint":{"lat":36.16589,"lon":-86.78444}},{"facility":"Research Site","status":"RECRUITING","city":"Fairfax","state":"Virginia","zip":"22031","country":"United States","geoPoint":{"lat":38.84622,"lon":-77.30637}},{"facility":"Research Site","status":"NOT_YET_RECRUITING","city":"Fitzroy","zip":"VIC3065","country":"Australia","geoPoint":{"lat":-37.79839,"lon":144.97833}},{"facility":"Research Site","status":"RECRUITING","city":"Heidelberg","zip":"3084","country":"Australia","geoPoint":{"lat":-37.75,"lon":145.06667}},{"facility":"Research Site","status":"RECRUITING","city":"Kogarah","zip":"2217","country":"Australia","geoPoint":{"lat":-33.98333,"lon":151.11667}},{"facility":"Research Site","status":"RECRUITING","city":"Liverpool","zip":"2170","country":"Australia","geoPoint":{"lat":-33.90011,"lon":150.93328}},{"facility":"Research Site","status":"RECRUITING","city":"Nedlands","zip":"6009","country":"Australia","geoPoint":{"lat":-31.98184,"lon":115.8073}},{"facility":"Research Site","status":"RECRUITING","city":"Port Macquarie","zip":"2444","country":"Australia","geoPoint":{"lat":-31.43084,"lon":152.90894}},{"facility":"Research Site","status":"RECRUITING","city":"St Leonards","zip":"2065","country":"Australia","geoPoint":{"lat":-33.82344,"lon":151.19836}},{"facility":"Research Site","status":"RECRUITING","city":"Westmead","zip":"2145","country":"Australia","geoPoint":{"lat":-33.80383,"lon":150.98768}},{"facility":"Research Site","status":"NOT_YET_RECRUITING","city":"Woodville","zip":"5011","country":"Australia","geoPoint":{"lat":-34.88333,"lon":138.55}},{"facility":"Research Site","status":"RECRUITING","city":"Woolloongabba","zip":"4102","country":"Australia","geoPoint":{"lat":-27.48855,"lon":153.03655}},{"facility":"Research Site","status":"NOT_YET_RECRUITING","city":"Charleroi","zip":"6060","country":"Belgium","geoPoint":{"lat":50.41136,"lon":4.44448}},{"facility":"Research Site","status":"RECRUITING","city":"Edegem","zip":"2650","country":"Belgium","geoPoint":{"lat":51.15662,"lon":4.44504}},{"facility":"Research Site","status":"RECRUITING","city":"Gent","zip":"9000","country":"Belgium","geoPoint":{"lat":51.05,"lon":3.71667}},{"facility":"Research Site","status":"RECRUITING","city":"Ghent","zip":"9000","country":"Belgium","geoPoint":{"lat":51.05,"lon":3.71667}},{"facility":"Research Site","status":"RECRUITING","city":"Hasselt","zip":"3500","country":"Belgium","geoPoint":{"lat":50.93106,"lon":5.33781}},{"facility":"Research Site","status":"NOT_YET_RECRUITING","city":"Jette","zip":"1090","country":"Belgium","geoPoint":{"lat":50.87309,"lon":4.33419}},{"facility":"Research Site","status":"NOT_YET_RECRUITING","city":"La Louvière","zip":"7100","country":"Belgium","geoPoint":{"lat":50.48657,"lon":4.18785}},{"facility":"Research Site","status":"NOT_YET_RECRUITING","city":"Leuven","zip":"3000","country":"Belgium","geoPoint":{"lat":50.87959,"lon":4.70093}},{"facility":"Research Site","status":"NOT_YET_RECRUITING","city":"Namur","zip":"5000","country":"Belgium","geoPoint":{"lat":50.4669,"lon":4.86746}},{"facility":"Research Site","status":"NOT_YET_RECRUITING","city":"Roeselare","zip":"8800","country":"Belgium","geoPoint":{"lat":50.94653,"lon":3.12269}},{"facility":"Research Site","status":"NOT_YET_RECRUITING","city":"Barretos","zip":"14784-400","country":"Brazil","geoPoint":{"lat":-20.55722,"lon":-48.56778}},{"facility":"Research Site","status":"NOT_YET_RECRUITING","city":"Betim","zip":"32671-550","country":"Brazil","geoPoint":{"lat":-19.96778,"lon":-44.19833}},{"facility":"Research Site","status":"NOT_YET_RECRUITING","city":"Blumenau","zip":"89010-340","country":"Brazil","geoPoint":{"lat":-26.91944,"lon":-49.06611}},{"facility":"Research Site","status":"NOT_YET_RECRUITING","city":"Florianópolis","zip":"88040-970","country":"Brazil","geoPoint":{"lat":-27.59667,"lon":-48.54917}},{"facility":"Research Site","status":"NOT_YET_RECRUITING","city":"Itajai","zip":"88301-220","country":"Brazil","geoPoint":{"lat":-26.90778,"lon":-48.66194}},{"facility":"Research Site","status":"NOT_YET_RECRUITING","city":"Pelotas","zip":"96020-080","country":"Brazil","geoPoint":{"lat":-31.77194,"lon":-52.3425}},{"facility":"Research Site","status":"NOT_YET_RECRUITING","city":"Porto Alegre","zip":"90035-074","country":"Brazil","geoPoint":{"lat":-30.03306,"lon":-51.23}},{"facility":"Research Site","status":"NOT_YET_RECRUITING","city":"Porto Alegre","zip":"90470-340","country":"Brazil","geoPoint":{"lat":-30.03306,"lon":-51.23}},{"facility":"Research Site","status":"NOT_YET_RECRUITING","city":"Porto Alegre","zip":"90610-000","country":"Brazil","geoPoint":{"lat":-30.03306,"lon":-51.23}},{"facility":"Research Site","status":"NOT_YET_RECRUITING","city":"Rio de Janeiro","zip":"22250-905","country":"Brazil","geoPoint":{"lat":-22.90278,"lon":-43.2075}},{"facility":"Research Site","status":"NOT_YET_RECRUITING","city":"Rio de Janeiro","zip":"22281-100","country":"Brazil","geoPoint":{"lat":-22.90278,"lon":-43.2075}},{"facility":"Research Site","status":"NOT_YET_RECRUITING","city":"Rio de Janeiro","zip":"22775-001","country":"Brazil","geoPoint":{"lat":-22.90278,"lon":-43.2075}},{"facility":"Research Site","status":"NOT_YET_RECRUITING","city":"Sao Paulo","zip":"01327-001","country":"Brazil","geoPoint":{"lat":-23.5475,"lon":-46.63611}},{"facility":"Research Site","status":"NOT_YET_RECRUITING","city":"São Paulo","zip":"01323-900","country":"Brazil","geoPoint":{"lat":-23.5475,"lon":-46.63611}},{"facility":"Research Site","status":"RECRUITING","city":"Brampton","state":"Ontario","zip":"L6R 3J7","country":"Canada","geoPoint":{"lat":43.68341,"lon":-79.76633}},{"facility":"Research Site","status":"WITHDRAWN","city":"Newmarket","state":"Ontario","zip":"L3Y 2P9","country":"Canada","geoPoint":{"lat":44.05011,"lon":-79.46631}},{"facility":"Research Site","status":"RECRUITING","city":"Toronto","state":"Ontario","zip":"M4N 3M5","country":"Canada","geoPoint":{"lat":43.70011,"lon":-79.4163}},{"facility":"Research Site","status":"NOT_YET_RECRUITING","city":"Toronto","state":"Ontario","zip":"M5G 1Z5","country":"Canada","geoPoint":{"lat":43.70011,"lon":-79.4163}},{"facility":"Research Site","status":"NOT_YET_RECRUITING","city":"Montreal","state":"Quebec","zip":"H4A 3J1","country":"Canada","geoPoint":{"lat":45.50884,"lon":-73.58781}},{"facility":"Research Site","status":"NOT_YET_RECRUITING","city":"Quebec","zip":"G1R 2J6","country":"Canada","geoPoint":{"lat":46.81228,"lon":-71.21454}},{"facility":"Research Site","status":"RECRUITING","city":"Baoding","zip":"071000","country":"China","geoPoint":{"lat":38.85111,"lon":115.49028}},{"facility":"Research Site","status":"NOT_YET_RECRUITING","city":"Beijing","zip":"100005","country":"China","geoPoint":{"lat":39.9075,"lon":116.39723}},{"facility":"Research Site","status":"RECRUITING","city":"Beijing","zip":"100034","country":"China","geoPoint":{"lat":39.9075,"lon":116.39723}},{"facility":"Research Site","status":"NOT_YET_RECRUITING","city":"Beijing","zip":"100044","country":"China","geoPoint":{"lat":39.9075,"lon":116.39723}},{"facility":"Research Site","status":"RECRUITING","city":"Beijing","zip":"100050","country":"China","geoPoint":{"lat":39.9075,"lon":116.39723}},{"facility":"Research Site","status":"NOT_YET_RECRUITING","city":"Beijing","zip":"100142","country":"China","geoPoint":{"lat":39.9075,"lon":116.39723}},{"facility":"Research Site","status":"NOT_YET_RECRUITING","city":"Beijing","zip":"100730","country":"China","geoPoint":{"lat":39.9075,"lon":116.39723}},{"facility":"Research Site","status":"RECRUITING","city":"Beijing","zip":"101199","country":"China","geoPoint":{"lat":39.9075,"lon":116.39723}},{"facility":"Research Site","status":"RECRUITING","city":"Bengbu","zip":"233004","country":"China","geoPoint":{"lat":32.94083,"lon":117.36083}},{"facility":"Research Site","status":"NOT_YET_RECRUITING","city":"Changchun","zip":"130012","country":"China","geoPoint":{"lat":43.88,"lon":125.32278}},{"facility":"Research Site","status":"RECRUITING","city":"Changchun","zip":"130021","country":"China","geoPoint":{"lat":43.88,"lon":125.32278}},{"facility":"Research Site","status":"NOT_YET_RECRUITING","city":"Changsha","zip":"410013","country":"China","geoPoint":{"lat":28.19874,"lon":112.97087}},{"facility":"Research Site","status":"RECRUITING","city":"Changsha","zip":"410013","country":"China","geoPoint":{"lat":28.19874,"lon":112.97087}},{"facility":"Research Site","status":"RECRUITING","city":"Chengdu","zip":"610041","country":"China","geoPoint":{"lat":30.66667,"lon":104.06667}},{"facility":"Research Site","status":"RECRUITING","city":"Deyang","zip":"618000","country":"China","geoPoint":{"lat":31.13019,"lon":104.38198}},{"facility":"Research Site","status":"RECRUITING","city":"Ganzhou","zip":"341099","country":"China"},{"facility":"Research Site","status":"RECRUITING","city":"Guangzhou","zip":"510180","country":"China","geoPoint":{"lat":23.11667,"lon":113.25}},{"facility":"Research Site","status":"NOT_YET_RECRUITING","city":"Hangzhou","zip":"310003","country":"China","geoPoint":{"lat":30.29365,"lon":120.16142}},{"facility":"Research Site","status":"RECRUITING","city":"Hangzhou","zip":"310022","country":"China","geoPoint":{"lat":30.29365,"lon":120.16142}},{"facility":"Research Site","status":"RECRUITING","city":"Hefei","zip":"230001","country":"China","geoPoint":{"lat":31.86389,"lon":117.28083}},{"facility":"Research Site","status":"RECRUITING","city":"Hengyang","zip":"421001","country":"China","geoPoint":{"lat":26.88946,"lon":112.61888}},{"facility":"Research Site","status":"RECRUITING","city":"Huaian","zip":"223399","country":"China","geoPoint":{"lat":33.50389,"lon":119.14417}},{"facility":"Research Site","status":"RECRUITING","city":"Jinan","zip":"250013","country":"China","geoPoint":{"lat":36.66833,"lon":116.99722}},{"facility":"Research Site","status":"RECRUITING","city":"Linyi","zip":"276000","country":"China","geoPoint":{"lat":35.06306,"lon":118.34278}},{"facility":"Research Site","status":"RECRUITING","city":"Luoyang","zip":"471003","country":"China","geoPoint":{"lat":34.68361,"lon":112.45361}},{"facility":"Research Site","status":"RECRUITING","city":"Luzhou","zip":"646000","country":"China"},{"facility":"Research Site","status":"RECRUITING","city":"Nanchang","zip":"330006","country":"China","geoPoint":{"lat":28.68396,"lon":115.85306}},{"facility":"Research Site","status":"NOT_YET_RECRUITING","city":"Nanjing","zip":"210009","country":"China","geoPoint":{"lat":32.06167,"lon":118.77778}},{"facility":"Research Site","status":"RECRUITING","city":"Shanghai","zip":"200433","country":"China","geoPoint":{"lat":31.22222,"lon":121.45806}},{"facility":"Research Site","status":"RECRUITING","city":"Shantou","country":"China","geoPoint":{"lat":23.36814,"lon":116.71479}},{"facility":"Research Site","status":"RECRUITING","city":"Shenyang","zip":"110004","country":"China","geoPoint":{"lat":41.79222,"lon":123.43278}},{"facility":"Research Site","status":"RECRUITING","city":"Shenyang","zip":"110042","country":"China","geoPoint":{"lat":41.79222,"lon":123.43278}},{"facility":"Research Site","status":"RECRUITING","city":"Tianjin","zip":"300201","country":"China","geoPoint":{"lat":39.14222,"lon":117.17667}},{"facility":"Research Site","status":"RECRUITING","city":"Tianjin","zip":"CN-300052","country":"China","geoPoint":{"lat":39.14222,"lon":117.17667}},{"facility":"Research Site","status":"RECRUITING","city":"Weifang","zip":"261000","country":"China","geoPoint":{"lat":36.71,"lon":119.10194}},{"facility":"Research Site","status":"RECRUITING","city":"Wuhan","zip":"430060","country":"China","geoPoint":{"lat":30.58333,"lon":114.26667}},{"facility":"Research Site","status":"RECRUITING","city":"Zhengzhou","zip":"450000","country":"China","geoPoint":{"lat":34.75778,"lon":113.64861}},{"facility":"Research Site","status":"RECRUITING","city":"Zhengzhou","zip":"450001","country":"China","geoPoint":{"lat":34.75778,"lon":113.64861}},{"facility":"Research Site","status":"NOT_YET_RECRUITING","city":"Zhengzhou","zip":"450008","country":"China","geoPoint":{"lat":34.75778,"lon":113.64861}},{"facility":"Research Site","status":"RECRUITING","city":"ANGERS Cedex 9","zip":"49933","country":"France","geoPoint":{"lat":47.46667,"lon":-0.55}},{"facility":"Research Site","status":"RECRUITING","city":"Avignon","zip":"84902","country":"France","geoPoint":{"lat":43.94834,"lon":4.80892}},{"facility":"Research Site","status":"RECRUITING","city":"Bordeaux","zip":"33076","country":"France","geoPoint":{"lat":44.84044,"lon":-0.5805}},{"facility":"Research Site","status":"NOT_YET_RECRUITING","city":"Caen","zip":"14000","country":"France","geoPoint":{"lat":49.18585,"lon":-0.35912}},{"facility":"Research Site","status":"RECRUITING","city":"Lille Cedex","zip":"59037","country":"France","geoPoint":{"lat":50.63297,"lon":3.05858}},{"facility":"Research Site","status":"RECRUITING","city":"Montpellier","zip":"34298","country":"France","geoPoint":{"lat":43.61092,"lon":3.87723}},{"facility":"Research Site","status":"NOT_YET_RECRUITING","city":"Nantes","zip":"44093","country":"France","geoPoint":{"lat":47.21725,"lon":-1.55336}},{"facility":"Research Site","status":"RECRUITING","city":"Paris Cedex 14","zip":"75014","country":"France","geoPoint":{"lat":48.85341,"lon":2.3488}},{"facility":"Research Site","status":"NOT_YET_RECRUITING","city":"Paris","zip":"75970","country":"France","geoPoint":{"lat":48.85341,"lon":2.3488}},{"facility":"Research Site","status":"RECRUITING","city":"Pessac","zip":"33604","country":"France","geoPoint":{"lat":44.81011,"lon":-0.64129}},{"facility":"Research Site","status":"NOT_YET_RECRUITING","city":"Quimper","zip":"29000","country":"France","geoPoint":{"lat":48.0,"lon":-4.1}},{"facility":"Research Site","status":"RECRUITING","city":"Toulon Armees","zip":"83800","country":"France"},{"facility":"Research Site","status":"NOT_YET_RECRUITING","city":"Toulouse Cedex 9","zip":"31400","country":"France","geoPoint":{"lat":43.60426,"lon":1.44367}},{"facility":"Research Site","status":"NOT_YET_RECRUITING","city":"Villejuif Cedex","zip":"94805","country":"France","geoPoint":{"lat":48.7939,"lon":2.35992}},{"facility":"Research Site","status":"NOT_YET_RECRUITING","city":"Berlin-Zehlendorf","zip":"14165","country":"Germany","geoPoint":{"lat":52.43333,"lon":13.25}},{"facility":"Research Site","status":"NOT_YET_RECRUITING","city":"Berlin","zip":"12351","country":"Germany","geoPoint":{"lat":52.52437,"lon":13.41053}},{"facility":"Research Site","status":"NOT_YET_RECRUITING","city":"Bonn","zip":"53127","country":"Germany","geoPoint":{"lat":50.73438,"lon":7.09549}},{"facility":"Research Site","status":"NOT_YET_RECRUITING","city":"Essen","zip":"45122","country":"Germany","geoPoint":{"lat":51.45657,"lon":7.01228}},{"facility":"Research Site","status":"RECRUITING","city":"Georgsmarienhuette","zip":"49124","country":"Germany"},{"facility":"Research Site","status":"RECRUITING","city":"Großhansdorf","zip":"22927","country":"Germany","geoPoint":{"lat":53.66667,"lon":10.28333}},{"facility":"Research Site","status":"NOT_YET_RECRUITING","city":"Hamburg","zip":"20251","country":"Germany","geoPoint":{"lat":53.57532,"lon":10.01534}},{"facility":"Research Site","status":"NOT_YET_RECRUITING","city":"Hamburg","zip":"21075","country":"Germany","geoPoint":{"lat":53.57532,"lon":10.01534}},{"facility":"Research Site","status":"NOT_YET_RECRUITING","city":"Heidelberg","zip":"69126","country":"Germany","geoPoint":{"lat":49.40768,"lon":8.69079}},{"facility":"Research Site","status":"NOT_YET_RECRUITING","city":"Kempten","zip":"87439","country":"Germany","geoPoint":{"lat":47.72674,"lon":10.31389}},{"facility":"Research Site","status":"NOT_YET_RECRUITING","city":"Löwenstein","zip":"74245","country":"Germany","geoPoint":{"lat":49.0954,"lon":9.38069}},{"facility":"Research Site","status":"NOT_YET_RECRUITING","city":"Nürnberg","zip":"90419","country":"Germany","geoPoint":{"lat":49.45421,"lon":11.07752}},{"facility":"Research Site","status":"RECRUITING","city":"Oldenburg","zip":"26121","country":"Germany","geoPoint":{"lat":53.14118,"lon":8.21467}},{"facility":"Research Site","status":"RECRUITING","city":"Athens","zip":"11526","country":"Greece","geoPoint":{"lat":37.97945,"lon":23.71622}},{"facility":"Research Site","status":"NOT_YET_RECRUITING","city":"Athens","zip":"11527","country":"Greece","geoPoint":{"lat":37.97945,"lon":23.71622}},{"facility":"Research Site","status":"NOT_YET_RECRUITING","city":"Athens","zip":"12462","country":"Greece","geoPoint":{"lat":37.97945,"lon":23.71622}},{"facility":"Research Site","status":"NOT_YET_RECRUITING","city":"Athens","zip":"18547","country":"Greece","geoPoint":{"lat":37.97945,"lon":23.71622}},{"facility":"Research Site","status":"NOT_YET_RECRUITING","city":"Heraklion","zip":"71110","country":"Greece","geoPoint":{"lat":35.32787,"lon":25.14341}},{"facility":"Research Site","status":"RECRUITING","city":"Thessaloniki","zip":"552 36","country":"Greece","geoPoint":{"lat":40.64361,"lon":22.93086}},{"facility":"Research Site","status":"NOT_YET_RECRUITING","city":"Thessaloniki","zip":"56249","country":"Greece","geoPoint":{"lat":40.64361,"lon":22.93086}},{"facility":"Research Site","status":"NOT_YET_RECRUITING","city":"Thessaloniki","zip":"57001","country":"Greece","geoPoint":{"lat":40.64361,"lon":22.93086}},{"facility":"Research Site","status":"NOT_YET_RECRUITING","city":"Thessaloniki","zip":"57010","country":"Greece","geoPoint":{"lat":40.64361,"lon":22.93086}},{"facility":"Research Site","status":"NOT_YET_RECRUITING","city":"Hong Kong","zip":"999077","country":"Hong Kong","geoPoint":{"lat":22.27832,"lon":114.17469}},{"facility":"Research Site","status":"NOT_YET_RECRUITING","city":"Hong Kong","country":"Hong Kong","geoPoint":{"lat":22.27832,"lon":114.17469}},{"facility":"Research Site","status":"NOT_YET_RECRUITING","city":"Shatin","zip":"00000","country":"Hong Kong","geoPoint":{"lat":22.38333,"lon":114.18333}},{"facility":"Research Site","status":"RECRUITING","city":"Amravati","zip":"444606","country":"India","geoPoint":{"lat":20.93333,"lon":77.75}},{"facility":"Research Site","status":"NOT_YET_RECRUITING","city":"Bhubaneswar","zip":"751019","country":"India","geoPoint":{"lat":20.27241,"lon":85.83385}},{"facility":"Research Site","status":"RECRUITING","city":"Hyderabad","zip":"500034","country":"India","geoPoint":{"lat":17.38405,"lon":78.45636}},{"facility":"Research Site","status":"RECRUITING","city":"Kolhapur","zip":"416234","country":"India","geoPoint":{"lat":16.69563,"lon":74.23167}},{"facility":"Research Site","status":"NOT_YET_RECRUITING","city":"Mumbai","zip":"400012","country":"India","geoPoint":{"lat":19.07283,"lon":72.88261}},{"facility":"Research Site","status":"RECRUITING","city":"Mysuru","zip":"570017","country":"India","geoPoint":{"lat":12.29791,"lon":76.63925}},{"facility":"Research Site","status":"RECRUITING","city":"Namakkal","zip":"637001","country":"India","geoPoint":{"lat":11.22126,"lon":78.16524}},{"facility":"Research Site","status":"RECRUITING","city":"Pune","zip":"411001","country":"India","geoPoint":{"lat":18.51957,"lon":73.85535}},{"facility":"Research Site","status":"RECRUITING","city":"Raipur","zip":"492001","country":"India","geoPoint":{"lat":21.23333,"lon":81.63333}},{"facility":"Research Site","status":"RECRUITING","city":"Rajasthan","zip":"313001","country":"India"},{"facility":"Research Site","status":"NOT_YET_RECRUITING","city":"Ranchi","zip":"834001","country":"India","geoPoint":{"lat":23.34316,"lon":85.3094}},{"facility":"Research Site","status":"RECRUITING","city":"Thane","zip":"401107","country":"India","geoPoint":{"lat":19.19704,"lon":72.96355}},{"facility":"Research Site","status":"NOT_YET_RECRUITING","city":"Trivandrum","zip":"695011","country":"India","geoPoint":{"lat":8.4855,"lon":76.94924}},{"facility":"Research Site","status":"NOT_YET_RECRUITING","city":"Varanasi","zip":"221005","country":"India","geoPoint":{"lat":25.31668,"lon":83.01041}},{"facility":"Research Site","status":"NOT_YET_RECRUITING","city":"Beer Sheva","zip":"8410101","country":"Israel","geoPoint":{"lat":31.25181,"lon":34.7913}},{"facility":"Research Site","status":"NOT_YET_RECRUITING","city":"Haifa","zip":"3109601","country":"Israel","geoPoint":{"lat":32.81841,"lon":34.9885}},{"facility":"Research Site","status":"NOT_YET_RECRUITING","city":"Haifa","zip":"34362","country":"Israel","geoPoint":{"lat":32.81841,"lon":34.9885}},{"facility":"Research Site","status":"RECRUITING","city":"Jerusalem","zip":"91031","country":"Israel","geoPoint":{"lat":31.76904,"lon":35.21633}},{"facility":"Research Site","status":"NOT_YET_RECRUITING","city":"Jerusalem","zip":"91120","country":"Israel","geoPoint":{"lat":31.76904,"lon":35.21633}},{"facility":"Research Site","status":"RECRUITING","city":"Kfar-Saba","zip":"4428164","country":"Israel","geoPoint":{"lat":32.175,"lon":34.90694}},{"facility":"Research Site","status":"NOT_YET_RECRUITING","city":"Petach Tikva","zip":"49100","country":"Israel","geoPoint":{"lat":32.08707,"lon":34.88747}},{"facility":"Research Site","status":"RECRUITING","city":"Ramat Gan","zip":"52621","country":"Israel","geoPoint":{"lat":32.08227,"lon":34.81065}},{"facility":"Research Site","status":"RECRUITING","city":"Tel Aviv","zip":"62748","country":"Israel","geoPoint":{"lat":32.08088,"lon":34.78057}},{"facility":"Research Site","status":"RECRUITING","city":"Bari","zip":"70124","country":"Italy","geoPoint":{"lat":41.11148,"lon":16.8554}},{"facility":"Research Site","status":"RECRUITING","city":"Milano","zip":"20141","country":"Italy","geoPoint":{"lat":45.46427,"lon":9.18951}},{"facility":"Research Site","status":"RECRUITING","city":"Misterbianco","zip":"95045","country":"Italy","geoPoint":{"lat":37.51803,"lon":15.00913}},{"facility":"Research Site","status":"RECRUITING","city":"Monza","zip":"20090","country":"Italy","geoPoint":{"lat":45.58005,"lon":9.27246}},{"facility":"Research Site","status":"RECRUITING","city":"Napoli","zip":"80131","country":"Italy","geoPoint":{"lat":40.85216,"lon":14.26811}},{"facility":"Research Site","status":"NOT_YET_RECRUITING","city":"Orbassano","zip":"10043","country":"Italy","geoPoint":{"lat":45.00547,"lon":7.53813}},{"facility":"Research Site","status":"RECRUITING","city":"Padova","zip":"35128","country":"Italy","geoPoint":{"lat":45.40797,"lon":11.88586}},{"facility":"Research Site","status":"NOT_YET_RECRUITING","city":"Parma","zip":"43126","country":"Italy","geoPoint":{"lat":44.79935,"lon":10.32618}},{"facility":"Research Site","status":"RECRUITING","city":"Perugia","zip":"06100","country":"Italy","geoPoint":{"lat":43.1122,"lon":12.38878}},{"facility":"Research Site","status":"RECRUITING","city":"Roma","zip":"00144","country":"Italy","geoPoint":{"lat":41.89193,"lon":12.51133}},{"facility":"Research Site","status":"RECRUITING","city":"Rozzano","zip":"20089","country":"Italy","geoPoint":{"lat":45.38193,"lon":9.1559}},{"facility":"Research Site","status":"NOT_YET_RECRUITING","city":"Verona","zip":"37134","country":"Italy","geoPoint":{"lat":45.4299,"lon":10.98444}},{"facility":"Research Site","status":"RECRUITING","city":"Bunkyo-ku","zip":"113-8431","country":"Japan","geoPoint":{"lat":35.37517,"lon":139.92991}},{"facility":"Research Site","status":"RECRUITING","city":"Fukuoka-shi","zip":"812-8582","country":"Japan","geoPoint":{"lat":33.6,"lon":130.41667}},{"facility":"Research Site","status":"NOT_YET_RECRUITING","city":"Hiroshima-shi","zip":"734-8551","country":"Japan","geoPoint":{"lat":34.4,"lon":132.45}},{"facility":"Research Site","status":"RECRUITING","city":"Iruma-Gun","zip":"350-0495","country":"Japan"},{"facility":"Research Site","status":"RECRUITING","city":"Iwakuni-shi","zip":"740-8510","country":"Japan","geoPoint":{"lat":34.16297,"lon":132.22}},{"facility":"Research Site","status":"RECRUITING","city":"Kobe","zip":"650-0046","country":"Japan","geoPoint":{"lat":34.6913,"lon":135.183}},{"facility":"Research Site","status":"RECRUITING","city":"Koto-ku","zip":"135-8550","country":"Japan","geoPoint":{"lat":35.66667,"lon":139.81718}},{"facility":"Research Site","status":"RECRUITING","city":"Kumamoto-shi","zip":"860-8556","country":"Japan","geoPoint":{"lat":32.80589,"lon":130.69182}},{"facility":"Research Site","status":"RECRUITING","city":"Kyoto-shi","zip":"602-8566","country":"Japan","geoPoint":{"lat":35.02107,"lon":135.75385}},{"facility":"Research Site","status":"RECRUITING","city":"Matsuyama-shi","zip":"791-0280","country":"Japan","geoPoint":{"lat":33.83916,"lon":132.76574}},{"facility":"Research Site","status":"NOT_YET_RECRUITING","city":"Nagoya-shi","zip":"464-8681","country":"Japan","geoPoint":{"lat":35.18147,"lon":136.90641}},{"facility":"Research Site","status":"RECRUITING","city":"Nagoya-shi","zip":"466-8560","country":"Japan","geoPoint":{"lat":35.18147,"lon":136.90641}},{"facility":"Research Site","status":"RECRUITING","city":"Niigata-shi","zip":"951-8566","country":"Japan","geoPoint":{"lat":37.88637,"lon":139.00589}},{"facility":"Research Site","status":"RECRUITING","city":"Osaka-Sayama","zip":"589-8511","country":"Japan","geoPoint":{"lat":34.69374,"lon":135.50218}},{"facility":"Research Site","status":"RECRUITING","city":"Osaka-shi","zip":"534-0021","country":"Japan","geoPoint":{"lat":34.69374,"lon":135.50218}},{"facility":"Research Site","status":"RECRUITING","city":"Osaka-shi","zip":"541-8567","country":"Japan","geoPoint":{"lat":34.69374,"lon":135.50218}},{"facility":"Research Site","status":"RECRUITING","city":"Sendai-shi","zip":"981-0914","country":"Japan","geoPoint":{"lat":38.26667,"lon":140.86667}},{"facility":"Research Site","status":"RECRUITING","city":"Sunto-gun","zip":"411-8777","country":"Japan"},{"facility":"Research Site","status":"RECRUITING","city":"Toyoake-shi","zip":"470-1192","country":"Japan","geoPoint":{"lat":35.038,"lon":136.99931}},{"facility":"Research Site","status":"RECRUITING","city":"Utsunomiya-shi","zip":"320-0834","country":"Japan","geoPoint":{"lat":36.56667,"lon":139.88333}},{"facility":"Research Site","status":"RECRUITING","city":"Wakayama-shi","zip":"641-8510","country":"Japan","geoPoint":{"lat":34.23333,"lon":135.16667}},{"facility":"Research Site","status":"RECRUITING","city":"Yokohama-shi","zip":"236-0051","country":"Japan","geoPoint":{"lat":35.43333,"lon":139.65}},{"facility":"Research Site","status":"RECRUITING","city":"Yokohama-shi","zip":"241-8515","country":"Japan","geoPoint":{"lat":35.43333,"lon":139.65}},{"facility":"Research Site","status":"RECRUITING","city":"Busan","zip":"48108","country":"Korea, Republic of","geoPoint":{"lat":35.10278,"lon":129.04028}},{"facility":"Research Site","status":"RECRUITING","city":"Chungcheongbuk-do","zip":"28644","country":"Korea, Republic of"},{"facility":"Research Site","status":"RECRUITING","city":"Goyang-si","zip":"10408","country":"Korea, Republic of","geoPoint":{"lat":37.65639,"lon":126.835}},{"facility":"Research Site","status":"RECRUITING","city":"Gyeonggi-do","zip":"13620","country":"Korea, Republic of","geoPoint":{"lat":37.58944,"lon":126.76917}},{"facility":"Research Site","status":"RECRUITING","city":"Jinju-si","zip":"52727","country":"Korea, Republic of","geoPoint":{"lat":35.19278,"lon":128.08472}},{"facility":"Research Site","status":"RECRUITING","city":"Seoul","zip":"03080","country":"Korea, Republic of","geoPoint":{"lat":37.566,"lon":126.9784}},{"facility":"Research Site","status":"RECRUITING","city":"Seoul","zip":"03722","country":"Korea, Republic of","geoPoint":{"lat":37.566,"lon":126.9784}},{"facility":"Research Site","status":"RECRUITING","city":"Seoul","zip":"06351","country":"Korea, Republic of","geoPoint":{"lat":37.566,"lon":126.9784}},{"facility":"Research Site","status":"RECRUITING","city":"Seoul","zip":"06591","country":"Korea, Republic of","geoPoint":{"lat":37.566,"lon":126.9784}},{"facility":"Research Site","status":"RECRUITING","city":"Seoul","zip":"5505","country":"Korea, Republic of","geoPoint":{"lat":37.566,"lon":126.9784}},{"facility":"Research Site","status":"RECRUITING","city":"Suwon-si","zip":"16247","country":"Korea, Republic of","geoPoint":{"lat":37.29111,"lon":127.00889}},{"facility":"Research Site","status":"RECRUITING","city":"Alor Setar","zip":"05460","country":"Malaysia","geoPoint":{"lat":6.12104,"lon":100.36014}},{"facility":"Research Site","status":"RECRUITING","city":"Cheras","zip":"56000","country":"Malaysia","geoPoint":{"lat":3.05,"lon":101.76667}},{"facility":"Research Site","status":"RECRUITING","city":"Johor Bahru","zip":"81100","country":"Malaysia","geoPoint":{"lat":1.4655,"lon":103.7578}},{"facility":"Research Site","status":"RECRUITING","city":"Kuala Lumpur","zip":"59100","country":"Malaysia","geoPoint":{"lat":3.1412,"lon":101.68653}},{"facility":"Research Site","status":"RECRUITING","city":"Kuching","zip":"93586","country":"Malaysia","geoPoint":{"lat":1.54999,"lon":110.33333}},{"facility":"Research Site","status":"RECRUITING","city":"Perai","zip":"13700","country":"Malaysia","geoPoint":{"lat":5.38333,"lon":100.38333}},{"facility":"Research Site","status":"RECRUITING","city":"Petaling Jaya","zip":"47500","country":"Malaysia","geoPoint":{"lat":3.10726,"lon":101.60671}},{"facility":"Research Site","status":"RECRUITING","city":"Selangor","zip":"46050","country":"Malaysia"},{"facility":"Research Site","status":"NOT_YET_RECRUITING","city":"Amersfoort","zip":"3813 TZ","country":"Netherlands","geoPoint":{"lat":52.155,"lon":5.3875}},{"facility":"Research Site","status":"NOT_YET_RECRUITING","city":"Harderwijk","zip":"3844 DG","country":"Netherlands","geoPoint":{"lat":52.34167,"lon":5.62083}},{"facility":"Research Site","status":"NOT_YET_RECRUITING","city":"Rotterdam","zip":"3015 GD","country":"Netherlands","geoPoint":{"lat":51.9225,"lon":4.47917}},{"facility":"Research Site","status":"NOT_YET_RECRUITING","city":"Zutphen","zip":"7207 AE","country":"Netherlands","geoPoint":{"lat":52.13833,"lon":6.20139}},{"facility":"Research Site","status":"NOT_YET_RECRUITING","city":"Bacolod","zip":"6100","country":"Philippines","geoPoint":{"lat":10.66667,"lon":122.95}},{"facility":"Research Site","status":"NOT_YET_RECRUITING","city":"Cebu City","zip":"6000","country":"Philippines","geoPoint":{"lat":10.31672,"lon":123.89071}},{"facility":"Research Site","status":"NOT_YET_RECRUITING","city":"Davao City","zip":"8000","country":"Philippines","geoPoint":{"lat":7.07306,"lon":125.61278}},{"facility":"Research Site","status":"NOT_YET_RECRUITING","city":"Manila","zip":"1000","country":"Philippines","geoPoint":{"lat":14.6042,"lon":120.9822}},{"facility":"Research Site","status":"NOT_YET_RECRUITING","city":"Quezon","zip":"1102","country":"Philippines","geoPoint":{"lat":7.73028,"lon":125.09889}},{"facility":"Research Site","status":"NOT_YET_RECRUITING","city":"Quezon","zip":"1104","country":"Philippines","geoPoint":{"lat":7.73028,"lon":125.09889}},{"facility":"Research Site","status":"RECRUITING","city":"San Juan","zip":"1500","country":"Philippines","geoPoint":{"lat":14.6,"lon":121.0333}},{"facility":"Research Site","status":"RECRUITING","city":"Katowice","zip":"40-519","country":"Poland","geoPoint":{"lat":50.25841,"lon":19.02754}},{"facility":"Research Site","status":"RECRUITING","city":"Krakow","zip":"30-727","country":"Poland","geoPoint":{"lat":50.06143,"lon":19.93658}},{"facility":"Research Site","status":"RECRUITING","city":"Olsztyn","zip":"10-357","country":"Poland","geoPoint":{"lat":53.77995,"lon":20.49416}},{"facility":"Research Site","status":"RECRUITING","city":"Poznan","zip":"60-569","country":"Poland","geoPoint":{"lat":52.40692,"lon":16.92993}},{"facility":"Research Site","status":"RECRUITING","city":"Łódź","zip":"90-302","country":"Poland","geoPoint":{"lat":51.75,"lon":19.46667}},{"facility":"Research Site","status":"NOT_YET_RECRUITING","city":"Braga","zip":"4710","country":"Portugal","geoPoint":{"lat":41.55032,"lon":-8.42005}},{"facility":"Research Site","status":"NOT_YET_RECRUITING","city":"Porto","zip":"4099-001","country":"Portugal","geoPoint":{"lat":41.14961,"lon":-8.61099}},{"facility":"Research Site","status":"NOT_YET_RECRUITING","city":"Porto","zip":"4200-072","country":"Portugal","geoPoint":{"lat":41.14961,"lon":-8.61099}},{"facility":"Research Site","status":"NOT_YET_RECRUITING","city":"Craiova","zip":"200385","country":"Romania","geoPoint":{"lat":44.31667,"lon":23.8}},{"facility":"Research Site","status":"NOT_YET_RECRUITING","city":"Craiova","zip":"200542","country":"Romania","geoPoint":{"lat":44.31667,"lon":23.8}},{"facility":"Research Site","status":"NOT_YET_RECRUITING","city":"Singapore","zip":"168583","country":"Singapore","geoPoint":{"lat":1.28967,"lon":103.85007}},{"facility":"Research Site","status":"NOT_YET_RECRUITING","city":"Singapore","zip":"217562","country":"Singapore","geoPoint":{"lat":1.28967,"lon":103.85007}},{"facility":"Research Site","status":"NOT_YET_RECRUITING","city":"Singapore","zip":"308433","country":"Singapore","geoPoint":{"lat":1.28967,"lon":103.85007}},{"facility":"Research Site","status":"NOT_YET_RECRUITING","city":"Barakaldo","zip":"48903","country":"Spain","geoPoint":{"lat":43.29639,"lon":-2.98813}},{"facility":"Research Site","status":"RECRUITING","city":"Barcelona","zip":"08003","country":"Spain","geoPoint":{"lat":41.38879,"lon":2.15899}},{"facility":"Research Site","status":"RECRUITING","city":"Barcelona","zip":"08041","country":"Spain","geoPoint":{"lat":41.38879,"lon":2.15899}},{"facility":"Research Site","status":"NOT_YET_RECRUITING","city":"El Palmar","zip":"30120","country":"Spain","geoPoint":{"lat":37.93939,"lon":-1.16095}},{"facility":"Research Site","status":"RECRUITING","city":"L'Hospitalet de Llobregat","zip":"08908","country":"Spain","geoPoint":{"lat":41.35967,"lon":2.10028}},{"facility":"Research Site","status":"RECRUITING","city":"La Coruna","zip":"15006","country":"Spain","geoPoint":{"lat":43.37135,"lon":-8.396}},{"facility":"Research Site","status":"NOT_YET_RECRUITING","city":"Madrid","zip":"28046","country":"Spain","geoPoint":{"lat":40.4165,"lon":-3.70256}},{"facility":"Research Site","status":"NOT_YET_RECRUITING","city":"Majadahonda","zip":"28222","country":"Spain","geoPoint":{"lat":40.47353,"lon":-3.87182}},{"facility":"Research Site","status":"RECRUITING","city":"Malaga","zip":"29004","country":"Spain","geoPoint":{"lat":36.72016,"lon":-4.42034}},{"facility":"Research Site","status":"NOT_YET_RECRUITING","city":"Palma de Mallorca","zip":"7120","country":"Spain","geoPoint":{"lat":39.56939,"lon":2.65024}},{"facility":"Research Site","status":"NOT_YET_RECRUITING","city":"Pamplona","zip":"31008","country":"Spain","geoPoint":{"lat":42.81687,"lon":-1.64323}},{"facility":"Research Site","status":"NOT_YET_RECRUITING","city":"Santander","zip":"39008","country":"Spain","geoPoint":{"lat":43.46472,"lon":-3.80444}},{"facility":"Research Site","status":"NOT_YET_RECRUITING","city":"Santiago De Compostela-Coruña","zip":"15706","country":"Spain"},{"facility":"Research Site","status":"RECRUITING","city":"Sevilla","zip":"41014","country":"Spain","geoPoint":{"lat":37.38283,"lon":-5.97317}},{"facility":"Research Site","status":"RECRUITING","city":"Valencia","zip":"46010","country":"Spain","geoPoint":{"lat":39.46975,"lon":-0.37739}},{"facility":"Research Site","status":"NOT_YET_RECRUITING","city":"Valencia","zip":"46026","country":"Spain","geoPoint":{"lat":39.46975,"lon":-0.37739}},{"facility":"Research Site","status":"NOT_YET_RECRUITING","city":"Valladolid","zip":"47003","country":"Spain","geoPoint":{"lat":41.65518,"lon":-4.72372}},{"facility":"Research Site","status":"RECRUITING","city":"Changhua City","zip":"50006","country":"Taiwan","geoPoint":{"lat":24.07327,"lon":120.56276}},{"facility":"Research Site","status":"RECRUITING","city":"Kaohsiung City","zip":"80756","country":"Taiwan","geoPoint":{"lat":22.61626,"lon":120.31333}},{"facility":"Research Site","status":"NOT_YET_RECRUITING","city":"New Taipei","zip":"23561","country":"Taiwan","geoPoint":{"lat":25.01111,"lon":121.44583}},{"facility":"Research Site","status":"NOT_YET_RECRUITING","city":"Taichung","zip":"404","country":"Taiwan","geoPoint":{"lat":24.1469,"lon":120.6839}},{"facility":"Research Site","status":"RECRUITING","city":"Taichung","zip":"40705","country":"Taiwan","geoPoint":{"lat":24.1469,"lon":120.6839}},{"facility":"Research Site","status":"RECRUITING","city":"Tainan City","zip":"73657","country":"Taiwan","geoPoint":{"lat":22.99083,"lon":120.21333}},{"facility":"Research Site","status":"RECRUITING","city":"Tainan","zip":"70403","country":"Taiwan","geoPoint":{"lat":22.99083,"lon":120.21333}},{"facility":"Research Site","status":"NOT_YET_RECRUITING","city":"Taipei City","zip":"110","country":"Taiwan","geoPoint":{"lat":25.04776,"lon":121.53185}},{"facility":"Research Site","status":"RECRUITING","city":"Taipei","zip":"100","country":"Taiwan","geoPoint":{"lat":25.04776,"lon":121.53185}},{"facility":"Research Site","status":"RECRUITING","city":"Taipei","zip":"112","country":"Taiwan","geoPoint":{"lat":25.04776,"lon":121.53185}},{"facility":"Research Site","status":"RECRUITING","city":"Bangkok","zip":"10330","country":"Thailand","geoPoint":{"lat":13.75398,"lon":100.50144}},{"facility":"Research Site","status":"RECRUITING","city":"Bangkok","zip":"10400","country":"Thailand","geoPoint":{"lat":13.75398,"lon":100.50144}},{"facility":"Research Site","status":"RECRUITING","city":"Bangkok","zip":"10700","country":"Thailand","geoPoint":{"lat":13.75398,"lon":100.50144}},{"facility":"Research Site","status":"RECRUITING","city":"Chiang Mai","zip":"50200","country":"Thailand","geoPoint":{"lat":18.79038,"lon":98.98468}},{"facility":"Research Site","status":"RECRUITING","city":"Hat Yai","zip":"90110","country":"Thailand","geoPoint":{"lat":7.00836,"lon":100.47668}},{"facility":"Research Site","status":"RECRUITING","city":"Khon-Kaen","zip":"40002","country":"Thailand","geoPoint":{"lat":16.44671,"lon":102.833}},{"facility":"Research Site","status":"RECRUITING","city":"Pathumthani","zip":"12120","country":"Thailand","geoPoint":{"lat":14.01346,"lon":100.53049}},{"facility":"Research Site","status":"RECRUITING","city":"Birmingham","zip":"B9 5SS","country":"United Kingdom","geoPoint":{"lat":52.48142,"lon":-1.89983}},{"facility":"Research Site","status":"RECRUITING","city":"Cambridge","zip":"CB2 0QQ","country":"United Kingdom","geoPoint":{"lat":52.2,"lon":0.11667}},{"facility":"Research Site","status":"NOT_YET_RECRUITING","city":"Glasgow","zip":"G12 0YN","country":"United Kingdom","geoPoint":{"lat":55.86515,"lon":-4.25763}},{"facility":"Research Site","status":"NOT_YET_RECRUITING","city":"Leicester","zip":"LE1 5WW","country":"United Kingdom","geoPoint":{"lat":52.6386,"lon":-1.13169}},{"facility":"Research Site","status":"NOT_YET_RECRUITING","city":"London","zip":"EC1A 7BE","country":"United Kingdom","geoPoint":{"lat":51.50853,"lon":-0.12574}},{"facility":"Research Site","status":"NOT_YET_RECRUITING","city":"Manchester","zip":"M20 4BX","country":"United Kingdom","geoPoint":{"lat":53.48095,"lon":-2.23743}},{"facility":"Research Site","status":"NOT_YET_RECRUITING","city":"Middlesbrough","zip":"TS4 3BW","country":"United Kingdom","geoPoint":{"lat":54.57623,"lon":-1.23483}},{"facility":"Research Site","status":"NOT_YET_RECRUITING","city":"Hanoi","zip":"100000","country":"Vietnam","geoPoint":{"lat":21.0245,"lon":105.84117}}]},"ipdSharingStatementModule":{"ipdSharing":"YES","description":"Qualified researchers can request access to anonymized individual patient-level data from AstraZeneca group of companies sponsored clinical trials via the request portal. All request will be evaluated as per the AZ disclosure commitment: https://astrazenecagrouptrials.pharmacm.com/ST/Submission/Disclosure.\n\n\"Yes\", indicates that AZ are accepting requests for IPD, but this does not mean all requests will be approved.","infoTypes":["STUDY_PROTOCOL","SAP"],"timeFrame":"AstraZeneca will meet or exceed data availability as per the commitments made to the EFPIA Pharma Data Sharing Principles.\n\nFor details of our timelines, please rerefer to our disclosure commitment at https://astrazenecagrouptrials.pharmacm.com/ST/Submission/Disclosure","accessCriteria":"When a request has been approved AstraZeneca will provide access to the anonymized individual patient-level data via secure research environment Vivli.org. A Signed Data Usage Agreement (non-negotiable contract for data accessors) must be in place before accessing requested information.\n\nAdditionally, all users will need to accept the terms and conditions of the SAS MSE to gain access. For additional details, please review the Disclosure Statements at https://astrazenecagrouptrials.pharmacm.com/ST/Submission/Disclosure.","url":"https://astrazenecagroup-dt.pharmacm.com/DT/Home"}},"derivedSection":{"miscInfoModule":{"versionHolder":"2025-07-07"},"conditionBrowseModule":{"meshes":[{"id":"D008175","term":"Lung Neoplasms"},{"id":"D002289","term":"Carcinoma, Non-Small-Cell Lung"}],"ancestors":[{"id":"D012142","term":"Respiratory Tract Neoplasms"},{"id":"D013899","term":"Thoracic Neoplasms"},{"id":"D009371","term":"Neoplasms by Site"},{"id":"D009369","term":"Neoplasms"},{"id":"D008171","term":"Lung Diseases"},{"id":"D012140","term":"Respiratory Tract Diseases"},{"id":"D002283","term":"Carcinoma, Bronchogenic"},{"id":"D001984","term":"Bronchial Neoplasms"}],"browseLeaves":[{"id":"M11172","name":"Lung Neoplasms","asFound":"Lung Cancer","relevance":"HIGH"},{"id":"M5546","name":"Carcinoma, Non-Small-Cell Lung","asFound":"Non-small Cell Lung Cancer","relevance":"HIGH"},{"id":"M5534","name":"Carcinoma","relevance":"LOW"},{"id":"M14979","name":"Respiratory Tract Neoplasms","relevance":"LOW"},{"id":"M16658","name":"Thoracic Neoplasms","relevance":"LOW"},{"id":"M11168","name":"Lung Diseases","relevance":"LOW"},{"id":"M14977","name":"Respiratory Tract Diseases","relevance":"LOW"},{"id":"M5540","name":"Carcinoma, Bronchogenic","relevance":"LOW"},{"id":"M5260","name":"Bronchial Neoplasms","relevance":"LOW"}],"browseBranches":[{"abbrev":"BC04","name":"Neoplasms"},{"abbrev":"BC08","name":"Respiratory Tract (Lung and Bronchial) Diseases"},{"abbrev":"All","name":"All Conditions"}]},"interventionBrowseModule":{"meshes":[{"id":"D016190","term":"Carboplatin"},{"id":"D000068437","term":"Pemetrexed"},{"id":"C000596361","term":"Osimertinib"}],"ancestors":[{"id":"D000970","term":"Antineoplastic Agents"},{"id":"D004791","term":"Enzyme Inhibitors"},{"id":"D045504","term":"Molecular Mechanisms of Pharmacological Action"},{"id":"D005493","term":"Folic Acid Antagonists"},{"id":"D019384","term":"Nucleic Acid Synthesis Inhibitors"},{"id":"D000092004","term":"Tyrosine Kinase Inhibitors"},{"id":"D047428","term":"Protein Kinase Inhibitors"}],"browseLeaves":[{"id":"M18650","name":"Carboplatin","asFound":"Total","relevance":"HIGH"},{"id":"M264","name":"Pemetrexed","asFound":"Assigned","relevance":"HIGH"},{"id":"M6182","name":"Cisplatin","relevance":"LOW"},{"id":"M145673","name":"Osimertinib","asFound":"Switch","relevance":"HIGH"},{"id":"M11900","name":"Mitogens","relevance":"LOW"},{"id":"M7951","name":"Enzyme Inhibitors","relevance":"LOW"},{"id":"M8618","name":"Folic Acid","relevance":"LOW"},{"id":"M17546","name":"Vitamin B Complex","relevance":"LOW"},{"id":"M8619","name":"Folic Acid Antagonists","relevance":"LOW"},{"id":"M2889","name":"Tyrosine Kinase Inhibitors","relevance":"LOW"},{"id":"M25820","name":"Protein Kinase Inhibitors","relevance":"LOW"},{"id":"T475","name":"Vitamin B9","relevance":"LOW"},{"id":"T446","name":"Folic Acid","relevance":"LOW"},{"id":"T447","name":"Folinic Acid","relevance":"LOW"},{"id":"T448","name":"Folate","relevance":"LOW"},{"id":"T22","name":"Tyrosine","relevance":"LOW"}],"browseBranches":[{"abbrev":"ANeo","name":"Antineoplastic Agents"},{"abbrev":"All","name":"All Drugs and Chemicals"},{"abbrev":"Micro","name":"Micronutrients"},{"abbrev":"Hemat","name":"Hematinics"},{"abbrev":"Vi","name":"Vitamins"},{"abbrev":"AA","name":"Amino Acids"}]}},"hasResults":false}