{"protocolSection":{"identificationModule":{"nctId":"NCT04613596","orgStudyIdInfo":{"id":"CA239-0009"},"secondaryIdInfos":[{"id":"CA239-0009","type":"OTHER","domain":"Bristol-Myers Squibb Protocol ID"},{"id":"849-007","type":"OTHER","domain":"Mirati Therapeutics Protocol ID"}],"organization":{"fullName":"Mirati Therapeutics Inc.","class":"INDUSTRY"},"briefTitle":"Phase 2 Trial of Adagrasib Monotherapy and in Combination With Pembrolizumab and a Phase 3 Trial of Adagrasib in Combination in Patients With a KRAS G12C Mutation KRYSTAL-7","officialTitle":"A Phase 2 Trial of Adagrasib Monotherapy and in Combination With Pembrolizumab and a Phase 3 Trial of Adagrasib in Combination With Pembrolizumab Versus Pembrolizumab in Patients With Advanced Non-Small Cell Lung Cancer With KRAS G12C Mutation"},"statusModule":{"statusVerifiedDate":"2025-06","overallStatus":"RECRUITING","expandedAccessInfo":{"hasExpandedAccess":true,"nctId":"NCT05162443","statusForNctId":"APPROVED_FOR_MARKETING"},"startDateStruct":{"date":"2020-12-02","type":"ACTUAL"},"primaryCompletionDateStruct":{"date":"2028-10-31","type":"ESTIMATED"},"completionDateStruct":{"date":"2029-10-31","type":"ESTIMATED"},"studyFirstSubmitDate":"2020-10-28","studyFirstSubmitQcDate":"2020-10-30","studyFirstPostDateStruct":{"date":"2020-11-03","type":"ACTUAL"},"lastUpdateSubmitDate":"2025-06-27","lastUpdatePostDateStruct":{"date":"2025-06-29","type":"ACTUAL"}},"sponsorCollaboratorsModule":{"responsibleParty":{"type":"SPONSOR"},"leadSponsor":{"name":"Mirati Therapeutics Inc.","class":"INDUSTRY"}},"oversightModule":{"oversightHasDmc":false,"isFdaRegulatedDrug":true,"isFdaRegulatedDevice":false},"descriptionModule":{"briefSummary":"The Phase 2 portion of this study evaluates the efficacy and safety of MRTX849 monotherapy and in combination with pembrolizumab in cohorts of patients with advanced NSCLC with KRAS G12C mutation and any PD-L1 TPS and who are candidates for first-line treatment.\n\nThe Phase 3 portion of the study compares the efficacy of adagrasib in combination with pembrolizumab versus pembrolizumab in patients with unresectable, locally advanced or metastatic squamous or nonsquamous NSCLC with KRAS G12C mutation and PD-L1 TPS \\>=50% and who are candidates for first line treatment.","detailedDescription":"The Phase 2 portion of this study will evaluate the efficacy and safety of MRTX849 as monotherapy and in combination with pembrolizumab. There will be 3 cohorts of patients, all of whom have KRAS G12C mutation, have advanced or metastatic NSCLC, and are candidates for first-line treatment. 2 cohorts have PD-L1 TPS score \\<1% and are randomized to MRTX849 monotherapy or MRTX849 in combination with pembrolizumab. The 3rd cohort has PD-L1 TPS score of 1% or higher and is treated with MRTX849 and pembrolizumab\n\nThe Phase 3 portion of the study will randomize patients with squamous or nonsquamous NSCLC with KRAS G12C mutation and TPS \\>=50% in the first-line setting to adagrasib plus pembrolizumab or pembrolizumab. Primary efficacy objective is to compare efficacy between experimental and comparator arms. Secondary and exploratory objectives include evaluation of secondary efficacy endpoints, safety and tolerability, adagrasib PK, PROs, and correlative genomic biomarkers for the combination regimen in the study population.\n\nMRTX849 is an orally available small molecule inhibitor of KRAS G12C, and Pembrolizumab (KEYTRUDA®) is a humanized monoclonal antibody that blocks the interaction between PD-1 and its ligands, PD-L1 and PD-L2."},"conditionsModule":{"conditions":["Advanced Non-Small Cell Lung Cancer","Metastatic Non-Small Cell Lung Cancer"],"keywords":["KRAS G12C","Non-small cell lung cancer","NSCLC","Metastatic Non-Small Cell Lung Cancer","Adagrasib","Krazati","TPS"]},"designModule":{"studyType":"INTERVENTIONAL","phases":["PHASE2","PHASE3"],"designInfo":{"allocation":"RANDOMIZED","interventionModel":"PARALLEL","interventionModelDescription":"MRTX849 Monotherapy, MRTX849 in Combination with Pembrolizumab and Pembrolizumab alone","primaryPurpose":"TREATMENT","maskingInfo":{"masking":"NONE"}},"enrollmentInfo":{"count":806,"type":"ESTIMATED"}},"armsInterventionsModule":{"armGroups":[{"label":"Phase 2 Cohort 1a: PD-L1 TPS <1%","type":"EXPERIMENTAL","description":"Cohort 1a: Adagrasib twice daily (BID) in combination with pembrolizumab","interventionNames":["Drug: Adagrasib"]},{"label":"Phase 2 Cohort 1b: PD-L1 TPS <1%","type":"EXPERIMENTAL","description":"Cohort 1b: Adagrasib BID monotherapy","interventionNames":["Drug: Adagrasib"]},{"label":"Phase 2 Cohort 2: PD-L1 TPS ≥1%","type":"EXPERIMENTAL","description":"Cohort 2: Adagrasib BID in combination with pembrolizumab","interventionNames":["Drug: Adagrasib"]},{"label":"Phase 3 Cohort 3 Investigational Arm","type":"EXPERIMENTAL","description":"Adagrasib BID in combination with pembrolizumab","interventionNames":["Drug: Adagrasib"]},{"label":"Phase 3 Cohort 4 Comparator Arm","type":"ACTIVE_COMPARATOR","description":"Pembrolizumab","interventionNames":["Drug: Pembrolizumab"]}],"interventions":[{"type":"DRUG","name":"Adagrasib","description":"Adagrasib 400 mg twice daily (BID) in combination with pembrolizumab (Cohort 1a)","armGroupLabels":["Phase 2 Cohort 1a: PD-L1 TPS <1%"],"otherNames":["Pembrolizumab"]},{"type":"DRUG","name":"Adagrasib","description":"Adagrasib 600 mg BID monotherapy (Cohort 1b)","armGroupLabels":["Phase 2 Cohort 1b: PD-L1 TPS <1%"]},{"type":"DRUG","name":"Adagrasib","description":"adagrasib 400 mg BID in combination with pembrolizumab","armGroupLabels":["Phase 2 Cohort 2: PD-L1 TPS ≥1%"],"otherNames":["Pembrolizumab"]},{"type":"DRUG","name":"Adagrasib","description":"Adagrasib 400 mg BID + pembrolizumab 200 mg every Q3W","armGroupLabels":["Phase 3 Cohort 3 Investigational Arm"],"otherNames":["Pemrolizumab"]},{"type":"DRUG","name":"Pembrolizumab","description":"Pembrolizumab 200 mg IV Q3W","armGroupLabels":["Phase 3 Cohort 4 Comparator Arm"]}]},"outcomesModule":{"primaryOutcomes":[{"measure":"Phase 2: To evaluate the efficacy of Adagrasib monotherapy and in combination with pembrolizumab administered to patients having advanced/metastatic NSCLC.","description":"Objective Response Rate (ORR) as defined by Response Evaluation Criteria in Solid Tumors version 1.1 (RECIST 1.1)","timeFrame":"22 months"},{"measure":"Phase 3: To compare efficacy of Adagrasib in combination with pembrolizumab versus pembrolizumab","description":"Progression Free Survival per RECIST 1.1 by Blinded Independent Central Review (BICR) and Overall Survival","timeFrame":"36 months"}],"secondaryOutcomes":[{"measure":"Phase 2: To characterize the safety and tolerability of study treatments in selected populations","description":"Safety characterized by type, incidence, severity, timing, seriousness and relationship to study treatment of adverse events and laboratory abnormalities.","timeFrame":"22 months"},{"measure":"Phase 2: Duration of Response","description":"Defined as the time from date of the first documentation of objective tumor response (CR or PR) to the first documentation of either Progression of Disease (PD) or death due to any cause, whichever occurs first.","timeFrame":"22 months"},{"measure":"Phase 2: Progression Free Survival","description":"Defined as time from first study treatment until disease progression or death from any cause, whichever occurs first.","timeFrame":"22 months"},{"measure":"Phase 2: To evaluate secondary efficacy endpoints using the study treatment in selected populations","description":"1-Year Survival rate","timeFrame":"12 months"},{"measure":"Phase 2: To evaluate secondary efficacy endpoints using the study treatment in selected populations","description":"Overall Survival (OS)","timeFrame":"22 months"},{"measure":"Phase 2: To evaluate the pharmacokinetics (PK) of study treatments by measuring blood plasma MRTX849 and potential metabolite concentrations.","description":"Pharmacokinetics (PK) Blood plasma Adagrasib and potential metabolite concentrations","timeFrame":"22 months"},{"measure":"Phase 3: To evaluate the safety and tolerability in the study population","description":"Safety characterized by type, incidence, severity, timing, seriousness and relationship to study treatment of adverse events and laboratory abnormalities.","timeFrame":"36 months"},{"measure":"Phase 3: To evaluate the PK of adagrasib administered in the study population","description":"Pharmacokinetics (PK) Blood plasma Adagrasib and potential metabolite concentrations","timeFrame":"36 months"},{"measure":"Phase 3: To evaluate health-related quality of life (HRQOL) and lung cancer specific symptoms in the study population","description":"Patient Reported Outcomes to measure quality of life","timeFrame":"36 months"},{"measure":"Phase 3: Progression Free Survival per RECIST 1.1 by Investigator","description":"Defined as time from first study treatment until disease progression or death from any cause, whichever occurs first.","timeFrame":"36 months"},{"measure":"Phase 3: Duration of Response (DOR) per RECIST 1.1 by Investigator and BICR","description":"Defined as the time from date of the first documentation of objective tumor response (CR or PR) to the first documentation of either Progression of Disease (PD) or death due to any cause, whichever occurs first.","timeFrame":"36 months"},{"measure":"Phase 3: Objective Response Rate (ORR) per RECIST 1.1 by Investigator and BICR","description":"Defined as the percent of patients documented to have a confirmed CR or PR.","timeFrame":"36 months"}]},"eligibilityModule":{"eligibilityCriteria":"Inclusion Criteria:\n\n* Phase 2: Histologically confirmed diagnosis of unresectable or metastatic NSCLC with KRAS G12C mutation and any PD-L1 TPS\n* Phase 3: Histologically confirmed diagnosis of unresectable or metastatic squamous or nonsquamous NSCLC with KRAS G12C mutation and PD-L1 TPS \\>=50%\n* Phase 3: Presence of evaluable or measurable disease per RECIST\n* Phase 3: CNS Inclusion - Based on screening brain imaging, patients must have one of the following:\n\n  1. No evidence of brain metastases\n  2. Untreated brain metastases not needing immediate local therapy\n  3. Previously treated brain metastases not needing immediate local therapy\n\nExclusion Criteria:\n\n* Phase 2 and Phase 3: Prior systemic treatment for locally advanced or metastatic NSCLC including chemotherapy, immune checkpoint inhibitor therapy, or a therapy targeting KRAS G12C mutation (e.g., AMG 510).\n* Phase 2: Active brain metastases\n* Phase 3: Patients with known central nervous system (CNS) lesions must not have any of the following:\n\n  1. Any untreated brain lesions \\> 1.0 cm in size\n  2. Any brainstem lesions\n  3. Ongoing use of systemic corticosteroids for control of symptoms of brain lesions at a total daily dose of \\> 10 mg of prednisone (or equivalent) prior to randomization.\n  4. Have poorly controlled (\\> 1/week) generalized or complex partial seizures, or manifest neurologic progression due to brain lesions notwithstanding CNS-directed therapy\n* Phase 3: Radiation to the lung \\> 30 Gy within 6 months prior to the first dose of study treatment","healthyVolunteers":false,"sex":"ALL","minimumAge":"18 Years","stdAges":["ADULT","OLDER_ADULT"]},"contactsLocationsModule":{"centralContacts":[{"name":"BMS Clinical Trials Contact Center www.BMSClinicalTrials.com","role":"CONTACT","phone":"855-907-3286","email":"Clinical.Trials@bms.com"},{"name":"First line of the email MUST contain the NCT# and Site #.","role":"CONTACT"}],"overallOfficials":[{"name":"Bristol-Myers Squibb","affiliation":"Bristol-Myers Squibb","role":"STUDY_DIRECTOR"}],"locations":[{"facility":"Local Institution - 007-556-A","status":"NOT_YET_RECRUITING","city":"Goodyear","state":"Arizona","zip":"85395","country":"United States","contacts":[{"name":"Site 007-556-A","role":"CONTACT"}],"geoPoint":{"lat":33.43532,"lon":-112.35821}},{"facility":"USOR - Arizona Oncology - Prescott Valley","status":"RECRUITING","city":"Prescott Valley","state":"Arizona","zip":"86301","country":"United States","contacts":[{"name":"Allan Espinosa Morazan, Site 007-556","role":"CONTACT","phone":"928-775-9430"}],"geoPoint":{"lat":34.61002,"lon":-112.31572}},{"facility":"Local Institution - 007-568-A","status":"NOT_YET_RECRUITING","city":"Safford","state":"Arizona","zip":"85546","country":"United States","contacts":[{"name":"Site 007-568-A","role":"CONTACT"}],"geoPoint":{"lat":32.83395,"lon":-109.70758}},{"facility":"Local Institution - 007-568-B","status":"NOT_YET_RECRUITING","city":"Safford","state":"Arizona","zip":"85546","country":"United States","contacts":[{"name":"Site 007-568-B","role":"CONTACT"}],"geoPoint":{"lat":32.83395,"lon":-109.70758}},{"facility":"Local Institution - 007-568-C","status":"NOT_YET_RECRUITING","city":"Safford","state":"Arizona","zip":"85546","country":"United States","contacts":[{"name":"Site 007-568-C","role":"CONTACT"}],"geoPoint":{"lat":32.83395,"lon":-109.70758}},{"facility":"Local Institution - 007-568-D","status":"NOT_YET_RECRUITING","city":"Safford","state":"Arizona","zip":"85546","country":"United States","contacts":[{"name":"Site 007-568-D","role":"CONTACT"}],"geoPoint":{"lat":32.83395,"lon":-109.70758}},{"facility":"Local Institution - 007-568-E","status":"NOT_YET_RECRUITING","city":"Safford","state":"Arizona","zip":"85546","country":"United States","contacts":[{"name":"Site 007-568-E","role":"CONTACT"}],"geoPoint":{"lat":32.83395,"lon":-109.70758}},{"facility":"Arizona Clinical Research Center","status":"RECRUITING","city":"Tucson","state":"Arizona","zip":"85715","country":"United States","contacts":[{"name":"Manuel Modiano, Site 007-568","role":"CONTACT","phone":"520-290-2510"}],"geoPoint":{"lat":32.22174,"lon":-110.92648}},{"facility":"Highlands Oncology Group - Springdale","status":"RECRUITING","city":"Springdale","state":"Arkansas","zip":"72762","country":"United States","contacts":[{"name":"Eric Schaefer, Site 007-978","role":"CONTACT","phone":"479-872-8130"}],"geoPoint":{"lat":36.18674,"lon":-94.12881}},{"facility":"Providence - Saint Joseph Home Health - Anaheim","status":"RECRUITING","city":"Anaheim","state":"California","zip":"92805","country":"United States","contacts":[{"name":"Giribala Patel, Site 007-899","role":"CONTACT","phone":"714-446-5900"}],"geoPoint":{"lat":33.83529,"lon":-117.9145}},{"facility":"The Oncology Institute of Hope and Innovation - Corporate Office","status":"RECRUITING","city":"Cerritos","state":"California","zip":"90703","country":"United States","contacts":[{"name":"Omkar Marathe, Site 007-898","role":"CONTACT","phone":"562-693-4477"}],"geoPoint":{"lat":33.85835,"lon":-118.06479}},{"facility":"Local Institution - 007-777","status":"NOT_YET_RECRUITING","city":"Fountain Valley","state":"California","zip":"92708","country":"United States","contacts":[{"name":"Site 007-777","role":"CONTACT"}],"geoPoint":{"lat":33.70918,"lon":-117.95367}},{"facility":"Local Institution - 007-778","status":"NOT_YET_RECRUITING","city":"Laguna Hills","state":"California","zip":"92653","country":"United States","contacts":[{"name":"Site 007-778","role":"CONTACT"}],"geoPoint":{"lat":33.61252,"lon":-117.71283}},{"facility":"Local Institution - 007-898-B","status":"NOT_YET_RECRUITING","city":"Long Beach","state":"California","zip":"90805","country":"United States","contacts":[{"name":"Site 007-898-B","role":"CONTACT"}],"geoPoint":{"lat":33.76696,"lon":-118.18923}},{"facility":"MemorialCare - Long Beach Medical Center","status":"RECRUITING","city":"Long Beach","state":"California","zip":"90806","country":"United States","contacts":[{"name":"Nilesh Vora, Site 007-936","role":"CONTACT","phone":"562-933-1877"}],"geoPoint":{"lat":33.76696,"lon":-118.18923}},{"facility":"TRIO - Cancer & Blood Specialty Clinic - Los Alamitos","status":"RECRUITING","city":"Los Alamitos","state":"California","zip":"90720","country":"United States","contacts":[{"name":"Nihal Abdulla, Site 007-779","role":"CONTACT","phone":"562-706-6648"}],"geoPoint":{"lat":33.80307,"lon":-118.07256}},{"facility":"Local Institution - 007-579","status":"WITHDRAWN","city":"Los Angeles","state":"California","zip":"90048","country":"United States","geoPoint":{"lat":34.05223,"lon":-118.24368}},{"facility":"Local Institution - Unk045","status":"ACTIVE_NOT_RECRUITING","city":"Rancho Mirage","state":"California","zip":"92270","country":"United States","geoPoint":{"lat":33.73974,"lon":-116.41279}},{"facility":"San Francisco Veterans Affairs Medical Center","status":"RECRUITING","city":"San Francisco","state":"California","zip":"94121","country":"United States","contacts":[{"name":"Sunny Wang, Site 007-581","role":"CONTACT","phone":"415-279-9832"}],"geoPoint":{"lat":37.77493,"lon":-122.41942}},{"facility":"UCSF Helen Diller Family Comprehensive Cancer Center","status":"RECRUITING","city":"San Francisco","state":"California","zip":"94158","country":"United States","contacts":[{"name":"Collin Blakely, Site 007-540","role":"CONTACT","phone":"415-502-6959"}],"geoPoint":{"lat":37.77493,"lon":-122.41942}},{"facility":"Local Institution - 007-898-C","status":"NOT_YET_RECRUITING","city":"Santa Ana","state":"California","zip":"92705","country":"United States","contacts":[{"name":"Site 007-898-C","role":"CONTACT"}],"geoPoint":{"lat":33.74557,"lon":-117.86783}},{"facility":"Providence Medical Group - Santa Rosa","status":"RECRUITING","city":"Santa Rosa","state":"California","zip":"95403","country":"United States","contacts":[{"name":"Manasa Vulchi, Site 007-858","role":"CONTACT","phone":"707-521-3830"}],"geoPoint":{"lat":38.44047,"lon":-122.71443}},{"facility":"Stockton Hematology Oncology Medical Group (SHOMG) - Stockton (Suite B)","status":"RECRUITING","city":"Stockton","state":"California","zip":"95219","country":"United States","contacts":[{"name":"Sunny K. Philip, Jr., Site 007-582","role":"CONTACT","phone":"209-466-2626"}],"geoPoint":{"lat":37.9577,"lon":-121.29078}},{"facility":"Local Institution - 007-898-A","status":"NOT_YET_RECRUITING","city":"Whittier","state":"California","zip":"90602","country":"United States","contacts":[{"name":"Site 007-898-A","role":"CONTACT"}],"geoPoint":{"lat":33.97918,"lon":-118.03284}},{"facility":"Local Institution - 007-872-H","status":"NOT_YET_RECRUITING","city":"Aurora","state":"Colorado","zip":"80012","country":"United States","contacts":[{"name":"Site 007-872-H","role":"CONTACT"}],"geoPoint":{"lat":39.72943,"lon":-104.83192}},{"facility":"Local Institution - 007-872-D","status":"NOT_YET_RECRUITING","city":"Boulder","state":"Colorado","zip":"80303","country":"United States","contacts":[{"name":"Site 007-872-D","role":"CONTACT"}],"geoPoint":{"lat":40.01499,"lon":-105.27055}},{"facility":"Local Institution - 007-872-L","status":"NOT_YET_RECRUITING","city":"Centennial","state":"Colorado","zip":"80112","country":"United States","contacts":[{"name":"Site 007-872-L","role":"CONTACT"}],"geoPoint":{"lat":39.57916,"lon":-104.87692}},{"facility":"Local Institution - 007-872-C","status":"NOT_YET_RECRUITING","city":"Colorado Springs","state":"Colorado","zip":"80907","country":"United States","contacts":[{"name":"Site 007-872-C","role":"CONTACT"}],"geoPoint":{"lat":38.83388,"lon":-104.82136}},{"facility":"Local Institution - 007-872-K","status":"NOT_YET_RECRUITING","city":"Colorado Springs","state":"Colorado","zip":"80920","country":"United States","contacts":[{"name":"Site 007-872-K","role":"CONTACT"}],"geoPoint":{"lat":38.83388,"lon":-104.82136}},{"facility":"Local Institution - 007-872-E","status":"NOT_YET_RECRUITING","city":"Denver","state":"Colorado","zip":"80218","country":"United States","contacts":[{"name":"Site 007-872-E","role":"CONTACT"}],"geoPoint":{"lat":39.73915,"lon":-104.9847}},{"facility":"Local Institution - 007-872-I","status":"NOT_YET_RECRUITING","city":"Denver","state":"Colorado","zip":"80220","country":"United States","contacts":[{"name":"Site 007-872-I","role":"CONTACT"}],"geoPoint":{"lat":39.73915,"lon":-104.9847}},{"facility":"Local Institution - 007-872-A","status":"NOT_YET_RECRUITING","city":"Lakewood","state":"Colorado","zip":"80228","country":"United States","contacts":[{"name":"Site 007-872-A","role":"CONTACT"}],"geoPoint":{"lat":39.70471,"lon":-105.08137}},{"facility":"Local Institution - 007-872-J","status":"NOT_YET_RECRUITING","city":"Littleton","state":"Colorado","zip":"80218","country":"United States","contacts":[{"name":"Site 007-872-J","role":"CONTACT"}],"geoPoint":{"lat":39.61332,"lon":-105.01665}},{"facility":"USOR - Rocky Mountain Cancer Centers - Lone Tree","status":"RECRUITING","city":"Lone Tree","state":"Colorado","zip":"80124","country":"United States","contacts":[{"name":"Robert Jotte, Site 007-872","role":"CONTACT","phone":"303-430-2700"}],"geoPoint":{"lat":39.55171,"lon":-104.8863}},{"facility":"Local Institution - 007-872-G","status":"NOT_YET_RECRUITING","city":"Longmont","state":"Colorado","zip":"80504","country":"United States","contacts":[{"name":"Site 007-872-G","role":"CONTACT"}],"geoPoint":{"lat":40.16721,"lon":-105.10193}},{"facility":"Local Institution - 007-872-B","status":"NOT_YET_RECRUITING","city":"Pueblo","state":"Colorado","zip":"81003","country":"United States","contacts":[{"name":"Site 007-872-B","role":"CONTACT"}],"geoPoint":{"lat":38.25445,"lon":-104.60914}},{"facility":"Local Institution - 007-872-F","status":"NOT_YET_RECRUITING","city":"Thornton","state":"Colorado","zip":"80260","country":"United States","contacts":[{"name":"Site 007-872-F","role":"CONTACT"}],"geoPoint":{"lat":39.86804,"lon":-104.97192}},{"facility":"Eastern Connecticut Hematology and Oncology Associates","status":"RECRUITING","city":"Norwich","state":"Connecticut","zip":"06360","country":"United States","contacts":[{"name":"Dennis Slater, Site 007-949","role":"CONTACT","phone":"860-886-8362"}],"geoPoint":{"lat":41.52426,"lon":-72.07591}},{"facility":"Local Institution - 007-5476","status":"NOT_YET_RECRUITING","city":"Washington","state":"District of Columbia","zip":"20010","country":"United States","contacts":[{"name":"Site 007-5476","role":"CONTACT"}],"geoPoint":{"lat":38.89511,"lon":-77.03637}},{"facility":"GenesisCare USA","status":"RECRUITING","city":"Aventura","state":"Florida","zip":"33180","country":"United States","contacts":[{"name":"Edgardo Santos, Site 007-552","role":"CONTACT","phone":"239-938-9315"}],"geoPoint":{"lat":25.95648,"lon":-80.13921}},{"facility":"Bay Pines Veterans Affairs Healthcare System","status":"RECRUITING","city":"Bay Pines","state":"Florida","zip":"33744","country":"United States","contacts":[{"name":"Ryan Burri, Site 007-593","role":"CONTACT","phone":"727-398-6661"}],"geoPoint":{"lat":27.81419,"lon":-82.77816}},{"facility":"Local Institution - 007-922-A","status":"NOT_YET_RECRUITING","city":"Bonita Springs","state":"Florida","zip":"34135","country":"United States","contacts":[{"name":"Site 007-922-A","role":"CONTACT"}],"geoPoint":{"lat":26.33981,"lon":-81.7787}},{"facility":"Local Institution - 007-922-D","status":"NOT_YET_RECRUITING","city":"Bradenton","state":"Florida","zip":"34211","country":"United States","contacts":[{"name":"Site 007-922-D","role":"CONTACT"}],"geoPoint":{"lat":27.49893,"lon":-82.57482}},{"facility":"Local Institution - 007-922-E","status":"NOT_YET_RECRUITING","city":"Cape Coral","state":"Florida","zip":"33909","country":"United States","contacts":[{"name":"Site 007-922-E","role":"CONTACT"}],"geoPoint":{"lat":26.56285,"lon":-81.94953}},{"facility":"Local Institution - 007-896-A","status":"NOT_YET_RECRUITING","city":"Celebration","state":"Florida","zip":"34747","country":"United States","contacts":[{"name":"Site 007-896-A","role":"CONTACT"}],"geoPoint":{"lat":28.32529,"lon":-81.53313}},{"facility":"Local Institution - 007-926-B","status":"NOT_YET_RECRUITING","city":"Daytona Beach","state":"Florida","zip":"32117","country":"United States","contacts":[{"name":"Site 007-926-B","role":"CONTACT"}],"geoPoint":{"lat":29.21081,"lon":-81.02283}},{"facility":"Local Institution - 007-562-B","status":"NOT_YET_RECRUITING","city":"Fleming Island","state":"Florida","zip":"32003","country":"United States","contacts":[{"name":"Site 007-562-B","role":"CONTACT"}],"geoPoint":{"lat":30.0933,"lon":-81.71898}},{"facility":"SCRI - Florida Cancer Specialists - South Region Research Office","status":"RECRUITING","city":"Fort Myers","state":"Florida","zip":"33901","country":"United States","contacts":[{"name":"Fadi Kayali, Site 007-922","role":"CONTACT","phone":"239-274-9930"}],"geoPoint":{"lat":26.62168,"lon":-81.84059}},{"facility":"Local Institution - 007-922-B","status":"NOT_YET_RECRUITING","city":"Fort Myers","state":"Florida","zip":"33905","country":"United States","contacts":[{"name":"Site 007-922-B","role":"CONTACT"}],"geoPoint":{"lat":26.62168,"lon":-81.84059}},{"facility":"Local Institution - 007-922-C","status":"NOT_YET_RECRUITING","city":"Fort Myers","state":"Florida","zip":"33908","country":"United States","contacts":[{"name":"Site 007-922-C","role":"CONTACT"}],"geoPoint":{"lat":26.62168,"lon":-81.84059}},{"facility":"Local Institution - 007-562-F","status":"NOT_YET_RECRUITING","city":"Jacksonville Beach","state":"Florida","zip":"32250","country":"United States","contacts":[{"name":"Site 007-562-F","role":"CONTACT"}],"geoPoint":{"lat":30.29469,"lon":-81.39314}},{"facility":"21st Century Oncology of Jacksonville - North Lee Street","status":"RECRUITING","city":"Jacksonville","state":"Florida","zip":"32204","country":"United States","contacts":[{"name":"Troy Guthrie Jr., Site 007-853","role":"CONTACT","phone":"904-805-7061"}],"geoPoint":{"lat":30.33218,"lon":-81.65565}},{"facility":"Local Institution - 007-562-D","status":"NOT_YET_RECRUITING","city":"Jacksonville","state":"Florida","zip":"32204","country":"United States","contacts":[{"name":"Site 007-562-D","role":"CONTACT"}],"geoPoint":{"lat":30.33218,"lon":-81.65565}},{"facility":"Local Institution - 007-562-E","status":"NOT_YET_RECRUITING","city":"Jacksonville","state":"Florida","zip":"32207","country":"United States","contacts":[{"name":"Site 007-562-E","role":"CONTACT"}],"geoPoint":{"lat":30.33218,"lon":-81.65565}},{"facility":"Local Institution - 007-562-G","status":"NOT_YET_RECRUITING","city":"Jacksonville","state":"Florida","zip":"32218","country":"United States","contacts":[{"name":"Site 007-562-G","role":"CONTACT"}],"geoPoint":{"lat":30.33218,"lon":-81.65565}},{"facility":"Local Institution - 007-829","status":"WITHDRAWN","city":"Jacksonville","state":"Florida","zip":"32224","country":"United States","geoPoint":{"lat":30.33218,"lon":-81.65565}},{"facility":"Cancer Specialists of North Florida - Southpoint","status":"RECRUITING","city":"Jacksonville","state":"Florida","zip":"32256","country":"United States","contacts":[{"name":"Gaurav Trikha, Site 007-562","role":"CONTACT","phone":"203-530-1728"}],"geoPoint":{"lat":30.33218,"lon":-81.65565}},{"facility":"Local Institution - 007-562-C","status":"NOT_YET_RECRUITING","city":"Jacksonville","state":"Florida","zip":"32258","country":"United States","contacts":[{"name":"Site 007-562-C","role":"CONTACT"}],"geoPoint":{"lat":30.33218,"lon":-81.65565}},{"facility":"Miami Veterans Affairs Healthcare System","status":"RECRUITING","city":"Miami","state":"Florida","zip":"33125-1624","country":"United States","contacts":[{"name":"Gregory Holt, Site 007-594","role":"CONTACT","phone":"305-575-7000"}],"geoPoint":{"lat":25.77427,"lon":-80.19366}},{"facility":"Local Institution - 007-922-F","status":"NOT_YET_RECRUITING","city":"Naples","state":"Florida","zip":"34102","country":"United States","contacts":[{"name":"Site 007-922-F","role":"CONTACT"}],"geoPoint":{"lat":26.14234,"lon":-81.79596}},{"facility":"Local Institution - 007-922-G","status":"NOT_YET_RECRUITING","city":"Naples","state":"Florida","zip":"34102","country":"United States","contacts":[{"name":"Site 007-922-G","role":"CONTACT"}],"geoPoint":{"lat":26.14234,"lon":-81.79596}},{"facility":"AdventHealth Orlando","status":"RECRUITING","city":"Orlando","state":"Florida","zip":"32803","country":"United States","contacts":[{"name":"Mark Socinski, Site 007-896","role":"CONTACT","phone":"412-647-2811"}],"geoPoint":{"lat":28.53834,"lon":-81.37924}},{"facility":"USOR - Woodlands Medical Specialists","status":"RECRUITING","city":"Pensacola","state":"Florida","zip":"32503","country":"United States","contacts":[{"name":"Michael Poiesz, Site 007-877","role":"CONTACT","phone":"850-696-4000"}],"geoPoint":{"lat":30.42131,"lon":-87.21691}},{"facility":"Local Institution - 007-922-H","status":"NOT_YET_RECRUITING","city":"Port Charlotte","state":"Florida","zip":"33980","country":"United States","contacts":[{"name":"Site 007-922-H","role":"CONTACT"}],"geoPoint":{"lat":26.97617,"lon":-82.09064}},{"facility":"Local Institution - 007-562-A","status":"NOT_YET_RECRUITING","city":"Saint Augustine","state":"Florida","zip":"32086","country":"United States","contacts":[{"name":"Site 007-562-A","role":"CONTACT"}],"geoPoint":{"lat":29.89469,"lon":-81.31452}},{"facility":"Local Institution - 007-922-I","status":"NOT_YET_RECRUITING","city":"Sarasota","state":"Florida","zip":"34232","country":"United States","contacts":[{"name":"Site 007-922-I","role":"CONTACT"}],"geoPoint":{"lat":27.33643,"lon":-82.53065}},{"facility":"Local Institution - 007-922-J","status":"NOT_YET_RECRUITING","city":"Sarasota","state":"Florida","zip":"34236","country":"United States","contacts":[{"name":"Site 007-922-J","role":"CONTACT"}],"geoPoint":{"lat":27.33643,"lon":-82.53065}},{"facility":"Local Institution - 007-926-D","status":"NOT_YET_RECRUITING","city":"Stuart","state":"Florida","zip":"34994","country":"United States","contacts":[{"name":"Site 007-926-D","role":"CONTACT"}],"geoPoint":{"lat":27.19755,"lon":-80.25283}},{"facility":"Local Institution - 007-924-A","status":"NOT_YET_RECRUITING","city":"Tallahassee","state":"Florida","zip":"32308","country":"United States","contacts":[{"name":"Site 007-924-A","role":"CONTACT"}],"geoPoint":{"lat":30.43826,"lon":-84.28073}},{"facility":"SCRI - Florida Cancer Specialists - Tallahassee Cancer Center","status":"RECRUITING","city":"Tallahassee","state":"Florida","zip":"32308","country":"United States","contacts":[{"name":"Augusto Villegas, Site 007-924","role":"CONTACT","phone":"904-613-4275"}],"geoPoint":{"lat":30.43826,"lon":-84.28073}},{"facility":"James A. Haley Veterans Hospital","status":"RECRUITING","city":"Tampa","state":"Florida","zip":"33612","country":"United States","contacts":[{"name":"Elaine Tan, Site 007-937","role":"CONTACT","phone":"81397220006998"}],"geoPoint":{"lat":27.94752,"lon":-82.45843}},{"facility":"Local Institution - Unk065","status":"ACTIVE_NOT_RECRUITING","city":"Tampa","state":"Florida","zip":"33612","country":"United States","geoPoint":{"lat":27.94752,"lon":-82.45843}},{"facility":"Local Institution - 007-922-L","status":"NOT_YET_RECRUITING","city":"Venice","state":"Florida","zip":"34285","country":"United States","contacts":[{"name":"Site 007-922-L","role":"CONTACT"}],"geoPoint":{"lat":27.09978,"lon":-82.45426}},{"facility":"Local Institution - 007-922-K","status":"NOT_YET_RECRUITING","city":"Venice","state":"Florida","zip":"34292","country":"United States","contacts":[{"name":"Site 007-922-K","role":"CONTACT"}],"geoPoint":{"lat":27.09978,"lon":-82.45426}},{"facility":"Local Institution - 007-926-C","status":"NOT_YET_RECRUITING","city":"Vero Beach","state":"Florida","zip":"32960","country":"United States","contacts":[{"name":"Site 007-926-C","role":"CONTACT"}],"geoPoint":{"lat":27.63864,"lon":-80.39727}},{"facility":"Local Institution - 007-926-A","status":"NOT_YET_RECRUITING","city":"Wellington","state":"Florida","zip":"33414","country":"United States","contacts":[{"name":"Site 007-926-A","role":"CONTACT"}],"geoPoint":{"lat":26.65868,"lon":-80.24144}},{"facility":"SCRI - Florida Cancer Specialists - West Palm Beach","status":"RECRUITING","city":"West Palm Beach","state":"Florida","zip":"33401","country":"United States","contacts":[{"name":"Barry Berman, Site 007-926","role":"CONTACT","phone":"561-366-4100"}],"geoPoint":{"lat":26.71534,"lon":-80.05337}},{"facility":"Local Institution - Unk072","status":"ACTIVE_NOT_RECRUITING","city":"Weston","state":"Florida","zip":"33331","country":"United States","geoPoint":{"lat":26.10037,"lon":-80.39977}},{"facility":"University Cancer & Blood Center (UCBC) - Athens","status":"RECRUITING","city":"Athens","state":"Georgia","zip":"30607","country":"United States","contacts":[{"name":"Gustavo Westin, Site 007-941","role":"CONTACT","phone":"706-353-2990"}],"geoPoint":{"lat":33.96095,"lon":-83.37794}},{"facility":"Local Institution - Unk052","status":"ACTIVE_NOT_RECRUITING","city":"Atlanta","state":"Georgia","zip":"30318","country":"United States","geoPoint":{"lat":33.749,"lon":-84.38798}},{"facility":"Local Institution - 007-786-C","status":"NOT_YET_RECRUITING","city":"Carrollton","state":"Georgia","zip":"30117","country":"United States","contacts":[{"name":"Site 007-786-C","role":"CONTACT"}],"geoPoint":{"lat":33.58011,"lon":-85.07661}},{"facility":"Local Institution - 007-786-A","status":"NOT_YET_RECRUITING","city":"Cartersville","state":"Georgia","zip":"30121","country":"United States","contacts":[{"name":"Site 007-786-A","role":"CONTACT"}],"geoPoint":{"lat":34.16533,"lon":-84.80231}},{"facility":"Local Institution - 007-786-D","status":"NOT_YET_RECRUITING","city":"Douglasville","state":"Georgia","zip":"30134","country":"United States","contacts":[{"name":"Site 007-786-D","role":"CONTACT"}],"geoPoint":{"lat":33.7515,"lon":-84.74771}},{"facility":"Local Institution - 007-786-B","status":"NOT_YET_RECRUITING","city":"Hiram","state":"Georgia","zip":"30141","country":"United States","contacts":[{"name":"Site 007-786-B","role":"CONTACT"}],"geoPoint":{"lat":33.87566,"lon":-84.76216}},{"facility":"Central Georgia Cancer Care - Macon","status":"RECRUITING","city":"Macon","state":"Georgia","zip":"31201","country":"United States","contacts":[{"name":"Bradley Sumrall, Site 007-5478","role":"CONTACT","phone":"4787417145"}],"geoPoint":{"lat":32.84069,"lon":-83.6324}},{"facility":"Northwest Georgia Oncology Centers Wellstar - Marietta","status":"RECRUITING","city":"Marietta","state":"Georgia","zip":"30060","country":"United States","contacts":[{"name":"Steven McCune, Site 007-786","role":"CONTACT","phone":"770-281-5162"}],"geoPoint":{"lat":33.9526,"lon":-84.54993}},{"facility":"Local Institution - 007-897","status":"WITHDRAWN","city":"Honolulu","state":"Hawaii","zip":"96813","country":"United States","geoPoint":{"lat":21.30694,"lon":-157.85833}},{"facility":"Local Institution - Unk005","status":"ACTIVE_NOT_RECRUITING","city":"Honolulu","state":"Hawaii","zip":"96813","country":"United States","geoPoint":{"lat":21.30694,"lon":-157.85833}},{"facility":"Local Institution - 007-883-A","status":"NOT_YET_RECRUITING","city":"Arlington Heights","state":"Illinois","zip":"60005","country":"United States","contacts":[{"name":"Site 007-883-A","role":"CONTACT"}],"geoPoint":{"lat":42.08836,"lon":-87.98063}},{"facility":"Local Institution - 007-955","status":"WITHDRAWN","city":"Chicago","state":"Illinois","zip":"60612","country":"United States","geoPoint":{"lat":41.85003,"lon":-87.65005}},{"facility":"University of Chicago","status":"RECRUITING","city":"Chicago","state":"Illinois","zip":"60637","country":"United States","contacts":[{"name":"Marina Garassino, Site 007-972","role":"CONTACT","phone":"718-675-2060"}],"geoPoint":{"lat":41.85003,"lon":-87.65005}},{"facility":"Loyola University Medical Center","status":"RECRUITING","city":"Maywood","state":"Illinois","zip":"60153","country":"United States","contacts":[{"name":"Nan Sethakorn, Site 007-064","role":"CONTACT"}],"geoPoint":{"lat":41.8792,"lon":-87.84312}},{"facility":"USOR - Illinois Cancer Specialists - Niles","status":"RECRUITING","city":"Niles","state":"Illinois","zip":"60714","country":"United States","contacts":[{"name":"David Hakimian, Site 007-883","role":"CONTACT","phone":"847-827-9060"}],"geoPoint":{"lat":42.01892,"lon":-87.80284}},{"facility":"Advocate Medical Group Oncology","status":"RECRUITING","city":"Park Ridge","state":"Illinois","zip":"60068","country":"United States","contacts":[{"name":"Jason Macklis, Site 007-567","role":"CONTACT","phone":"000-000-0000"}],"geoPoint":{"lat":42.01114,"lon":-87.84062}},{"facility":"Local Institution - Unk061","status":"ACTIVE_NOT_RECRUITING","city":"Peoria","state":"Illinois","zip":"61603-3200","country":"United States","geoPoint":{"lat":40.69365,"lon":-89.58899}},{"facility":"Goshen Center for Cancer Care","status":"RECRUITING","city":"Goshen","state":"Indiana","zip":"46526","country":"United States","contacts":[{"name":"Ebenezer Kio, Site 007-943","role":"CONTACT","phone":"574-364-2888"}],"geoPoint":{"lat":41.58227,"lon":-85.83444}},{"facility":"Local Institution - 007-942-B","status":"NOT_YET_RECRUITING","city":"Chanute","state":"Kansas","zip":"66720","country":"United States","contacts":[{"name":"Site 007-942-B","role":"CONTACT"}],"geoPoint":{"lat":37.67921,"lon":-95.4572}},{"facility":"Local Institution - 007-942-D","status":"NOT_YET_RECRUITING","city":"El Dorado","state":"Kansas","zip":"67042","country":"United States","contacts":[{"name":"Site 007-942-D","role":"CONTACT"}],"geoPoint":{"lat":37.81724,"lon":-96.86225}},{"facility":"Local Institution - 007-942-E","status":"NOT_YET_RECRUITING","city":"Independence","state":"Kansas","zip":"67301","country":"United States","contacts":[{"name":"Site 007-942-E","role":"CONTACT"}],"geoPoint":{"lat":37.22424,"lon":-95.70831}},{"facility":"Local Institution - 007-942-F","status":"NOT_YET_RECRUITING","city":"Kingman","state":"Kansas","zip":"67068","country":"United States","contacts":[{"name":"Site 007-942-F","role":"CONTACT"}],"geoPoint":{"lat":37.64585,"lon":-98.11367}},{"facility":"Local Institution - 007-942-G","status":"NOT_YET_RECRUITING","city":"Liberal","state":"Kansas","zip":"67901","country":"United States","contacts":[{"name":"Site 007-942-G","role":"CONTACT"}],"geoPoint":{"lat":37.04308,"lon":-100.921}},{"facility":"Local Institution - 007-942-H","status":"NOT_YET_RECRUITING","city":"McPherson","state":"Kansas","zip":"67460","country":"United States","contacts":[{"name":"Site 007-942-H","role":"CONTACT"}],"geoPoint":{"lat":38.37084,"lon":-97.66421}},{"facility":"MidAmerica Cancer Care - Research","status":"RECRUITING","city":"Merriam","state":"Kansas","zip":"66204","country":"United States","contacts":[{"name":"Jaswinder Singh, Site 007-5484","role":"CONTACT","phone":"8168352261"}],"geoPoint":{"lat":39.02362,"lon":-94.69357}},{"facility":"Local Institution - 007-942-I","status":"NOT_YET_RECRUITING","city":"Newton","state":"Kansas","zip":"67114","country":"United States","contacts":[{"name":"Site 007-942-I","role":"CONTACT"}],"geoPoint":{"lat":38.04668,"lon":-97.34504}},{"facility":"Local Institution - 007-942-J","status":"NOT_YET_RECRUITING","city":"Parsons","state":"Kansas","zip":"67357","country":"United States","contacts":[{"name":"Site 007-942-J","role":"CONTACT"}],"geoPoint":{"lat":37.34034,"lon":-95.26108}},{"facility":"Local Institution - 007-942-K","status":"NOT_YET_RECRUITING","city":"Pratt","state":"Kansas","zip":"67124","country":"United States","contacts":[{"name":"Site 007-942-K","role":"CONTACT"}],"geoPoint":{"lat":37.64391,"lon":-98.73759}},{"facility":"Local Institution - 007-942-L","status":"NOT_YET_RECRUITING","city":"Salina","state":"Kansas","zip":"67401","country":"United States","contacts":[{"name":"Site 007-942-L","role":"CONTACT"}],"geoPoint":{"lat":38.84028,"lon":-97.61142}},{"facility":"Local Institution - 007-942-M","status":"NOT_YET_RECRUITING","city":"Wellington","state":"Kansas","zip":"67152","country":"United States","contacts":[{"name":"Site 007-942-M","role":"CONTACT"}],"geoPoint":{"lat":37.2653,"lon":-97.37171}},{"facility":"Local Institution - Unk032","status":"ACTIVE_NOT_RECRUITING","city":"Westwood","state":"Kansas","zip":"66205","country":"United States","geoPoint":{"lat":39.04056,"lon":-94.6169}},{"facility":"Local Institution - 007-942-A","status":"NOT_YET_RECRUITING","city":"Wichita","state":"Kansas","zip":"67208","country":"United States","contacts":[{"name":"Site 007-942-A","role":"CONTACT"}],"geoPoint":{"lat":37.69224,"lon":-97.33754}},{"facility":"Cancer Center of Kansas - Wichita - Heritage Plaza","status":"RECRUITING","city":"Wichita","state":"Kansas","zip":"67214","country":"United States","contacts":[{"name":"Shaker Dakhil, Site 007-942","role":"CONTACT","phone":"316-262-4467"}],"geoPoint":{"lat":37.69224,"lon":-97.33754}},{"facility":"Local Institution - 007-942-N","status":"NOT_YET_RECRUITING","city":"Winfield","state":"Kansas","zip":"67156","country":"United States","contacts":[{"name":"Site 007-942-N","role":"CONTACT"}],"geoPoint":{"lat":37.23975,"lon":-96.99559}},{"facility":"Lexington Medical Cancer Center Hematology/Oncology","status":"RECRUITING","city":"Lexington","state":"Kentucky","zip":"40503","country":"United States","contacts":[{"name":"Firas Badin, Site 007-965","role":"CONTACT","phone":"859-260-6100"}],"geoPoint":{"lat":37.98869,"lon":-84.47772}},{"facility":"University of Louisville","status":"RECRUITING","city":"Louisville","state":"Kentucky","zip":"40202","country":"United States","contacts":[{"name":"Goetz Kloecker, Site 007-388","role":"CONTACT","phone":"502-693-1206"}],"geoPoint":{"lat":38.25424,"lon":-85.75941}},{"facility":"Local Institution - 007-388-A","status":"NOT_YET_RECRUITING","city":"Louisville","state":"Kentucky","zip":"40245","country":"United States","contacts":[{"name":"Site 007-388-A","role":"CONTACT"}],"geoPoint":{"lat":38.25424,"lon":-85.75941}},{"facility":"Local Institution - Unk011","status":"ACTIVE_NOT_RECRUITING","city":"Baton Rouge","state":"Louisiana","zip":"70809","country":"United States","geoPoint":{"lat":30.45075,"lon":-91.15455}},{"facility":"Local Institution - 007-994-A","status":"NOT_YET_RECRUITING","city":"Covington","state":"Louisiana","zip":"70433","country":"United States","contacts":[{"name":"Site 007-994-A","role":"CONTACT"}],"geoPoint":{"lat":30.47549,"lon":-90.10042}},{"facility":"Pontchartrain Cancer Center - Covington Office","status":"RECRUITING","city":"Covington","state":"Louisiana","zip":"70433","country":"United States","contacts":[{"name":"David Oubre, Site 007-994","role":"CONTACT","phone":"985-875-1202"}],"geoPoint":{"lat":30.47549,"lon":-90.10042}},{"facility":"The Sidney Kimmel Comprehensive Cancer Center","status":"RECRUITING","city":"Baltimore","state":"Maryland","zip":"21231","country":"United States","contacts":[{"name":"Kristen Marrone, Site 007-944","role":"CONTACT","phone":"410-550-1711"}],"geoPoint":{"lat":39.29038,"lon":-76.61219}},{"facility":"Dana-Farber Cancer Institute","status":"RECRUITING","city":"Boston","state":"Massachusetts","zip":"02215","country":"United States","contacts":[{"name":"Pasi Janne, Site 007-808","role":"CONTACT"}],"geoPoint":{"lat":42.35843,"lon":-71.05977}},{"facility":"Dana-Farber Cancer Institute at St. Elizabeths Medical Center","status":"RECRUITING","city":"Brighton","state":"Massachusetts","zip":"02135","country":"United States","contacts":[{"name":"Ayse Dincer, Site 007-5483","role":"CONTACT","phone":"7026363000x4225"}],"geoPoint":{"lat":42.3501,"lon":-71.15644}},{"facility":"Brigham and Womens/Mass General Health Care Center at Foxborough","status":"RECRUITING","city":"Foxboro","state":"Massachusetts","zip":"02035","country":"United States","contacts":[{"name":"Naeem Tahir, Site 007-5480","role":"CONTACT","phone":"5085431700"}],"geoPoint":{"lat":42.06538,"lon":-71.24783}},{"facility":"Dana-Farber Cancer Institute - Merrimack Valley","status":"RECRUITING","city":"Methuen","state":"Massachusetts","zip":"01844","country":"United States","contacts":[{"name":"Pedro Sanz-Altamira, Site 007-5482","role":"CONTACT","phone":"9786202020"}],"geoPoint":{"lat":42.7262,"lon":-71.19089}},{"facility":"Dana-Farber Brigham and Womens Cancer Center at Milford Regional","status":"RECRUITING","city":"Milford","state":"Massachusetts","zip":"01757","country":"United States","contacts":[{"name":"Alexandra Bailey, Site 007-5479","role":"CONTACT","phone":"7813379091"}],"geoPoint":{"lat":42.13982,"lon":-71.51617}},{"facility":"Dana-Farber Brigham Cancer Center at South Shore Health","status":"RECRUITING","city":"South Weymouth","state":"Massachusetts","zip":"02190","country":"United States","contacts":[{"name":"Randi Carhart, Site 007-5481","role":"CONTACT","phone":"7816244800"}],"geoPoint":{"lat":42.1751,"lon":-70.94949}},{"facility":"USOR - Minnesota Oncology - Burnsville","status":"RECRUITING","city":"Burnsville","state":"Minnesota","zip":"55337","country":"United States","contacts":[{"name":"Sandeep Jain, Site 007-589","role":"CONTACT","phone":"952-892-7190"}],"geoPoint":{"lat":44.76774,"lon":-93.27772}},{"facility":"Local Institution - 007-589A","status":"NOT_YET_RECRUITING","city":"Edina","state":"Minnesota","zip":"55435","country":"United States","contacts":[{"name":"Site 007-589A","role":"CONTACT"}],"geoPoint":{"lat":44.88969,"lon":-93.34995}},{"facility":"Local Institution - Unk006","status":"ACTIVE_NOT_RECRUITING","city":"Minneapolis","state":"Minnesota","zip":"55404","country":"United States","geoPoint":{"lat":44.97997,"lon":-93.26384}},{"facility":"Local Institution - 007-822","status":"WITHDRAWN","city":"Minneapolis","state":"Minnesota","zip":"55455","country":"United States","geoPoint":{"lat":44.97997,"lon":-93.26384}},{"facility":"Local Institution - 007-830","status":"WITHDRAWN","city":"Rochester","state":"Minnesota","zip":"55905","country":"United States","geoPoint":{"lat":44.02163,"lon":-92.4699}},{"facility":"Jackson Oncology Associates - The Hederman Cancer Center","status":"RECRUITING","city":"Jackson","state":"Mississippi","zip":"39202","country":"United States","contacts":[{"name":"Natale Sheehan, Site 007-588","role":"CONTACT","phone":"601-355-2485"}],"geoPoint":{"lat":32.29876,"lon":-90.18481}},{"facility":"Local Institution - 007-590D","status":"NOT_YET_RECRUITING","city":"Grand Island","state":"Nebraska","zip":"68803","country":"United States","contacts":[{"name":"Site 007-590D","role":"CONTACT"}],"geoPoint":{"lat":40.92501,"lon":-98.34201}},{"facility":"Local Institution - 007-590A","status":"NOT_YET_RECRUITING","city":"Omaha","state":"Nebraska","zip":"68114-4108","country":"United States","contacts":[{"name":"Site 007-590A","role":"CONTACT"}],"geoPoint":{"lat":41.25626,"lon":-95.94043}},{"facility":"Local Institution - 007-590B","status":"NOT_YET_RECRUITING","city":"Omaha","state":"Nebraska","zip":"68124","country":"United States","contacts":[{"name":"Site 007-590B","role":"CONTACT"}],"geoPoint":{"lat":41.25626,"lon":-95.94043}},{"facility":"Nebraska Cancer Specialists - Midwest Cancer Center - Legacy","status":"RECRUITING","city":"Omaha","state":"Nebraska","zip":"68130","country":"United States","contacts":[{"name":"Mary Huerter Wells, Site 007-590","role":"CONTACT","phone":"402-334-4773"}],"geoPoint":{"lat":41.25626,"lon":-95.94043}},{"facility":"Local Institution - 007-590C","status":"NOT_YET_RECRUITING","city":"Papillion","state":"Nebraska","zip":"68046","country":"United States","contacts":[{"name":"Site 007-590C","role":"CONTACT"}],"geoPoint":{"lat":41.15444,"lon":-96.04224}},{"facility":"OptumCare Nevada","status":"RECRUITING","city":"Las Vegas","state":"Nevada","zip":"89106","country":"United States","contacts":[{"name":"Khawaja Saad Jahangir, Site 007-938","role":"CONTACT","phone":"70272487879733302391"}],"geoPoint":{"lat":36.17497,"lon":-115.13722}},{"facility":"Local Institution - 007-938A","status":"NOT_YET_RECRUITING","city":"Las Vegas","state":"Nevada","zip":"89148","country":"United States","contacts":[{"name":"Site 007-938A","role":"CONTACT"}],"geoPoint":{"lat":36.17497,"lon":-115.13722}},{"facility":"Local Institution - 007-938B","status":"NOT_YET_RECRUITING","city":"Las Vegas","state":"Nevada","zip":"89148","country":"United States","contacts":[{"name":"Site 007-938B","role":"CONTACT"}],"geoPoint":{"lat":36.17497,"lon":-115.13722}},{"facility":"Local Institution - 007-993","status":"WITHDRAWN","city":"Belleville","state":"New Jersey","zip":"07109","country":"United States","geoPoint":{"lat":40.79371,"lon":-74.15014}},{"facility":"Astera Cancer Care - East Brunswick","status":"RECRUITING","city":"East Brunswick","state":"New Jersey","zip":"08816","country":"United States","contacts":[{"name":"Bruno Fang, Site 007-975","role":"CONTACT","phone":"732-672-6405"}],"geoPoint":{"lat":40.42788,"lon":-74.41598}},{"facility":"John Theurer Cancer Center","status":"RECRUITING","city":"Hackensack","state":"New Jersey","zip":"07601","country":"United States","contacts":[{"name":"Martin Gutierrez, Site 007-854","role":"CONTACT","phone":"954-267-7700"}],"geoPoint":{"lat":40.88593,"lon":-74.04347}},{"facility":"Local Institution - 007-975-A","status":"NOT_YET_RECRUITING","city":"Somerset","state":"New Jersey","zip":"08873-5002","country":"United States","contacts":[{"name":"Site 007-975-A","role":"CONTACT"}],"geoPoint":{"lat":40.4976,"lon":-74.48849}},{"facility":"Local Institution - 007-975-B","status":"NOT_YET_RECRUITING","city":"Somerset","state":"New Jersey","zip":"08873-5002","country":"United States","contacts":[{"name":"Site 007-975-B","role":"CONTACT"}],"geoPoint":{"lat":40.4976,"lon":-74.48849}},{"facility":"Local Institution - 007-975-C","status":"NOT_YET_RECRUITING","city":"Somerset","state":"New Jersey","zip":"08873-5002","country":"United States","contacts":[{"name":"Site 007-975-C","role":"CONTACT"}],"geoPoint":{"lat":40.4976,"lon":-74.48849}},{"facility":"Local Institution - 007-975-D","status":"NOT_YET_RECRUITING","city":"Somerset","state":"New Jersey","zip":"08873-5002","country":"United States","contacts":[{"name":"Site 007-975-D","role":"CONTACT"}],"geoPoint":{"lat":40.4976,"lon":-74.48849}},{"facility":"Holy Name Medical Center","status":"RECRUITING","city":"Teaneck","state":"New Jersey","zip":"07666","country":"United States","contacts":[{"name":"Yadyra Rivera, Site 007-784","role":"CONTACT","phone":"201-227-6008"}],"geoPoint":{"lat":40.8976,"lon":-74.01597}},{"facility":"New York Oncology Hematology - Albany Medical Center","status":"RECRUITING","city":"Albany","state":"New York","zip":"12208","country":"United States","contacts":[{"name":"Makenzi Evangelist, Site 007-861","role":"CONTACT","phone":"518-489-2607"}],"geoPoint":{"lat":42.65258,"lon":-73.75623}},{"facility":"Montefiore Medical Center","status":"RECRUITING","city":"Bronx","state":"New York","zip":"10467","country":"United States","contacts":[{"name":"Balazs Halmos, Site 007-945","role":"CONTACT","phone":"718-405-8404"}],"geoPoint":{"lat":40.84985,"lon":-73.86641}},{"facility":"Local Institution - Unk077","status":"ACTIVE_NOT_RECRUITING","city":"Rhinebeck","state":"New York","zip":"12572","country":"United States","geoPoint":{"lat":41.92676,"lon":-73.91264}},{"facility":"Duke University Medical Center","status":"RECRUITING","city":"Durham","state":"North Carolina","zip":"27710","country":"United States","contacts":[{"name":"Thomas Stinchcombe, Site 007-946","role":"CONTACT","phone":"919-613-2000"}],"geoPoint":{"lat":35.99403,"lon":-78.89862}},{"facility":"Local Institution - 007-893-B","status":"NOT_YET_RECRUITING","city":"Cincinnati","state":"Ohio","zip":"45211","country":"United States","contacts":[{"name":"Site 007-893-B","role":"CONTACT"}],"geoPoint":{"lat":39.12713,"lon":-84.51435}},{"facility":"USOR - Oncology Hematology Care - Blue Ash","status":"RECRUITING","city":"Cincinnati","state":"Ohio","zip":"45242","country":"United States","contacts":[{"name":"Patrick Ward, Site 007-893","role":"CONTACT","phone":"513-751-2273"}],"geoPoint":{"lat":39.12713,"lon":-84.51435}},{"facility":"Local Institution - 007-893-C","status":"NOT_YET_RECRUITING","city":"Cincinnati","state":"Ohio","zip":"45245","country":"United States","contacts":[{"name":"Site 007-893-C","role":"CONTACT"}],"geoPoint":{"lat":39.12713,"lon":-84.51435}},{"facility":"University Hospitals Cleveland Medical Center","status":"RECRUITING","city":"Cleveland","state":"Ohio","zip":"44106","country":"United States","contacts":[{"name":"Debora Santos Bruno, Site 007-849","role":"CONTACT","phone":"216-844-5202"}],"geoPoint":{"lat":41.4995,"lon":-81.69541}},{"facility":"Mark H. Zangmeister Cancer Center","status":"RECRUITING","city":"Columbus","state":"Ohio","zip":"43219","country":"United States","contacts":[{"name":"Jorge Rios-perez, Site 007-930","role":"CONTACT","phone":"502-561-7301"}],"geoPoint":{"lat":39.96118,"lon":-82.99879}},{"facility":"Local Institution - 007-893-A","status":"NOT_YET_RECRUITING","city":"Fairfield","state":"Ohio","zip":"45014","country":"United States","contacts":[{"name":"Site 007-893-A","role":"CONTACT"}],"geoPoint":{"lat":39.34589,"lon":-84.5605}},{"facility":"Kettering Health Cancer Center - Main Campus","status":"RECRUITING","city":"Kettering","state":"Ohio","zip":"45429","country":"United States","contacts":[{"name":"Alejandro Calvo, Site 007-836","role":"CONTACT","phone":"855-500-2873"}],"geoPoint":{"lat":39.6895,"lon":-84.16883}},{"facility":"USOR - Willamette Valley Cancer Institute and Research Center - Eugene","status":"RECRUITING","city":"Eugene","state":"Oregon","zip":"97401","country":"United States","contacts":[{"name":"Bo Wang, Site 007-889","role":"CONTACT","phone":"541-683-5001"}],"geoPoint":{"lat":44.05207,"lon":-123.08675}},{"facility":"Local Institution - 007-885B","status":"NOT_YET_RECRUITING","city":"Portland","state":"Oregon","zip":"97213","country":"United States","contacts":[{"name":"Site 007-885B","role":"CONTACT"}],"geoPoint":{"lat":45.52345,"lon":-122.67621}},{"facility":"Local Institution - 007-885A","status":"NOT_YET_RECRUITING","city":"Portland","state":"Oregon","zip":"97227","country":"United States","contacts":[{"name":"Site 007-885A","role":"CONTACT"}],"geoPoint":{"lat":45.52345,"lon":-122.67621}},{"facility":"Oregon Oncology Specialists","status":"RECRUITING","city":"Salem","state":"Oregon","zip":"97301","country":"United States","contacts":[{"name":"Janelle Meyer, Site 007-967","role":"CONTACT","phone":"708-327-3180"}],"geoPoint":{"lat":44.9429,"lon":-123.0351}},{"facility":"Local Institution - 007-885C","status":"NOT_YET_RECRUITING","city":"Tigard","state":"Oregon","zip":"97223","country":"United States","contacts":[{"name":"Site 007-885C","role":"CONTACT"}],"geoPoint":{"lat":45.43123,"lon":-122.77149}},{"facility":"Local Institution - Unk041","status":"ACTIVE_NOT_RECRUITING","city":"Allentown","state":"Pennsylvania","zip":"18103-6218","country":"United States","geoPoint":{"lat":40.60843,"lon":-75.49018}},{"facility":"Veterans Affairs Pittsburgh Healthcare System - University Drive Campus","status":"RECRUITING","city":"Pittsburgh","state":"Pennsylvania","zip":"15240","country":"United States","contacts":[{"name":"James Herman, Site 007-5477","role":"CONTACT","phone":"4126237769"}],"geoPoint":{"lat":40.44062,"lon":-79.99589}},{"facility":"Local Institution - 007-960","status":"WITHDRAWN","city":"Providence","state":"Rhode Island","zip":"02903","country":"United States","geoPoint":{"lat":41.82399,"lon":-71.41283}},{"facility":"Local Institution - Unk038","status":"ACTIVE_NOT_RECRUITING","city":"Charleston","state":"South Carolina","zip":"29414","country":"United States","geoPoint":{"lat":32.77657,"lon":-79.93092}},{"facility":"Local Institution - 007-5475","status":"WITHDRAWN","city":"Spartanburg","state":"South Carolina","zip":"29303","country":"United States","geoPoint":{"lat":34.94957,"lon":-81.93205}},{"facility":"Avera Cancer Institute","status":"RECRUITING","city":"Sioux Falls","state":"South Dakota","zip":"57105","country":"United States","contacts":[{"name":"Benjamin Solomon, Site 007-940","role":"CONTACT","phone":"605-322-6900"}],"geoPoint":{"lat":43.54997,"lon":-96.70033}},{"facility":"Local Institution - 007-928-L","status":"NOT_YET_RECRUITING","city":"Dickson","state":"Tennessee","zip":"37055","country":"United States","contacts":[{"name":"Site 007-928-L","role":"CONTACT"}],"geoPoint":{"lat":36.077,"lon":-87.38779}},{"facility":"Local Institution - 007-928-J","status":"NOT_YET_RECRUITING","city":"Franklin","state":"Tennessee","zip":"37067","country":"United States","contacts":[{"name":"Site 007-928-J","role":"CONTACT"}],"geoPoint":{"lat":35.92506,"lon":-86.86889}},{"facility":"Local Institution - 007-928-G","status":"NOT_YET_RECRUITING","city":"Gallatin","state":"Tennessee","zip":"37066","country":"United States","contacts":[{"name":"Site 007-928-G","role":"CONTACT"}],"geoPoint":{"lat":36.38838,"lon":-86.44666}},{"facility":"West Cancer Center & Research Institute - East Campus","status":"RECRUITING","city":"Germantown","state":"Tennessee","zip":"38138","country":"United States","contacts":[{"name":"Ramakrishna Battini, Site 007-916","role":"CONTACT","phone":"901-683-0055"}],"geoPoint":{"lat":35.08676,"lon":-89.81009}},{"facility":"Local Institution - 007-928-A","status":"NOT_YET_RECRUITING","city":"Hendersonville","state":"Tennessee","zip":"37075","country":"United States","contacts":[{"name":"Site 007-928-A","role":"CONTACT"}],"geoPoint":{"lat":36.30477,"lon":-86.62}},{"facility":"Local Institution - 007-928-D","status":"NOT_YET_RECRUITING","city":"Hermitage","state":"Tennessee","zip":"37076","country":"United States","contacts":[{"name":"Site 007-928-D","role":"CONTACT"}],"geoPoint":{"lat":36.19617,"lon":-86.6225}},{"facility":"Local Institution - 007-928-H","status":"NOT_YET_RECRUITING","city":"Lebanon","state":"Tennessee","zip":"37090","country":"United States","contacts":[{"name":"Site 007-928-H","role":"CONTACT"}],"geoPoint":{"lat":36.20811,"lon":-86.2911}},{"facility":"Local Institution - 007-928-F","status":"NOT_YET_RECRUITING","city":"Murfreesboro","state":"Tennessee","zip":"37129","country":"United States","contacts":[{"name":"Site 007-928-F","role":"CONTACT"}],"geoPoint":{"lat":35.84562,"lon":-86.39027}},{"facility":"Local Institution - 007-928-B","status":"NOT_YET_RECRUITING","city":"Nashville","state":"Tennessee","zip":"37203","country":"United States","contacts":[{"name":"Site 007-928-B","role":"CONTACT"}],"geoPoint":{"lat":36.16589,"lon":-86.78444}},{"facility":"Tennessee Oncology - Nashville - Centennial Clinic - Medical Oncology","status":"RECRUITING","city":"Nashville","state":"Tennessee","zip":"37203","country":"United States","contacts":[{"name":"Melissa Johnson, Site 007-928","role":"CONTACT"}],"geoPoint":{"lat":36.16589,"lon":-86.78444}},{"facility":"Local Institution - 007-928-K","status":"NOT_YET_RECRUITING","city":"Nashville","state":"Tennessee","zip":"37205","country":"United States","contacts":[{"name":"Site 007-928-K","role":"CONTACT"}],"geoPoint":{"lat":36.16589,"lon":-86.78444}},{"facility":"Local Institution - 007-928-E","status":"NOT_YET_RECRUITING","city":"Nashville","state":"Tennessee","zip":"37207","country":"United States","contacts":[{"name":"Site 007-928-E","role":"CONTACT"}],"geoPoint":{"lat":36.16589,"lon":-86.78444}},{"facility":"Local Institution - 007-928-C","status":"NOT_YET_RECRUITING","city":"Nashville","state":"Tennessee","zip":"37211","country":"United States","contacts":[{"name":"Site 007-928-C","role":"CONTACT"}],"geoPoint":{"lat":36.16589,"lon":-86.78444}},{"facility":"Local Institution - 007-928-M","status":"NOT_YET_RECRUITING","city":"Shelbyville","state":"Tennessee","zip":"37160","country":"United States","contacts":[{"name":"Site 007-928-M","role":"CONTACT"}],"geoPoint":{"lat":35.48341,"lon":-86.46027}},{"facility":"Local Institution - 007-928-I","status":"NOT_YET_RECRUITING","city":"Smyrna","state":"Tennessee","zip":"37167","country":"United States","contacts":[{"name":"Site 007-928-I","role":"CONTACT"}],"geoPoint":{"lat":35.98284,"lon":-86.5186}},{"facility":"Local Institution - 007-554B","status":"NOT_YET_RECRUITING","city":"Abilene","state":"Texas","zip":"79606","country":"United States","contacts":[{"name":"Site 007-554B","role":"CONTACT"}],"geoPoint":{"lat":32.44874,"lon":-99.73314}},{"facility":"Local Institution - 007-554G","status":"NOT_YET_RECRUITING","city":"Amarillo","state":"Texas","zip":"79124","country":"United States","contacts":[{"name":"Site 007-554G","role":"CONTACT"}],"geoPoint":{"lat":35.222,"lon":-101.8313}},{"facility":"Local Institution - 007-879-A","status":"NOT_YET_RECRUITING","city":"Arlington","state":"Texas","zip":"76012","country":"United States","contacts":[{"name":"Site 007-879-A","role":"CONTACT"}],"geoPoint":{"lat":32.73569,"lon":-97.10807}},{"facility":"Local Institution - 007-879-B","status":"NOT_YET_RECRUITING","city":"Arlington","state":"Texas","zip":"76014","country":"United States","contacts":[{"name":"Site 007-879-B","role":"CONTACT"}],"geoPoint":{"lat":32.73569,"lon":-97.10807}},{"facility":"Local Institution - 007-892-B","status":"NOT_YET_RECRUITING","city":"Austin","state":"Texas","zip":"78705","country":"United States","contacts":[{"name":"Site 007-892-B","role":"CONTACT"}],"geoPoint":{"lat":30.26715,"lon":-97.74306}},{"facility":"Local Institution - 007-892-A","status":"NOT_YET_RECRUITING","city":"Austin","state":"Texas","zip":"78731","country":"United States","contacts":[{"name":"Site 007-892-A","role":"CONTACT"}],"geoPoint":{"lat":30.26715,"lon":-97.74306}},{"facility":"USOR - Texas Oncology - Dallas Fort Worth (DFW) - South Austin","status":"RECRUITING","city":"Austin","state":"Texas","zip":"78745","country":"United States","contacts":[{"name":"James Uyeki, Site 007-892","role":"CONTACT","phone":"512-427-9400"}],"geoPoint":{"lat":30.26715,"lon":-97.74306}},{"facility":"Local Institution - 007-879-C","status":"NOT_YET_RECRUITING","city":"Bedford","state":"Texas","zip":"76022","country":"United States","contacts":[{"name":"Site 007-879-C","role":"CONTACT"}],"geoPoint":{"lat":32.84402,"lon":-97.14307}},{"facility":"Local Institution - Unk059","status":"ACTIVE_NOT_RECRUITING","city":"Dallas","state":"Texas","zip":"75204","country":"United States","geoPoint":{"lat":32.78306,"lon":-96.80667}},{"facility":"Local Institution - 007-592","status":"WITHDRAWN","city":"Dallas","state":"Texas","zip":"75216","country":"United States","geoPoint":{"lat":32.78306,"lon":-96.80667}},{"facility":"Texas Oncology - Dallas Fort Worth (DFW) - Baylor Charles A. Sammons Cancer Center","status":"RECRUITING","city":"Dallas","state":"Texas","zip":"75246","country":"United States","contacts":[{"name":"Kartik Konduri, Site 007-879","role":"CONTACT","phone":"214-370-1000"}],"geoPoint":{"lat":32.78306,"lon":-96.80667}},{"facility":"USOR - Texas Oncology Northeast Texas - Denison","status":"RECRUITING","city":"Denison","state":"Texas","zip":"75020","country":"United States","contacts":[{"name":"Amir Faridi, Site 007-890","role":"CONTACT","phone":"903-868-4700"}],"geoPoint":{"lat":33.75566,"lon":-96.53666}},{"facility":"Local Institution - 007-554E","status":"NOT_YET_RECRUITING","city":"El Paso","state":"Texas","zip":"79902","country":"United States","contacts":[{"name":"Site 007-554E","role":"CONTACT"}],"geoPoint":{"lat":31.75872,"lon":-106.48693}},{"facility":"Local Institution - 007-554C","status":"NOT_YET_RECRUITING","city":"El Paso","state":"Texas","zip":"79915","country":"United States","contacts":[{"name":"Site 007-554C","role":"CONTACT"}],"geoPoint":{"lat":31.75872,"lon":-106.48693}},{"facility":"Local Institution - 007-554F","status":"NOT_YET_RECRUITING","city":"El Paso","state":"Texas","zip":"79938","country":"United States","contacts":[{"name":"Site 007-554F","role":"CONTACT"}],"geoPoint":{"lat":31.75872,"lon":-106.48693}},{"facility":"USOR - Texas Oncology - Fredericksburg","status":"RECRUITING","city":"Fredericksburg","state":"Texas","zip":"78624","country":"United States","contacts":[{"name":"Alyssa Rieber, Site 007-927","role":"CONTACT","phone":"830-990-0255"}],"geoPoint":{"lat":30.2752,"lon":-98.87198}},{"facility":"Local Institution - 007-848","status":"ACTIVE_NOT_RECRUITING","city":"Houston","state":"Texas","zip":"77030","country":"United States","geoPoint":{"lat":29.76328,"lon":-95.36327}},{"facility":"Local Institution - 007-999","status":"NOT_YET_RECRUITING","city":"Irving","state":"Texas","zip":"75063","country":"United States","contacts":[{"name":"Site 007-999","role":"CONTACT"}],"geoPoint":{"lat":32.81402,"lon":-96.94889}},{"facility":"Local Institution - 007-890-B","status":"NOT_YET_RECRUITING","city":"Longview","state":"Texas","zip":"75601","country":"United States","contacts":[{"name":"Site 007-890-B","role":"CONTACT"}],"geoPoint":{"lat":32.5007,"lon":-94.74049}},{"facility":"Local Institution - 007-554A","status":"NOT_YET_RECRUITING","city":"Midland","state":"Texas","zip":"79701","country":"United States","contacts":[{"name":"Site 007-554A","role":"CONTACT"}],"geoPoint":{"lat":31.99735,"lon":-102.07791}},{"facility":"USOR - Texas Oncology - Dallas Fort Worth (DFW) - Odessa West Texas Cancer Center","status":"RECRUITING","city":"Odessa","state":"Texas","zip":"79761","country":"United States","contacts":[{"name":"Pankaj Khandelwal, Site 007-554","role":"CONTACT","phone":"432-335-8275"}],"geoPoint":{"lat":31.84568,"lon":-102.36764}},{"facility":"USOR - Texas Oncology - The Woodlands","status":"RECRUITING","city":"The Woodlands","state":"Texas","zip":"77380","country":"United States","contacts":[{"name":"Kruti Sheth Nair, Site 007-894","role":"CONTACT","phone":"281-298-8907"}],"geoPoint":{"lat":30.15799,"lon":-95.48938}},{"facility":"Local Institution - 007-890-A","status":"NOT_YET_RECRUITING","city":"Tyler","state":"Texas","zip":"75702","country":"United States","contacts":[{"name":"Site 007-890-A","role":"CONTACT"}],"geoPoint":{"lat":32.35126,"lon":-95.30106}},{"facility":"Local Institution - 007-554D","status":"NOT_YET_RECRUITING","city":"Wichita Falls","state":"Texas","zip":"76310","country":"United States","contacts":[{"name":"Site 007-554D","role":"CONTACT"}],"geoPoint":{"lat":33.91371,"lon":-98.49339}},{"facility":"Local Institution - 007-912","status":"WITHDRAWN","city":"Salt Lake City","state":"Utah","zip":"84112","country":"United States","geoPoint":{"lat":40.76078,"lon":-111.89105}},{"facility":"Local Institution - 007-814-A","status":"NOT_YET_RECRUITING","city":"Alexandria","state":"Virginia","zip":"22304","country":"United States","contacts":[{"name":"Site 007-814-A","role":"CONTACT"}],"geoPoint":{"lat":38.80484,"lon":-77.04692}},{"facility":"Local Institution - 007-814-D","status":"NOT_YET_RECRUITING","city":"Arlington","state":"Virginia","zip":"22201","country":"United States","contacts":[{"name":"Site 007-814-D","role":"CONTACT"}],"geoPoint":{"lat":38.88101,"lon":-77.10428}},{"facility":"USOR - Virginia Cancer Specialists - Fairfax Office","status":"RECRUITING","city":"Fairfax","state":"Virginia","zip":"22031","country":"United States","contacts":[{"name":"Alexander Spira, Site 007-814","role":"CONTACT","phone":"703-280-5390"}],"geoPoint":{"lat":38.84622,"lon":-77.30637}},{"facility":"Local Institution - 007-814-B","status":"NOT_YET_RECRUITING","city":"Gainesville","state":"Virginia","zip":"20155","country":"United States","contacts":[{"name":"Site 007-814-B","role":"CONTACT"}],"geoPoint":{"lat":38.79567,"lon":-77.61388}},{"facility":"Local Institution - 007-814-C","status":"NOT_YET_RECRUITING","city":"Leesburg","state":"Virginia","zip":"20176","country":"United States","contacts":[{"name":"Site 007-814-C","role":"CONTACT"}],"geoPoint":{"lat":39.11566,"lon":-77.5636}},{"facility":"Virginia Cancer Institute - West End","status":"RECRUITING","city":"Richmond","state":"Virginia","zip":"23229","country":"United States","contacts":[{"name":"Thomas Weart, Site 007-539","role":"CONTACT","phone":"804-287-3000"}],"geoPoint":{"lat":37.55376,"lon":-77.46026}},{"facility":"USOR - Northwest Cancer Specialists, P.C. dba Compass Oncology - Vancouver Cancer Center","status":"RECRUITING","city":"Vancouver","state":"Washington","zip":"98684","country":"United States","contacts":[{"name":"Anthony Van Ho, Site 007-885","role":"CONTACT","phone":"503-885-5411"}],"geoPoint":{"lat":45.63873,"lon":-122.66149}},{"facility":"Local Institution - Unk064","status":"ACTIVE_NOT_RECRUITING","city":"Huntington","state":"West Virginia","zip":"25705","country":"United States","geoPoint":{"lat":38.41925,"lon":-82.44515}},{"facility":"Local Institution - Unk057","status":"ACTIVE_NOT_RECRUITING","city":"Madison","state":"Wisconsin","zip":"53715","country":"United States","geoPoint":{"lat":43.07305,"lon":-89.40123}},{"facility":"Local Institution - Unk068","status":"ACTIVE_NOT_RECRUITING","city":"Madison","state":"Wisconsin","zip":"53792","country":"United States","geoPoint":{"lat":43.07305,"lon":-89.40123}},{"facility":"Local Institution - 007-5001","status":"NOT_YET_RECRUITING","city":"Belgrano","state":"Buenos Aires","zip":"C1430EGF","country":"Argentina","contacts":[{"name":"Site 007-5001","role":"CONTACT"}]},{"facility":"Local Institution - Unk043","status":"ACTIVE_NOT_RECRUITING","city":"Ciudad Autonoma De Buenos Aires","state":"Buenos Aires","zip":"C1199ABB","country":"Argentina","geoPoint":{"lat":-34.61315,"lon":-58.37723}},{"facility":"Local Institution - 007-5004","status":"NOT_YET_RECRUITING","city":"Rosario","state":"Santa Fe","zip":"S2000KZE","country":"Argentina","contacts":[{"name":"Site 007-5004","role":"CONTACT"}],"geoPoint":{"lat":-32.94682,"lon":-60.63932}},{"facility":"Local Institution - Unk053","status":"ACTIVE_NOT_RECRUITING","city":"Buenos Aires","zip":"C1426ANZ","country":"Argentina","geoPoint":{"lat":-34.61315,"lon":-58.37723}},{"facility":"Local Institution - Unk033","status":"ACTIVE_NOT_RECRUITING","city":"Porto Alegre","zip":"91350-200","country":"Argentina"},{"facility":"Local Institution - Unk020","status":"ACTIVE_NOT_RECRUITING","city":"Rio Cuarto","zip":"X5800","country":"Argentina","geoPoint":{"lat":-33.13067,"lon":-64.34992}},{"facility":"Ballarat Regional Integrated Cancer Center","status":"RECRUITING","city":"Ballarat","zip":"3350","country":"Australia","contacts":[{"name":"Wasek Faisal, Site 007-018","role":"CONTACT","phone":"61353208500"}],"geoPoint":{"lat":-37.56622,"lon":143.84957}},{"facility":"Flinders Medical Centre","status":"RECRUITING","city":"Bedford Park","zip":"5042","country":"Australia","contacts":[{"name":"Christos Karapetis, Site 007-005","role":"CONTACT","phone":"61882048997"}],"geoPoint":{"lat":-35.03333,"lon":138.56667}},{"facility":"Local Institution - 007-004","status":"WITHDRAWN","city":"Clayton","zip":"3168","country":"Australia","geoPoint":{"lat":-37.91667,"lon":145.11667}},{"facility":"Canberra Hospital","status":"RECRUITING","city":"Garran","zip":"2605","country":"Australia","contacts":[{"name":"Geoffrey Peters, Site 007-006","role":"CONTACT","phone":"610251242220"}],"geoPoint":{"lat":-35.34206,"lon":149.10846}},{"facility":"Local Institution - 007-1003","status":"NOT_YET_RECRUITING","city":"Hyde Park","zip":"4812","country":"Australia","contacts":[{"name":"Site 007-1003","role":"CONTACT"}],"geoPoint":{"lat":-19.27691,"lon":146.79653}},{"facility":"Local Institution - 007-1002","status":"NOT_YET_RECRUITING","city":"Port Macquarie","zip":"2444","country":"Australia","contacts":[{"name":"Site 007-1002","role":"CONTACT"}],"geoPoint":{"lat":-31.43084,"lon":152.90894}},{"facility":"Cancer Care Wollongong","status":"RECRUITING","city":"Wollongong","zip":"2500","country":"Australia","contacts":[{"name":"Daniel Brungs, Site 007-017","role":"CONTACT","phone":"61242286200"}],"geoPoint":{"lat":-34.424,"lon":150.89345}},{"facility":"Princess Alexandra Hospital","status":"RECRUITING","city":"Woolloongabba","zip":"4102","country":"Australia","contacts":[{"name":"Kenneth OByrne, Site 007-009","role":"CONTACT","phone":"61731762111"}],"geoPoint":{"lat":-27.48855,"lon":153.03655}},{"facility":"Klinikum Klagenfurt Am Worthersee","status":"RECRUITING","city":"Klagenfurt Am Woerthersee","zip":"9020","country":"Austria","contacts":[{"name":"Markus Rauter, Site 007-142","role":"CONTACT","phone":"4346353831303"}]},{"facility":"Ordensklinikum Linz Elisabethinen","status":"RECRUITING","city":"Linz","zip":"4020","country":"Austria","contacts":[{"name":"Michael Schumacher, Site 007-147","role":"CONTACT","phone":"4373276763220"}],"geoPoint":{"lat":48.30639,"lon":14.28611}},{"facility":"Wiener Gesundheitsverbund - Klinik Floridsdorf","status":"RECRUITING","city":"Wien","zip":"1210","country":"Austria","contacts":[{"name":"Maximilian Hochmair, Site 007-141","role":"CONTACT"}],"geoPoint":{"lat":48.20849,"lon":16.37208}},{"facility":"Universitair Ziekenhuis Antwerpen","status":"RECRUITING","city":"Edegem","zip":"2650","country":"Belgium","contacts":[{"name":"Jo Raskin, Site 007-157","role":"CONTACT","phone":"3238213725"}],"geoPoint":{"lat":51.15662,"lon":4.44504}},{"facility":"Algemeen Ziekenhuis Maria Middelares","status":"RECRUITING","city":"Gent","zip":"9000","country":"Belgium","contacts":[{"name":"Paul Germonpre, Site 007-155","role":"CONTACT","phone":"3292468400"}],"geoPoint":{"lat":51.05,"lon":3.71667}},{"facility":"Jessa Ziekenhuis - Campus Virga Jesse","status":"RECRUITING","city":"Hasselt","zip":"3500","country":"Belgium","contacts":[{"name":"Kristof Cuppens, Site 007-158","role":"CONTACT","phone":"+32472565987"}],"geoPoint":{"lat":50.93106,"lon":5.33781}},{"facility":"Local Institution - 007-152","status":"WITHDRAWN","city":"Roeselare","zip":"8800","country":"Belgium","geoPoint":{"lat":50.94653,"lon":3.12269}},{"facility":"Local Institution - 007-458","status":"NOT_YET_RECRUITING","city":"Natal","state":"Rio Grande Do Norte","zip":"59062-000","country":"Brazil","contacts":[{"name":"Site 007-458","role":"CONTACT"}],"geoPoint":{"lat":-5.795,"lon":-35.20944}},{"facility":"Local Institution - Unk050","status":"ACTIVE_NOT_RECRUITING","city":"Lajeado","state":"Rio Grande Do Sul","zip":"95900-000","country":"Brazil","geoPoint":{"lat":-29.46694,"lon":-51.96139}},{"facility":"Local Institution - Unk015","status":"ACTIVE_NOT_RECRUITING","city":"Porto Alegre","state":"Rio Grande Do Sul","zip":"90619-900","country":"Brazil","geoPoint":{"lat":-30.03306,"lon":-51.23}},{"facility":"Local Institution - Unk060","status":"ACTIVE_NOT_RECRUITING","city":"Barretos","zip":"14783-213","country":"Brazil","geoPoint":{"lat":-20.55722,"lon":-48.56778}},{"facility":"Local Institution - Unk002","status":"ACTIVE_NOT_RECRUITING","city":"Ijui","zip":"98700-000","country":"Brazil","geoPoint":{"lat":-28.38778,"lon":-53.91472}},{"facility":"Local Institution - Unk003","status":"ACTIVE_NOT_RECRUITING","city":"Rio de Janeiro","zip":"20231-050","country":"Brazil","geoPoint":{"lat":-22.90278,"lon":-43.2075}},{"facility":"Local Institution - Unk019","status":"ACTIVE_NOT_RECRUITING","city":"Sao Jose Do Rio Preto","zip":"15090-000","country":"Brazil","geoPoint":{"lat":-20.81972,"lon":-49.37944}},{"facility":"Local Institution - Unk074","status":"ACTIVE_NOT_RECRUITING","city":"Sao Paolo","zip":"01246-000","country":"Brazil"},{"facility":"Multiprofile Hospital For Active Treatment - Dr. Tota Venkova","status":"RECRUITING","city":"Gabrovo","zip":"5300","country":"Bulgaria","contacts":[{"name":"Bonka Popova, Site 007-380","role":"CONTACT","phone":"+359888850330"}],"geoPoint":{"lat":42.87472,"lon":25.33417}},{"facility":"Specialized Hospital for Active Oncology Treatment - Haskovo SLLC (SBALO - Haskovo - EOOD)","status":"RECRUITING","city":"Haskovo","zip":"6304","country":"Bulgaria","contacts":[{"name":"Stoil Boychev, Site 007-378","role":"CONTACT","phone":"+359889214157"}],"geoPoint":{"lat":41.93415,"lon":25.55557}},{"facility":"Complex Oncology Center - Plovdiv - Base II","status":"RECRUITING","city":"Plovdiv","zip":"4004","country":"Bulgaria","contacts":[{"name":"Ivan Tonev, Site 007-377","role":"CONTACT","phone":"+359889717793"}],"geoPoint":{"lat":42.15,"lon":24.75}},{"facility":"University Multiprofile Hospital for Active Treatment St. Ivan Rilski","status":"RECRUITING","city":"Sofia","zip":"1431","country":"Bulgaria","contacts":[{"name":"Bozhil Robev, Site 007-379","role":"CONTACT","phone":"+35928510866+3592851"}],"geoPoint":{"lat":42.69751,"lon":23.32415}},{"facility":"Complex Oncology Center - Vratsa","status":"RECRUITING","city":"Vratsa","zip":"3001","country":"Bulgaria","contacts":[{"name":"Nikolinka Ignatova, Site 007-376","role":"CONTACT","phone":"+359885295184"}],"geoPoint":{"lat":43.21,"lon":23.5625}},{"facility":"Cross Cancer Institute","status":"RECRUITING","city":"Edmonton","state":"Alberta","zip":"T6G 1Z2","country":"Canada","contacts":[{"name":"Quincy Chu, Site 007-488","role":"CONTACT","phone":"7804328248"}],"geoPoint":{"lat":53.55014,"lon":-113.46871}},{"facility":"British Columbia Cancer Agency - Vancouver","status":"RECRUITING","city":"Vancouver","state":"British Columbia","zip":"V5Z 4E6","country":"Canada","contacts":[{"name":"Janessa Laskin, Site 007-480","role":"CONTACT","phone":"111-111-1111"}],"geoPoint":{"lat":49.24966,"lon":-123.11934}},{"facility":"Local Institution - 007-489","status":"WITHDRAWN","city":"London","state":"Ontario","zip":"N6A 5W9","country":"Canada","geoPoint":{"lat":42.98339,"lon":-81.23304}},{"facility":"Ottawa Hospital - General Campus","status":"RECRUITING","city":"Ottawa","state":"Ontario","zip":"K1H 8L6","country":"Canada","contacts":[{"name":"Nicholas Garth, Site 007-481","role":"CONTACT","phone":"6137377700"}],"geoPoint":{"lat":45.41117,"lon":-75.69812}},{"facility":"Princess Margaret Cancer Centre","status":"RECRUITING","city":"Toronto","state":"Ontario","zip":"M5G 2M9","country":"Canada","contacts":[{"name":"Penelope Bradbury, Site 007-482","role":"CONTACT","phone":"4169463544"}],"geoPoint":{"lat":43.70011,"lon":-79.4163}},{"facility":"Local Institution - 007-490","status":"ACTIVE_NOT_RECRUITING","city":"Montreal","state":"Quebec","zip":"H3A 0G4","country":"Canada","geoPoint":{"lat":45.50884,"lon":-73.58781}},{"facility":"Local Institution - Unk028","status":"ACTIVE_NOT_RECRUITING","city":"Santiago","zip":"0","country":"Chile","geoPoint":{"lat":-33.45694,"lon":-70.64827}},{"facility":"Local Institution - Unk073","status":"ACTIVE_NOT_RECRUITING","city":"Temuco","zip":"4810469","country":"Chile","geoPoint":{"lat":-38.73965,"lon":-72.59842}},{"facility":"Local Institution - 007-051","status":"WITHDRAWN","city":"Bengbu","state":"Anhui","zip":"233000","country":"China","geoPoint":{"lat":32.94083,"lon":117.36083}},{"facility":"The First Affiliated Hospital of Bengbu Medical College/Department of Respiratory and Critical Care Medicine","status":"RECRUITING","city":"Bengbu","state":"Anhui","zip":"233000","country":"China","contacts":[{"name":"Chengling Zhao, Site 007-051-Ph3","role":"CONTACT","phone":"+8618105527755"}],"geoPoint":{"lat":32.94083,"lon":117.36083}},{"facility":"Local Institution - 007-026-Ph2","status":"COMPLETED","city":"Hefei","state":"Anhui","zip":"230002","country":"China","geoPoint":{"lat":31.86389,"lon":117.28083}},{"facility":"Local Institution - 007-026","status":"WITHDRAWN","city":"Hefei","state":"Anhui","zip":"230002","country":"China","geoPoint":{"lat":31.86389,"lon":117.28083}},{"facility":"Local Institution - 007-739-Ph2","status":"NOT_YET_RECRUITING","city":"Hefei","state":"Anhui","zip":"230002","country":"China","contacts":[{"name":"Site 007-739-Ph2","role":"CONTACT"}],"geoPoint":{"lat":31.86389,"lon":117.28083}},{"facility":"Local Institution - 007-739","status":"WITHDRAWN","city":"Hefei","state":"Anhui","zip":"230002","country":"China","geoPoint":{"lat":31.86389,"lon":117.28083}},{"facility":"Local Institution - 007-747-Ph3","status":"NOT_YET_RECRUITING","city":"Hefei","state":"Anhui","zip":"230002","country":"China","contacts":[{"name":"Site 007-747-Ph3","role":"CONTACT"}],"geoPoint":{"lat":31.86389,"lon":117.28083}},{"facility":"Local Institution - 007-747","status":"WITHDRAWN","city":"Hefei","state":"Anhui","zip":"230002","country":"China","geoPoint":{"lat":31.86389,"lon":117.28083}},{"facility":"Cancer Hospital Chinese Academy of Medical Sciences/Medical Oncology Department","status":"RECRUITING","city":"Beijing","state":"Beijing","zip":"100021","country":"China","contacts":[{"name":"Yan Wang, Site 007-050-Ph3","role":"CONTACT","phone":"8613911793771"}],"geoPoint":{"lat":39.9075,"lon":116.39723}},{"facility":"Local Institution - 007-050","status":"WITHDRAWN","city":"Beijing","state":"Beijing","zip":"100021","country":"China","geoPoint":{"lat":39.9075,"lon":116.39723}},{"facility":"Local Institution - 007-707-Ph2","status":"ACTIVE_NOT_RECRUITING","city":"Beijing","state":"Beijing","zip":"100032","country":"China","geoPoint":{"lat":39.9075,"lon":116.39723}},{"facility":"Local Institution - 007-707","status":"WITHDRAWN","city":"Beijing","state":"Beijing","zip":"100032","country":"China","geoPoint":{"lat":39.9075,"lon":116.39723}},{"facility":"Local Institution - 1025-Ph2","status":"NOT_YET_RECRUITING","city":"Beijing","state":"Beijing","zip":"100071","country":"China","contacts":[{"name":"Site 1025-Ph2","role":"CONTACT"}],"geoPoint":{"lat":39.9075,"lon":116.39723}},{"facility":"Local Institution - 1025","status":"WITHDRAWN","city":"Beijing","state":"Beijing","zip":"100071","country":"China","geoPoint":{"lat":39.9075,"lon":116.39723}},{"facility":"Beijing Cancer Hospital/No.1 Thoracic Oncology Department","status":"RECRUITING","city":"Beijing","state":"Beijing","zip":"100142","country":"China","contacts":[{"name":"Jun Zhao, Site 007-038-Ph2","role":"CONTACT","phone":"8613521469355"}],"geoPoint":{"lat":39.9075,"lon":116.39723}},{"facility":"Beijing Cancer Hospital/Thoracic Oncology(2nd) Department","status":"RECRUITING","city":"Beijing","state":"Beijing","zip":"100142","country":"China","contacts":[{"name":"Jian Fang, Site 007-040-Ph3","role":"CONTACT","phone":"13701224460"}],"geoPoint":{"lat":39.9075,"lon":116.39723}},{"facility":"Beijing Cancer hospital","status":"RECRUITING","city":"Beijing","state":"Beijing","zip":"100142","country":"China","contacts":[{"name":"Jun Zhao, Site 007-038-Ph3","role":"CONTACT","phone":"8613521469355"}],"geoPoint":{"lat":39.9075,"lon":116.39723}},{"facility":"Local Institution - 007-027-Ph2","status":"COMPLETED","city":"Beijing","state":"Beijing","zip":"100142","country":"China","geoPoint":{"lat":39.9075,"lon":116.39723}},{"facility":"Local Institution - 007-038","status":"WITHDRAWN","city":"Beijing","state":"Beijing","zip":"100142","country":"China","geoPoint":{"lat":39.9075,"lon":116.39723}},{"facility":"Local Institution - 007-040-Ph2","status":"NOT_YET_RECRUITING","city":"Beijing","state":"Beijing","zip":"100142","country":"China","contacts":[{"name":"Site 007-040-Ph2","role":"CONTACT"}],"geoPoint":{"lat":39.9075,"lon":116.39723}},{"facility":"Local Institution - 007-040","status":"WITHDRAWN","city":"Beijing","state":"Beijing","zip":"100142","country":"China","geoPoint":{"lat":39.9075,"lon":116.39723}},{"facility":"Local Institution - 007-718-Ph3","status":"NOT_YET_RECRUITING","city":"Chongqing","state":"Chongqing","zip":"400030","country":"China","contacts":[{"name":"Site 007-718-Ph3","role":"CONTACT"}],"geoPoint":{"lat":29.56278,"lon":106.55278}},{"facility":"Local Institution - 1029-Ph2","status":"NOT_YET_RECRUITING","city":"Chongqing","state":"Chongqing","zip":"400037","country":"China","contacts":[{"name":"Site 1029-Ph2","role":"CONTACT"}],"geoPoint":{"lat":29.56278,"lon":106.55278}},{"facility":"Local Institution - 1029","status":"WITHDRAWN","city":"Chongqing","state":"Chongqing","zip":"400037","country":"China","geoPoint":{"lat":29.56278,"lon":106.55278}},{"facility":"Chongqing University Three Gorges Hospital/Respiratory Ward of Tumor Center","status":"RECRUITING","city":"Chongqing","state":"Chongqing","zip":"404000","country":"China","contacts":[{"name":"Biyong Ren, Site 007-053-Ph3","role":"CONTACT","phone":"8613896327099"}],"geoPoint":{"lat":29.56278,"lon":106.55278}},{"facility":"Local Institution - 007-053","status":"WITHDRAWN","city":"Chongqing","state":"Chongqing","zip":"404000","country":"China","geoPoint":{"lat":29.56278,"lon":106.55278}},{"facility":"Local Institution - 1046-Ph2","status":"NOT_YET_RECRUITING","city":"Fuzhou","state":"Fujian","zip":"350000","country":"China","contacts":[{"name":"Site 1046-Ph2","role":"CONTACT"}],"geoPoint":{"lat":26.06139,"lon":119.30611}},{"facility":"Local Institution - 1046","status":"WITHDRAWN","city":"Fuzhou","state":"Fujian","zip":"350000","country":"China","geoPoint":{"lat":26.06139,"lon":119.30611}},{"facility":"Fujian Cancer Hospital/Thoracic Oncology Department","status":"RECRUITING","city":"Fuzhou","state":"Fujian","zip":"350014","country":"China","contacts":[{"name":"Wu Zhuang, Site 007-039-Ph2","role":"CONTACT","phone":"13809500871"}],"geoPoint":{"lat":26.06139,"lon":119.30611}},{"facility":"Fujian Cancer Hospital","status":"RECRUITING","city":"Fuzhou","state":"Fujian","zip":"350014","country":"China","contacts":[{"name":"Wu Zhuang, Site 007-039-Ph3","role":"CONTACT","phone":"13809500871"}],"geoPoint":{"lat":26.06139,"lon":119.30611}},{"facility":"Local Institution - 007-039","status":"WITHDRAWN","city":"Fuzhou","state":"Fujian","zip":"350014","country":"China","geoPoint":{"lat":26.06139,"lon":119.30611}},{"facility":"Local Institution - 007-714-Ph2","status":"NOT_YET_RECRUITING","city":"Xiamen","state":"Fujian","zip":"361003","country":"China","contacts":[{"name":"Site 007-714-Ph2","role":"CONTACT"}],"geoPoint":{"lat":24.47979,"lon":118.08187}},{"facility":"Local Institution - 007-714","status":"WITHDRAWN","city":"Xiamen","state":"Fujian","zip":"361003","country":"China","geoPoint":{"lat":24.47979,"lon":118.08187}},{"facility":"Local Institution - 007-732-Ph2","status":"NOT_YET_RECRUITING","city":"Xiamen","state":"Fujian","zip":"361003","country":"China","contacts":[{"name":"Site 007-732-Ph2","role":"CONTACT"}],"geoPoint":{"lat":24.47979,"lon":118.08187}},{"facility":"Local Institution - 007-732-Ph3","status":"NOT_YET_RECRUITING","city":"Xiamen","state":"Fujian","zip":"361003","country":"China","contacts":[{"name":"Site 007-732-Ph3","role":"CONTACT"}],"geoPoint":{"lat":24.47979,"lon":118.08187}},{"facility":"Local Institution - 007-732","status":"WITHDRAWN","city":"Xiamen","state":"Fujian","zip":"361003","country":"China","geoPoint":{"lat":24.47979,"lon":118.08187}},{"facility":"Local Institution - 1022-Ph2","status":"NOT_YET_RECRUITING","city":"Guangzhou","state":"Guangdong","zip":"510030","country":"China","contacts":[{"name":"Site 1022-Ph2","role":"CONTACT"}],"geoPoint":{"lat":23.11667,"lon":113.25}},{"facility":"Local Institution - 1022","status":"WITHDRAWN","city":"Guangzhou","state":"Guangdong","zip":"510030","country":"China","geoPoint":{"lat":23.11667,"lon":113.25}},{"facility":"Local Institution - 007-712","status":"WITHDRAWN","city":"Guangzhou","state":"Guangdong","zip":"510120","country":"China","geoPoint":{"lat":23.11667,"lon":113.25}},{"facility":"The First Affiliated Hospital of Guangzhou Medical University/Oncology Department","status":"RECRUITING","city":"Guangzhou","state":"Guangdong","zip":"510120","country":"China","contacts":[{"name":"Chengzhi Zhou, Site 007-712-Ph2","role":"CONTACT","phone":"13560351176"}],"geoPoint":{"lat":23.11667,"lon":113.25}},{"facility":"The First Affiliated Hospital of Guangzhou Medical University","status":"RECRUITING","city":"Guangzhou","state":"Guangdong","zip":"510120","country":"China","contacts":[{"name":"Chengzhi Zhou, Site 007-712-Ph3","role":"CONTACT","phone":"13560351176"}],"geoPoint":{"lat":23.11667,"lon":113.25}},{"facility":"Local Institution - 007-705-Ph2","status":"ACTIVE_NOT_RECRUITING","city":"Guangzhou","state":"Guangdong","zip":"510515","country":"China","geoPoint":{"lat":23.11667,"lon":113.25}},{"facility":"Local Institution - 007-705","status":"WITHDRAWN","city":"Guangzhou","state":"Guangdong","zip":"510515","country":"China","geoPoint":{"lat":23.11667,"lon":113.25}},{"facility":"Nanfang Hospital, Southern Medical University/Respiratory Medicine Department","status":"RECRUITING","city":"Guangzhou","state":"Guangdong","zip":"510515","country":"China","contacts":[{"name":"Laiyu Liu, Site 007-705-Ph3","role":"CONTACT","phone":"8602062787110"}],"geoPoint":{"lat":23.11667,"lon":113.25}},{"facility":"Local Institution - 007-052","status":"WITHDRAWN","city":"Shenzhen","state":"Guangdong","zip":"518000","country":"China","geoPoint":{"lat":22.54554,"lon":114.0683}},{"facility":"Shenzhen People's Hospital/Department of Respiratory and Critical Care Medicine","status":"RECRUITING","city":"Shenzhen","state":"Guangdong","zip":"518000","country":"China","contacts":[{"name":"Di Wu, Site 007-052-Ph3","role":"CONTACT"}],"geoPoint":{"lat":22.54554,"lon":114.0683}},{"facility":"Local Institution - 007-704-Ph2","status":"NOT_YET_RECRUITING","city":"Liuzhou","state":"Guangxi","zip":"545006","country":"China","contacts":[{"name":"Site 007-704-Ph2","role":"CONTACT"}]},{"facility":"Local Institution - 007-704","status":"WITHDRAWN","city":"Liuzhou","state":"Guangxi","zip":"545006","country":"China"},{"facility":"Guangxi Medical University Cancer Hospital/Department of Respiratory Oncology","status":"RECRUITING","city":"Nanning","state":"Guangxi","zip":"530021","country":"China","contacts":[{"name":"Qitao Yu, Site 007-384-Ph3","role":"CONTACT","phone":"13878106696"}],"geoPoint":{"lat":22.81667,"lon":108.31667}},{"facility":"Local Institution - 007-384","status":"WITHDRAWN","city":"Nanning","state":"Guangxi","zip":"530021","country":"China","geoPoint":{"lat":22.81667,"lon":108.31667}},{"facility":"Local Institution - 007-744-Ph2","status":"NOT_YET_RECRUITING","city":"Nanning","state":"Guangxi","zip":"530021","country":"China","contacts":[{"name":"Site 007-744-Ph2","role":"CONTACT"}],"geoPoint":{"lat":22.81667,"lon":108.31667}},{"facility":"Local Institution - 1038-Ph2","status":"NOT_YET_RECRUITING","city":"Nanning","state":"Guangxi","zip":"530021","country":"China","contacts":[{"name":"Site 1038-Ph2","role":"CONTACT"}],"geoPoint":{"lat":22.81667,"lon":108.31667}},{"facility":"Local Institution - 1038","status":"WITHDRAWN","city":"Nanning","state":"Guangxi","zip":"530021","country":"China","geoPoint":{"lat":22.81667,"lon":108.31667}},{"facility":"Local Institution - 007-742-Ph3","status":"NOT_YET_RECRUITING","city":"Shijiazhuang","state":"Hebei","zip":"000000","country":"China","contacts":[{"name":"Site 007-742-Ph3","role":"CONTACT"}],"geoPoint":{"lat":38.04139,"lon":114.47861}},{"facility":"Local Institution - 007-742","status":"WITHDRAWN","city":"Shijiazhuang","state":"Hebei","zip":"000000","country":"China","geoPoint":{"lat":38.04139,"lon":114.47861}},{"facility":"Local Institution - 007-028-Ph2","status":"COMPLETED","city":"Harbin","state":"Heilongjiang","zip":"150000","country":"China","geoPoint":{"lat":45.75,"lon":126.65}},{"facility":"Local Institution - 007-028-Ph3","status":"NOT_YET_RECRUITING","city":"Harbin","state":"Heilongjiang","zip":"150000","country":"China","contacts":[{"name":"Site 007-028-Ph3","role":"CONTACT"}],"geoPoint":{"lat":45.75,"lon":126.65}},{"facility":"Local Institution - 007-028","status":"WITHDRAWN","city":"Harbin","state":"Heilongjiang","zip":"150000","country":"China","geoPoint":{"lat":45.75,"lon":126.65}},{"facility":"Local Institution - 1012-Ph2","status":"NOT_YET_RECRUITING","city":"Xinxiang","state":"Henan","zip":"453100","country":"China","contacts":[{"name":"Site 1012-Ph2","role":"CONTACT"}],"geoPoint":{"lat":35.19033,"lon":113.80151}},{"facility":"Local Institution - 007-021-Ph3","status":"NOT_YET_RECRUITING","city":"Zhengzhou","state":"Henan","zip":"000000","country":"China","contacts":[{"name":"Site 007-021-Ph3","role":"CONTACT"}],"geoPoint":{"lat":34.75778,"lon":113.64861}},{"facility":"Local Institution - 007-730-Ph3","status":"NOT_YET_RECRUITING","city":"Zhengzhou","state":"Henan","zip":"450000","country":"China","contacts":[{"name":"Site 007-730-Ph3","role":"CONTACT"}],"geoPoint":{"lat":34.75778,"lon":113.64861}},{"facility":"Local Institution - 1010-Ph2","status":"NOT_YET_RECRUITING","city":"Zhengzhou","state":"Henan","zip":"450003","country":"China","contacts":[{"name":"Site 1010-Ph2","role":"CONTACT"}],"geoPoint":{"lat":34.75778,"lon":113.64861}},{"facility":"Local Institution - 1010","status":"WITHDRAWN","city":"Zhengzhou","state":"Henan","zip":"450003","country":"China","geoPoint":{"lat":34.75778,"lon":113.64861}},{"facility":"Local Institution - 007-021-Ph2","status":"COMPLETED","city":"Zhengzhou","state":"Henan","zip":"450008","country":"China","geoPoint":{"lat":34.75778,"lon":113.64861}},{"facility":"Local Institution - 007-715-Ph2","status":"NOT_YET_RECRUITING","city":"Zhengzhou","state":"Henan","zip":"450052","country":"China","contacts":[{"name":"Site 007-715-Ph2","role":"CONTACT"}],"geoPoint":{"lat":34.75778,"lon":113.64861}},{"facility":"Local Institution - 007-715","status":"WITHDRAWN","city":"Zhengzhou","state":"Henan","zip":"450052","country":"China","geoPoint":{"lat":34.75778,"lon":113.64861}},{"facility":"Local Institution - 007-730-Ph2","status":"NOT_YET_RECRUITING","city":"Zhengzhou","state":"Henan","zip":"450052","country":"China","contacts":[{"name":"Site 007-730-Ph2","role":"CONTACT"}],"geoPoint":{"lat":34.75778,"lon":113.64861}},{"facility":"Local Institution - 007-719-Ph2","status":"COMPLETED","city":"Wuhan","state":"Hubei","zip":"430022","country":"China","geoPoint":{"lat":30.58333,"lon":114.26667}},{"facility":"Union Hospital Affiliated with Tongji Medical College of Huazhong University of Science and Technology/Cancer Center Department","status":"RECRUITING","city":"Wuhan","state":"Hubei","zip":"430022","country":"China","contacts":[{"name":"Xiaorong Dong, Site 007-719-Ph3","role":"CONTACT","phone":"13986252286"}],"geoPoint":{"lat":30.58333,"lon":114.26667}},{"facility":"Local Institution - 007-700-Ph2","status":"NOT_YET_RECRUITING","city":"Wuhan","state":"Hubei","zip":"430079","country":"China","contacts":[{"name":"Site 007-700-Ph2","role":"CONTACT"}],"geoPoint":{"lat":30.58333,"lon":114.26667}},{"facility":"Local Institution - 007-700","status":"WITHDRAWN","city":"Wuhan","state":"Hubei","zip":"430079","country":"China","geoPoint":{"lat":30.58333,"lon":114.26667}},{"facility":"Local Institution - 007-701-Ph2","status":"ACTIVE_NOT_RECRUITING","city":"Changsha","state":"Hunan","zip":"410006","country":"China","geoPoint":{"lat":28.19874,"lon":112.97087}},{"facility":"Hunan Cancer Hospital/Thoracic Medicine Department II","status":"RECRUITING","city":"Changsha","state":"Hunan","zip":"410013","country":"China","contacts":[{"name":"Lin Wu, Site 007-701-Ph3","role":"CONTACT","phone":"8613170419973"}],"geoPoint":{"lat":28.19874,"lon":112.97087}},{"facility":"Local Institution - 007-706-Ph3","status":"NOT_YET_RECRUITING","city":"Nanjing","state":"Jiangsu","zip":"210001","country":"China","contacts":[{"name":"Site 007-706-Ph3","role":"CONTACT"}],"geoPoint":{"lat":32.06167,"lon":118.77778}},{"facility":"Local Institution - 1021-Ph2","status":"NOT_YET_RECRUITING","city":"Nanjing","state":"Jiangsu","zip":"210001","country":"China","contacts":[{"name":"Site 1021-Ph2","role":"CONTACT"}],"geoPoint":{"lat":32.06167,"lon":118.77778}},{"facility":"Local Institution - 1021","status":"WITHDRAWN","city":"Nanjing","state":"Jiangsu","zip":"210001","country":"China","geoPoint":{"lat":32.06167,"lon":118.77778}},{"facility":"Nanjing First Hospital/Respiratory Department","status":"RECRUITING","city":"Nanjing","state":"Jiangsu","zip":"210006","country":"China","contacts":[{"name":"Wei Gu, Site 007-706-Ph2","role":"CONTACT","phone":"+8613605812001"}],"geoPoint":{"lat":32.06167,"lon":118.77778}},{"facility":"Local Institution - 1018-Ph2","status":"NOT_YET_RECRUITING","city":"Nanjing","state":"Jiangsu","zip":"210008","country":"China","contacts":[{"name":"Site 1018-Ph2","role":"CONTACT"}],"geoPoint":{"lat":32.06167,"lon":118.77778}},{"facility":"Local Institution - 1018","status":"WITHDRAWN","city":"Nanjing","state":"Jiangsu","zip":"210008","country":"China","geoPoint":{"lat":32.06167,"lon":118.77778}},{"facility":"Local Institution - 1020-Ph2","status":"NOT_YET_RECRUITING","city":"Nanjing","state":"Jiangsu","zip":"210029","country":"China","contacts":[{"name":"Site 1020-Ph2","role":"CONTACT"}],"geoPoint":{"lat":32.06167,"lon":118.77778}},{"facility":"Local Institution - 1020","status":"WITHDRAWN","city":"Nanjing","state":"Jiangsu","zip":"210029","country":"China","geoPoint":{"lat":32.06167,"lon":118.77778}},{"facility":"Local Institution - 1004-Ph2","status":"NOT_YET_RECRUITING","city":"Nantong","state":"Jiangsu","zip":"226361","country":"China","contacts":[{"name":"Site 1004-Ph2","role":"CONTACT"}],"geoPoint":{"lat":32.03028,"lon":120.87472}},{"facility":"Local Institution - 1004","status":"WITHDRAWN","city":"Nantong","state":"Jiangsu","zip":"226361","country":"China","geoPoint":{"lat":32.03028,"lon":120.87472}},{"facility":"Local Institution - 1017-Ph2","status":"NOT_YET_RECRUITING","city":"Xuzhou","state":"Jiangsu","zip":"221009","country":"China","contacts":[{"name":"Site 1017-Ph2","role":"CONTACT"}],"geoPoint":{"lat":34.18045,"lon":117.15707}},{"facility":"Local Institution - 1017","status":"WITHDRAWN","city":"Xuzhou","state":"Jiangsu","zip":"221009","country":"China","geoPoint":{"lat":34.18045,"lon":117.15707}},{"facility":"Local Institution - 1040-Ph2","status":"NOT_YET_RECRUITING","city":"Nanchang","state":"Jiangxi","zip":"330006","country":"China","contacts":[{"name":"Site 1040-Ph2","role":"CONTACT"}],"geoPoint":{"lat":28.68396,"lon":115.85306}},{"facility":"Local Institution - 1040","status":"WITHDRAWN","city":"Nanchang","state":"Jiangxi","zip":"330006","country":"China","geoPoint":{"lat":28.68396,"lon":115.85306}},{"facility":"The First Affiliated Hospital of Nanchang University/Respiratory and Critical Care Medicine Department","status":"RECRUITING","city":"Nanchang","state":"Jiangxi","zip":"330006","country":"China","contacts":[{"name":"Wei Zhang, Site 007-713-Ph2","role":"CONTACT"}],"geoPoint":{"lat":28.68396,"lon":115.85306}},{"facility":"The First Affiliated Hospital of Nanchang University","status":"RECRUITING","city":"Nanchang","state":"Jiangxi","zip":"330006","country":"China","contacts":[{"name":"Longhua Sun, Site 007-713-Ph3","role":"CONTACT","phone":"13698091288"}],"geoPoint":{"lat":28.68396,"lon":115.85306}},{"facility":"Local Institution - 1006-Ph2","status":"NOT_YET_RECRUITING","city":"Changchun","state":"Jilin","zip":"130012","country":"China","contacts":[{"name":"Site 1006-Ph2","role":"CONTACT"}],"geoPoint":{"lat":43.88,"lon":125.32278}},{"facility":"Local Institution - 1006","status":"WITHDRAWN","city":"Changchun","state":"Jilin","zip":"130012","country":"China","geoPoint":{"lat":43.88,"lon":125.32278}},{"facility":"Local Institution - 007-717-Ph2","status":"ACTIVE_NOT_RECRUITING","city":"Changchun","state":"Jilin","zip":"130021","country":"China","geoPoint":{"lat":43.88,"lon":125.32278}},{"facility":"The First Bethune Hospital Of Jilin University/Oncology Department","status":"RECRUITING","city":"Changchun","state":"Jilin","zip":"130021","country":"China","contacts":[{"name":"Jiuwei Cui, Site 007-717-Ph3","role":"CONTACT","phone":"8615843073215"}],"geoPoint":{"lat":43.88,"lon":125.32278}},{"facility":"Local Institution - 007-741-Ph2","status":"NOT_YET_RECRUITING","city":"Shenyang","state":"Liaoning","zip":"110004","country":"China","contacts":[{"name":"Site 007-741-Ph2","role":"CONTACT"}],"geoPoint":{"lat":41.79222,"lon":123.43278}},{"facility":"Local Institution - 007-741","status":"WITHDRAWN","city":"Shenyang","state":"Liaoning","zip":"110004","country":"China","geoPoint":{"lat":41.79222,"lon":123.43278}},{"facility":"Local Institution - 1008-Ph2","status":"NOT_YET_RECRUITING","city":"Shenyang","state":"Liaoning","zip":"110004","country":"China","contacts":[{"name":"Site 1008-Ph2","role":"CONTACT"}],"geoPoint":{"lat":41.79222,"lon":123.43278}},{"facility":"Local Institution - 1008","status":"WITHDRAWN","city":"Shenyang","state":"Liaoning","zip":"110004","country":"China","geoPoint":{"lat":41.79222,"lon":123.43278}},{"facility":"Local Institution - 007-749-Ph3","status":"NOT_YET_RECRUITING","city":"Shenyang","state":"Liaoning","zip":"110022","country":"China","contacts":[{"name":"Site 007-749-Ph3","role":"CONTACT"}],"geoPoint":{"lat":41.79222,"lon":123.43278}},{"facility":"Local Institution - 007-749","status":"WITHDRAWN","city":"Shenyang","state":"Liaoning","zip":"110022","country":"China","geoPoint":{"lat":41.79222,"lon":123.43278}},{"facility":"Liaoning Cancer Hospital & Institute/The 2nd Chest Medical Department","status":"RECRUITING","city":"Shenyang","state":"Liaoning","zip":"110042","country":"China","contacts":[{"name":"Rui Ma, Site 007-702-Ph2","role":"CONTACT","phone":"13304006343"}],"geoPoint":{"lat":41.79222,"lon":123.43278}},{"facility":"Local Institution - 007-702","status":"WITHDRAWN","city":"Shenyang","state":"Liaoning","zip":"110042","country":"China","geoPoint":{"lat":41.79222,"lon":123.43278}},{"facility":"Local Institution - 007-746-Ph3","status":"NOT_YET_RECRUITING","city":"Yinchuan","state":"Ningxia","zip":"750001","country":"China","contacts":[{"name":"Site 007-746-Ph3","role":"CONTACT"}],"geoPoint":{"lat":38.46806,"lon":106.27306}},{"facility":"Local Institution - 007-746","status":"WITHDRAWN","city":"Yinchuan","state":"Ningxia","zip":"750001","country":"China","geoPoint":{"lat":38.46806,"lon":106.27306}},{"facility":"Local Institution - 007-718-Ph2","status":"COMPLETED","city":"Xi'an","state":"Shaanxi","zip":"710061","country":"China","geoPoint":{"lat":34.25833,"lon":108.92861}},{"facility":"Local Institution - 007-721-Ph2","status":"ACTIVE_NOT_RECRUITING","city":"Xi'an","state":"Shaanxi","zip":"710061","country":"China","geoPoint":{"lat":34.25833,"lon":108.92861}},{"facility":"Local Institution - 007-721-Ph3","status":"NOT_YET_RECRUITING","city":"Xi'an","state":"Shaanxi","zip":"710061","country":"China","contacts":[{"name":"Site 007-721-Ph3","role":"CONTACT"}],"geoPoint":{"lat":34.25833,"lon":108.92861}},{"facility":"Local Institution - 007-721","status":"WITHDRAWN","city":"Xi'an","state":"Shaanxi","zip":"710061","country":"China","geoPoint":{"lat":34.25833,"lon":108.92861}},{"facility":"Local Institution - 007-708-Ph2","status":"ACTIVE_NOT_RECRUITING","city":"Jinan","state":"Shandong","zip":"250117","country":"China","geoPoint":{"lat":36.66833,"lon":116.99722}},{"facility":"Shandong Cancer Hospital","status":"RECRUITING","city":"Jinan","state":"Shandong","zip":"250117","country":"China","contacts":[{"name":"Haiyong Wang, Site 007-708-Ph3","role":"CONTACT","phone":"15665878316"}],"geoPoint":{"lat":36.66833,"lon":116.99722}},{"facility":"Local Institution - 007-737-Ph2","status":"NOT_YET_RECRUITING","city":"Linyi","state":"Shandong","zip":"276001","country":"China","contacts":[{"name":"Site 007-737-Ph2","role":"CONTACT"}],"geoPoint":{"lat":35.06306,"lon":118.34278}},{"facility":"Linyi Cancer Hospital/Oncology Department","status":"RECRUITING","city":"Linyi","state":"Shandong","zip":"276034","country":"China","contacts":[{"name":"Jianhua Shi, Site 007-737-Ph3","role":"CONTACT","phone":"+8615963998868"}],"geoPoint":{"lat":35.06306,"lon":118.34278}},{"facility":"Local Institution - 007-703-Ph2","status":"NOT_YET_RECRUITING","city":"Linyi","state":"Shandong","zip":"276034","country":"China","contacts":[{"name":"Site 007-703-Ph2","role":"CONTACT"}],"geoPoint":{"lat":35.06306,"lon":118.34278}},{"facility":"Local Institution - 007-703","status":"WITHDRAWN","city":"Linyi","state":"Shandong","zip":"276034","country":"China","geoPoint":{"lat":35.06306,"lon":118.34278}},{"facility":"Local Institution - 007-709-Ph2","status":"ACTIVE_NOT_RECRUITING","city":"Shanghai","state":"Shanghai","zip":"200030","country":"China","geoPoint":{"lat":31.22222,"lon":121.45806}},{"facility":"Local Institution - 007-709","status":"WITHDRAWN","city":"Shanghai","state":"Shanghai","zip":"200030","country":"China","geoPoint":{"lat":31.22222,"lon":121.45806}},{"facility":"Shanghai Chest Hospital-Oncology department","status":"RECRUITING","city":"Shanghai","state":"Shanghai","zip":"200030","country":"China","contacts":[{"name":"Shun Lu, Site 007-709-Ph3","role":"CONTACT","phone":"8613601813062"}],"geoPoint":{"lat":31.22222,"lon":121.45806}},{"facility":"Fudan University Shanghai Cancer Center/Thoracic Oncology Department","status":"RECRUITING","city":"Shanghai","state":"Shanghai","zip":"200032","country":"China","contacts":[{"name":"Jialei Wang, Site 007-035-Ph3","role":"CONTACT","phone":"8613501623469"}],"geoPoint":{"lat":31.22222,"lon":121.45806}},{"facility":"Local Institution - 007-024-Ph2","status":"ACTIVE_NOT_RECRUITING","city":"Shanghai","state":"Shanghai","zip":"200032","country":"China","geoPoint":{"lat":31.22222,"lon":121.45806}},{"facility":"Local Institution - 007-024-Ph3","status":"NOT_YET_RECRUITING","city":"Shanghai","state":"Shanghai","zip":"200032","country":"China","contacts":[{"name":"Site 007-024-Ph3","role":"CONTACT"}],"geoPoint":{"lat":31.22222,"lon":121.45806}},{"facility":"Local Institution - 007-024","status":"WITHDRAWN","city":"Shanghai","state":"Shanghai","zip":"200032","country":"China","geoPoint":{"lat":31.22222,"lon":121.45806}},{"facility":"Local Institution - 007-035-Ph2","status":"COMPLETED","city":"Shanghai","state":"Shanghai","zip":"200032","country":"China","geoPoint":{"lat":31.22222,"lon":121.45806}},{"facility":"Local Institution - 007-740-Ph2","status":"NOT_YET_RECRUITING","city":"Taiyuan","state":"Shanxi","zip":"030013","country":"China","contacts":[{"name":"Site 007-740-Ph2","role":"CONTACT"}],"geoPoint":{"lat":37.86944,"lon":112.56028}},{"facility":"Local Institution - 007-740","status":"WITHDRAWN","city":"Taiyuan","state":"Shanxi","zip":"030013","country":"China","geoPoint":{"lat":37.86944,"lon":112.56028}},{"facility":"Local Institution - 007-748-Ph3","status":"NOT_YET_RECRUITING","city":"Taiyuan","state":"Shanxi","zip":"030013","country":"China","contacts":[{"name":"Site 007-748-Ph3","role":"CONTACT"}],"geoPoint":{"lat":37.86944,"lon":112.56028}},{"facility":"Local Institution - 007-748","status":"WITHDRAWN","city":"Taiyuan","state":"Shanxi","zip":"030013","country":"China","geoPoint":{"lat":37.86944,"lon":112.56028}},{"facility":"Local Institution - 007-710-Ph2","status":"COMPLETED","city":"Chengdu","state":"Sichuan","zip":"610041","country":"China","geoPoint":{"lat":30.66667,"lon":104.06667}},{"facility":"Local Institution - 007-710","status":"WITHDRAWN","city":"Chengdu","state":"Sichuan","zip":"610041","country":"China","geoPoint":{"lat":30.66667,"lon":104.06667}},{"facility":"Local Institution - 007-720-Ph2","status":"ACTIVE_NOT_RECRUITING","city":"Chengdu","state":"Sichuan","zip":"610041","country":"China","geoPoint":{"lat":30.66667,"lon":104.06667}},{"facility":"Sichuan Cancer hospital","status":"RECRUITING","city":"Chengdu","state":"Sichuan","zip":"610041","country":"China","contacts":[{"name":"Wenxiu Yao, Site 007-710-Ph3","role":"CONTACT","phone":"18908178836"}],"geoPoint":{"lat":30.66667,"lon":104.06667}},{"facility":"West China Hospital of Sichuan University","status":"RECRUITING","city":"Chengdu","state":"Sichuan","zip":"611135","country":"China","contacts":[{"name":"Panwen Tian, Site 007-720-Ph3","role":"CONTACT","phone":"18980606625"}],"geoPoint":{"lat":30.66667,"lon":104.06667}},{"facility":"Local Institution - 007-711-Ph2","status":"NOT_YET_RECRUITING","city":"Luzhou","state":"Sichuan","zip":"646000","country":"China","contacts":[{"name":"Site 007-711-Ph2","role":"CONTACT"}]},{"facility":"Local Institution - 007-711","status":"WITHDRAWN","city":"Luzhou","state":"Sichuan","zip":"646000","country":"China"},{"facility":"Local Institution - 1036-Ph2","status":"NOT_YET_RECRUITING","city":"Urumchi","state":"Xinjiang","zip":"830011","country":"China","contacts":[{"name":"Site 1036-Ph2","role":"CONTACT"}]},{"facility":"Local Institution - 1036","status":"WITHDRAWN","city":"Urumchi","state":"Xinjiang","zip":"830011","country":"China"},{"facility":"Xinjiang Medical University Cancer Hospital - Urumqi","status":"RECRUITING","city":"Urumqi","state":"Xinjiang","zip":"830000","country":"China","contacts":[{"name":"Chunling Liu, Site 007-743-Ph3","role":"CONTACT","phone":"13899931987"}],"geoPoint":{"lat":43.80096,"lon":87.60046}},{"facility":"Local Institution - 007-743","status":"WITHDRAWN","city":"Urumqi","state":"Xinjiang","zip":"830011","country":"China","geoPoint":{"lat":43.80096,"lon":87.60046}},{"facility":"Local Institution - 1032-Ph2","status":"NOT_YET_RECRUITING","city":"Kunming","state":"Yunnan","zip":"650100","country":"China","contacts":[{"name":"Site 1032-Ph2","role":"CONTACT"}],"geoPoint":{"lat":25.03889,"lon":102.71833}},{"facility":"Local Institution - 1032","status":"WITHDRAWN","city":"Kunming","state":"Yunnan","zip":"650100","country":"China","geoPoint":{"lat":25.03889,"lon":102.71833}},{"facility":"Local Institution - 007-385-Ph3","status":"NOT_YET_RECRUITING","city":"Kunming","state":"Yunnan","zip":"650106","country":"China","contacts":[{"name":"Site 007-385-Ph3","role":"CONTACT"}],"geoPoint":{"lat":25.03889,"lon":102.71833}},{"facility":"Local Institution - 007-385","status":"WITHDRAWN","city":"Kunming","state":"Yunnan","zip":"650106","country":"China","geoPoint":{"lat":25.03889,"lon":102.71833}},{"facility":"Local Institution - 007-745-Ph2","status":"NOT_YET_RECRUITING","city":"Kunming","state":"Yunnan","zip":"650106","country":"China","contacts":[{"name":"Site 007-745-Ph2","role":"CONTACT"}],"geoPoint":{"lat":25.03889,"lon":102.71833}},{"facility":"Local Institution - 007-745","status":"WITHDRAWN","city":"Kunming","state":"Yunnan","zip":"650106","country":"China","geoPoint":{"lat":25.03889,"lon":102.71833}},{"facility":"Local Institution - 007-716-Ph2","status":"COMPLETED","city":"Hangzhou","state":"Zhejiang","zip":"310003","country":"China","geoPoint":{"lat":30.29365,"lon":120.16142}},{"facility":"Local Institution - 007-716","status":"WITHDRAWN","city":"Hangzhou","state":"Zhejiang","zip":"310003","country":"China","geoPoint":{"lat":30.29365,"lon":120.16142}},{"facility":"Local Institution - 007-716-Ph3","status":"NOT_YET_RECRUITING","city":"Hangzhou","state":"Zhejiang","zip":"310006","country":"China","contacts":[{"name":"Site 007-716-Ph3","role":"CONTACT"}],"geoPoint":{"lat":30.29365,"lon":120.16142}},{"facility":"Local Institution - 007-036-Ph2","status":"NOT_YET_RECRUITING","city":"Hangzhou","state":"Zhejiang","zip":"310016","country":"China","contacts":[{"name":"Site 007-036-Ph2","role":"CONTACT"}],"geoPoint":{"lat":30.29365,"lon":120.16142}},{"facility":"Local Institution - 007-036","status":"WITHDRAWN","city":"Hangzhou","state":"Zhejiang","zip":"310016","country":"China","geoPoint":{"lat":30.29365,"lon":120.16142}},{"facility":"Zhejiang Cancer Hospital/Thoracic Medicine Department","status":"RECRUITING","city":"Hangzhou","state":"Zhejiang","zip":"310022","country":"China","contacts":[{"name":"Yun Fan, Site 007-037-Ph2","role":"CONTACT"}],"geoPoint":{"lat":30.29365,"lon":120.16142}},{"facility":"Zhejiang Cancer Hospital","status":"RECRUITING","city":"Hangzhou","state":"Zhejiang","zip":"310022","country":"China","contacts":[{"name":"Zhengbo Song, Site 007-037-Ph3","role":"CONTACT","phone":"+8613857153345"}],"geoPoint":{"lat":30.29365,"lon":120.16142}},{"facility":"Local Institution - 1050-Ph2","status":"NOT_YET_RECRUITING","city":"Taizhou","state":"Zhejiang","zip":"317099","country":"China","contacts":[{"name":"Site 1050-Ph2","role":"CONTACT"}],"geoPoint":{"lat":32.49069,"lon":119.90812}},{"facility":"Local Institution - 1050","status":"WITHDRAWN","city":"Taizhou","state":"Zhejiang","zip":"317099","country":"China","geoPoint":{"lat":32.49069,"lon":119.90812}},{"facility":"Taizhou Hospital Of Zhejiang Province","status":"RECRUITING","city":"Taizhou","state":"Zhejiang","zip":"317099","country":"China","contacts":[{"name":"Dongqing Lv, Site 007-744-Ph3","role":"CONTACT","phone":"13867622009"}],"geoPoint":{"lat":32.49069,"lon":119.90812}},{"facility":"Local Institution - 1043-Ph2","status":"NOT_YET_RECRUITING","city":"Qingdao","zip":"266011","country":"China","contacts":[{"name":"Site 1043-Ph2","role":"CONTACT"}],"geoPoint":{"lat":36.06488,"lon":120.38042}},{"facility":"Local Institution - 1043","status":"WITHDRAWN","city":"Qingdao","zip":"266011","country":"China","geoPoint":{"lat":36.06488,"lon":120.38042}},{"facility":"Local Institution - 007-035","status":"WITHDRAWN","city":"Shanghai","zip":"200032","country":"China","geoPoint":{"lat":31.22222,"lon":121.45806}},{"facility":"Local Institution - Unk021","status":"ACTIVE_NOT_RECRUITING","city":"Medellin","zip":"5010","country":"Colombia","geoPoint":{"lat":6.25184,"lon":-75.56359}},{"facility":"Local Institution - Unk027","status":"ACTIVE_NOT_RECRUITING","city":"Monteria","zip":"230002","country":"Colombia","geoPoint":{"lat":8.74798,"lon":-75.88143}},{"facility":"Local Institution - 007-4000","status":"WITHDRAWN","city":"Pula","zip":"52100","country":"Croatia","geoPoint":{"lat":44.86833,"lon":13.84806}},{"facility":"Local Institution - 007-4001","status":"NOT_YET_RECRUITING","city":"Rijeka","zip":"51000","country":"Croatia","contacts":[{"name":"Site 007-4001","role":"CONTACT"}],"geoPoint":{"lat":45.32674,"lon":14.44239}},{"facility":"Local Institution - 007-4002","status":"NOT_YET_RECRUITING","city":"Zagreb","zip":"10000","country":"Croatia","contacts":[{"name":"Site 007-4002","role":"CONTACT"}],"geoPoint":{"lat":45.81444,"lon":15.97798}},{"facility":"Multiscan - Ambulance klinicke onkologie se stacionarem - Horovice","status":"RECRUITING","city":"Horovice","zip":"268 31","country":"Czechia","contacts":[{"name":"Martin Smakal, Site 007-166","role":"CONTACT","phone":"+420603268133"}],"geoPoint":{"lat":49.83597,"lon":13.90268}},{"facility":"Fakultni Nemocnice Olomouc","status":"RECRUITING","city":"Olomouc","zip":"779 00","country":"Czechia","contacts":[{"name":"Juraj Kultan, Site 007-162","role":"CONTACT","phone":"420588445657"}],"geoPoint":{"lat":49.59552,"lon":17.25175}},{"facility":"Nemocnice AGEL Ostrava-Vitkovice","status":"RECRUITING","city":"Ostrava","zip":"703 84","country":"Czechia","contacts":[{"name":"Jaromir Roubec, Site 007-067","role":"CONTACT","phone":"00420595633400"}],"geoPoint":{"lat":49.83465,"lon":18.28204}},{"facility":"Local Institution - 007-163","status":"WITHDRAWN","city":"Praha 2","zip":"128 08","country":"Czechia","geoPoint":{"lat":50.08804,"lon":14.42076}},{"facility":"Fakultni nemocnice Bulovka","status":"RECRUITING","city":"Praha 8 - Liben","zip":"180 81","country":"Czechia","contacts":[{"name":"Petr Opalka, Site 007-168","role":"CONTACT","phone":"420702154607"}],"geoPoint":{"lat":50.08804,"lon":14.42076}},{"facility":"Local Institution - 007-172","status":"WITHDRAWN","city":"Odense","zip":"5000","country":"Denmark","geoPoint":{"lat":55.39594,"lon":10.38831}},{"facility":"Local Institution - 007-173","status":"NOT_YET_RECRUITING","city":"Soenderborg","zip":"6400","country":"Denmark","contacts":[{"name":"Site 007-173","role":"CONTACT"}]},{"facility":"Local Institution - 007-170","status":"NOT_YET_RECRUITING","city":"Vejle","zip":"7100","country":"Denmark","contacts":[{"name":"Site 007-170","role":"CONTACT"}],"geoPoint":{"lat":55.70927,"lon":9.5357}},{"facility":"Local Institution - 007-183","status":"NOT_YET_RECRUITING","city":"Helsinki","zip":"00180","country":"Finland","contacts":[{"name":"Site 007-183","role":"CONTACT"}],"geoPoint":{"lat":60.16952,"lon":24.93545}},{"facility":"Local Institution - 007-182","status":"NOT_YET_RECRUITING","city":"Tampere","zip":"33520","country":"Finland","contacts":[{"name":"Site 007-182","role":"CONTACT"}],"geoPoint":{"lat":61.49911,"lon":23.78712}},{"facility":"Local Institution - 007-689","status":"NOT_YET_RECRUITING","city":"Angers Cedex 02","zip":"49055","country":"France","contacts":[{"name":"Site 007-689","role":"CONTACT"}],"geoPoint":{"lat":47.46667,"lon":-0.55}},{"facility":"Local Institution - 007-1992","status":"NOT_YET_RECRUITING","city":"Boulogne-Billancourt","zip":"92100","country":"France","contacts":[{"name":"Site 007-1992","role":"CONTACT"}],"geoPoint":{"lat":48.83333,"lon":2.25}},{"facility":"Local Institution - 007-194","status":"NOT_YET_RECRUITING","city":"Brest","zip":"29200","country":"France","contacts":[{"name":"Site 007-194","role":"CONTACT"}],"geoPoint":{"lat":48.3903,"lon":-4.48628}},{"facility":"Local Institution - 007-196","status":"NOT_YET_RECRUITING","city":"Caen Cedex 5","zip":"14076","country":"France","contacts":[{"name":"Site 007-196","role":"CONTACT"}],"geoPoint":{"lat":49.18585,"lon":-0.35912}},{"facility":"Local Institution - 007-190","status":"NOT_YET_RECRUITING","city":"Creteil","zip":"94000","country":"France","contacts":[{"name":"Site 007-190","role":"CONTACT"}],"geoPoint":{"lat":48.78333,"lon":2.46667}},{"facility":"Local Institution - 007-683","status":"NOT_YET_RECRUITING","city":"La Tronche","zip":"38700","country":"France","contacts":[{"name":"Site 007-683","role":"CONTACT"}],"geoPoint":{"lat":45.20429,"lon":5.73645}},{"facility":"Local Institution - 007-195","status":"NOT_YET_RECRUITING","city":"Limoges cedex","zip":"87042","country":"France","contacts":[{"name":"Site 007-195","role":"CONTACT"}],"geoPoint":{"lat":45.83153,"lon":1.25781}},{"facility":"Local Institution - 007-199","status":"NOT_YET_RECRUITING","city":"Marseille","zip":"13009","country":"France","contacts":[{"name":"Site 007-199","role":"CONTACT"}],"geoPoint":{"lat":43.29551,"lon":5.38958}},{"facility":"Local Institution - 007-687","status":"NOT_YET_RECRUITING","city":"Marseille","zip":"13015","country":"France","contacts":[{"name":"Site 007-687","role":"CONTACT"}],"geoPoint":{"lat":43.29551,"lon":5.38958}},{"facility":"Local Institution - 007-200","status":"NOT_YET_RECRUITING","city":"Montpellier","zip":"34090","country":"France","contacts":[{"name":"Site 007-200","role":"CONTACT"}],"geoPoint":{"lat":43.61092,"lon":3.87723}},{"facility":"Local Institution - 007-666","status":"NOT_YET_RECRUITING","city":"Mulhouse","zip":"68100","country":"France","contacts":[{"name":"Site 007-666","role":"CONTACT"}],"geoPoint":{"lat":47.75,"lon":7.33333}},{"facility":"Local Institution - 007-664","status":"NOT_YET_RECRUITING","city":"Paris cedex 05","zip":"75248","country":"France","contacts":[{"name":"Site 007-664","role":"CONTACT"}],"geoPoint":{"lat":48.85341,"lon":2.3488}},{"facility":"Local Institution - 007-1991","status":"WITHDRAWN","city":"Rennes cedex 9","zip":"35033","country":"France","geoPoint":{"lat":48.11198,"lon":-1.67429}},{"facility":"Local Institution - 007-198","status":"NOT_YET_RECRUITING","city":"Saint Herblain","zip":"44805","country":"France","contacts":[{"name":"Site 007-198","role":"CONTACT"}],"geoPoint":{"lat":47.21765,"lon":-1.64841}},{"facility":"Local Institution - 007-1990","status":"NOT_YET_RECRUITING","city":"Saint Herblain","zip":"44805","country":"France","contacts":[{"name":"Site 007-1990","role":"CONTACT"}],"geoPoint":{"lat":47.21765,"lon":-1.64841}},{"facility":"Local Institution - 007-684","status":"NOT_YET_RECRUITING","city":"Strasbourg cedex","zip":"67091","country":"France","contacts":[{"name":"Site 007-684","role":"CONTACT"}],"geoPoint":{"lat":48.58392,"lon":7.74553}},{"facility":"Local Institution - 007-209","status":"NOT_YET_RECRUITING","city":"Tours Cedex 9","zip":"37044","country":"France","contacts":[{"name":"Site 007-209","role":"CONTACT"}],"geoPoint":{"lat":47.38333,"lon":0.68333}},{"facility":"Local Institution - 007-202","status":"NOT_YET_RECRUITING","city":"Villejuif","zip":"94805","country":"France","contacts":[{"name":"Site 007-202","role":"CONTACT"}],"geoPoint":{"lat":48.7939,"lon":2.35992}},{"facility":"Local Institution - 007-790","status":"WITHDRAWN","city":"Batumi","zip":"6000","country":"Georgia","geoPoint":{"lat":41.64228,"lon":41.63392}},{"facility":"Local Institution - 007-065","status":"WITHDRAWN","city":"Tbilisi","zip":"0112","country":"Georgia","geoPoint":{"lat":41.69411,"lon":44.83368}},{"facility":"Local Institution - 007-795","status":"WITHDRAWN","city":"Tbilisi","zip":"0112","country":"Georgia","geoPoint":{"lat":41.69411,"lon":44.83368}},{"facility":"Local Institution - 007-789","status":"WITHDRAWN","city":"Tbilisi","zip":"0144","country":"Georgia","geoPoint":{"lat":41.69411,"lon":44.83368}},{"facility":"Local Institution - 007-063","status":"WITHDRAWN","city":"Tbilisi","zip":"0159","country":"Georgia","geoPoint":{"lat":41.69411,"lon":44.83368}},{"facility":"Institute of Clinical Oncology - Tbilisi","status":"RECRUITING","city":"Tbilisi","zip":"0259","country":"Georgia","contacts":[{"name":"Vladimer Kuchava, Site 007-792","role":"CONTACT","phone":"+995322516800"}],"geoPoint":{"lat":41.69411,"lon":44.83368}},{"facility":"Local Institution - 007-211A","status":"NOT_YET_RECRUITING","city":"Immenstadt","state":"Bayern","zip":"87509","country":"Germany","contacts":[{"name":"Site 007-211A","role":"CONTACT"}],"geoPoint":{"lat":53.87689,"lon":13.79241}},{"facility":"Local Institution - 007-675","status":"NOT_YET_RECRUITING","city":"Amberg","zip":"92224","country":"Germany","contacts":[{"name":"Site 007-675","role":"CONTACT"}],"geoPoint":{"lat":49.44287,"lon":11.86267}},{"facility":"Local Institution - 007-2222","status":"NOT_YET_RECRUITING","city":"Augsburg","zip":"86156","country":"Germany","contacts":[{"name":"Site 007-2222","role":"CONTACT"}],"geoPoint":{"lat":48.37154,"lon":10.89851}},{"facility":"Klinikum Chemnitz","status":"RECRUITING","city":"Chemnitz","zip":"09116","country":"Germany","contacts":[{"name":"Stefan Hammerschmidt, Site 007-2215","role":"CONTACT","phone":"4937133343550"}],"geoPoint":{"lat":50.8357,"lon":12.92922}},{"facility":"Klinikum Esslingen","status":"RECRUITING","city":"Esslingen","zip":"73730","country":"Germany","contacts":[{"name":"Martin Faehling, Site 007-217","role":"CONTACT","phone":"+4971131032402"}],"geoPoint":{"lat":48.73961,"lon":9.30473}},{"facility":"Krankenhaus Nordwest","status":"RECRUITING","city":"Frankfurt am Main","zip":"60488","country":"Germany","contacts":[{"name":"Thorsten Goetze, Site 007-229","role":"CONTACT","phone":"496976014187"}],"geoPoint":{"lat":50.11552,"lon":8.68417}},{"facility":"Universitatsklinikum Gieen und Marburg - Gieen","status":"RECRUITING","city":"Giessen","zip":"35392","country":"Germany","contacts":[{"name":"Bastian Eul, Site 007-674","role":"CONTACT"}],"geoPoint":{"lat":50.58727,"lon":8.67554}},{"facility":"LungenClinic Grosshansdorf","status":"RECRUITING","city":"Grohansdorf","zip":"22927","country":"Germany","contacts":[{"name":"Martin Reck, Site 007-659","role":"CONTACT","phone":"041026012101"}]},{"facility":"Local Institution - Erdmann, R.","status":"NOT_YET_RECRUITING","city":"Hamburg","zip":"22307","country":"Germany","contacts":[{"name":"Site Erdmann, R.","role":"CONTACT"}],"geoPoint":{"lat":53.57532,"lon":10.01534}},{"facility":"Local Institution - 007-677","status":"ACTIVE_NOT_RECRUITING","city":"Heidelberg","zip":"69126","country":"Germany","geoPoint":{"lat":49.40768,"lon":8.69079}},{"facility":"Local Institution - 007-673","status":"WITHDRAWN","city":"Heilbronn","zip":"74072","country":"Germany","geoPoint":{"lat":49.13995,"lon":9.22054}},{"facility":"Lungenklinik Hemer","status":"RECRUITING","city":"Hemer","zip":"58675","country":"Germany","contacts":[{"name":"Karsten Schulmann, Site 007-218","role":"CONTACT","phone":"02372-9082560"}],"geoPoint":{"lat":51.38707,"lon":7.77019}},{"facility":"Local Institution - 007-225","status":"WITHDRAWN","city":"Jena","zip":"07747","country":"Germany","geoPoint":{"lat":50.92878,"lon":11.5899}},{"facility":"Klinikum Kassel","status":"RECRUITING","city":"Kassel","zip":"34125","country":"Germany","contacts":[{"name":"Martin Wolf, Site 007-213","role":"CONTACT","phone":"495619803046"}],"geoPoint":{"lat":51.31667,"lon":9.5}},{"facility":"Klinikverbund Allgau - Klinikum Kempten","status":"RECRUITING","city":"Kempten","zip":"87439","country":"Germany","contacts":[{"name":"Christian Schumann, Site 007-211","role":"CONTACT","phone":"+49 8323 9108171"}],"geoPoint":{"lat":47.72674,"lon":10.31389}},{"facility":"Local Institution - 007-2217","status":"NOT_YET_RECRUITING","city":"Koln","zip":"51109","country":"Germany","contacts":[{"name":"Site 007-2217","role":"CONTACT"}],"geoPoint":{"lat":50.93333,"lon":6.95}},{"facility":"Local Institution - 007-224","status":"NOT_YET_RECRUITING","city":"Lowenstein","zip":"74245","country":"Germany","contacts":[{"name":"Site 007-224","role":"CONTACT"}],"geoPoint":{"lat":49.0954,"lon":9.38069}},{"facility":"Universitatsklinikum Schleswig-Holstein - Campus Lubeck","status":"RECRUITING","city":"Lubeck","zip":"23538","country":"Germany","contacts":[{"name":"Sabine Bohnet, Site 007-216","role":"CONTACT","phone":"4945150045002"}],"geoPoint":{"lat":53.86893,"lon":10.68729}},{"facility":"Local Institution - 007-223","status":"WITHDRAWN","city":"Mainz","zip":"55131","country":"Germany","geoPoint":{"lat":49.98419,"lon":8.2791}},{"facility":"Local Institution - 007-2221","status":"NOT_YET_RECRUITING","city":"Monchengladbach","zip":"41063","country":"Germany","contacts":[{"name":"Site 007-2221","role":"CONTACT"}],"geoPoint":{"lat":51.18539,"lon":6.44172}},{"facility":"Munchen Klinik Bogenhausen","status":"RECRUITING","city":"Munchen","zip":"81925","country":"Germany","contacts":[{"name":"Konrad Kokowski, Site 007-220","role":"CONTACT","phone":"+498992704505"}],"geoPoint":{"lat":48.13743,"lon":11.57549}},{"facility":"Local Institution - 007-2218","status":"NOT_YET_RECRUITING","city":"Neuruppin","zip":"16816","country":"Germany","contacts":[{"name":"Site 007-2218","role":"CONTACT"}],"geoPoint":{"lat":52.92815,"lon":12.80311}},{"facility":"Sana Klinikum Offenbach","status":"RECRUITING","city":"Offenbach","zip":"63069","country":"Germany","contacts":[{"name":"Thomas Wehler, Site 007-672","role":"CONTACT","phone":"0049064198559544"}],"geoPoint":{"lat":50.10061,"lon":8.76647}},{"facility":"Pius-Hospital Oldenburg","status":"RECRUITING","city":"Oldenburg","zip":"26121","country":"Germany","contacts":[{"name":"Frank Griesinger, Site 007-212","role":"CONTACT","phone":"494412291611"}],"geoPoint":{"lat":53.14118,"lon":8.21467}},{"facility":"Local Institution - 007-2219","status":"NOT_YET_RECRUITING","city":"Ulm","zip":"89081","country":"Germany","contacts":[{"name":"Site 007-2219","role":"CONTACT"}],"geoPoint":{"lat":48.39841,"lon":9.99155}},{"facility":"Local Institution - 007-502","status":"NOT_YET_RECRUITING","city":"Athens","state":"Attiki","zip":"11526","country":"Greece","contacts":[{"name":"Site 007-502","role":"CONTACT"}],"geoPoint":{"lat":37.97945,"lon":23.71622}},{"facility":"Local Institution - 007-236","status":"NOT_YET_RECRUITING","city":"Athens","zip":"11527","country":"Greece","contacts":[{"name":"Site 007-236","role":"CONTACT"}],"geoPoint":{"lat":37.97945,"lon":23.71622}},{"facility":"Local Institution - 007-238","status":"NOT_YET_RECRUITING","city":"Heraklion","zip":"71110","country":"Greece","contacts":[{"name":"Site 007-238","role":"CONTACT"}],"geoPoint":{"lat":35.32787,"lon":25.14341}},{"facility":"Local Institution - 007-235","status":"NOT_YET_RECRUITING","city":"Larissa","zip":"41110","country":"Greece","contacts":[{"name":"Site 007-235","role":"CONTACT"}],"geoPoint":{"lat":39.63689,"lon":22.41761}},{"facility":"Local Institution - 007-234","status":"NOT_YET_RECRUITING","city":"Peiraias","zip":"185 47","country":"Greece","contacts":[{"name":"Site 007-234","role":"CONTACT"}]},{"facility":"Local Institution - 007-505","status":"NOT_YET_RECRUITING","city":"Thessaloniki","zip":"54645","country":"Greece","contacts":[{"name":"Site 007-505","role":"CONTACT"}],"geoPoint":{"lat":40.64361,"lon":22.93086}},{"facility":"Local Institution - 007-044","status":"NOT_YET_RECRUITING","city":"Chai Wan","zip":"0","country":"Hong Kong","contacts":[{"name":"Site 007-044","role":"CONTACT"}],"geoPoint":{"lat":22.26718,"lon":114.24051}},{"facility":"Local Institution - 007-041","status":"NOT_YET_RECRUITING","city":"Hong Kong","zip":"0","country":"Hong Kong","contacts":[{"name":"Site 007-041","role":"CONTACT"}],"geoPoint":{"lat":22.27832,"lon":114.17469}},{"facility":"Local Institution - 007-045","status":"NOT_YET_RECRUITING","city":"Kowloon","zip":"0","country":"Hong Kong","contacts":[{"name":"Site 007-045","role":"CONTACT"}],"geoPoint":{"lat":22.31667,"lon":114.18333}},{"facility":"Semmelweis Egyetem - Pulmonologiai Klinika","status":"RECRUITING","city":"Budapest","zip":"1083","country":"Hungary","contacts":[{"name":"Veronika Muller, Site 007-242","role":"CONTACT","phone":"36208259181"}],"geoPoint":{"lat":47.49801,"lon":19.03991}},{"facility":"Orszagos Koranyi Pulmonologiai Intezet","status":"RECRUITING","city":"Budapest","zip":"1121","country":"Hungary","contacts":[{"name":"Gyula Ostoros, Site 007-244","role":"CONTACT","phone":"3613913213"}],"geoPoint":{"lat":47.49801,"lon":19.03991}},{"facility":"Orszagos Onkologiai Intezet","status":"RECRUITING","city":"Budapest","zip":"1122","country":"Hungary","contacts":[{"name":"Tunde Nagy, Site 007-750","role":"CONTACT","phone":"3612248600"}],"geoPoint":{"lat":47.49801,"lon":19.03991}},{"facility":"Farkasgyepui Tudogyogyintezet","status":"RECRUITING","city":"Farkasgyepu","zip":"8582","country":"Hungary","contacts":[{"name":"Zsolt Kiraly, Site 007-058","role":"CONTACT","phone":"36209264476"}],"geoPoint":{"lat":47.2,"lon":17.63333}},{"facility":"Matrai Gyogyintezet","status":"RECRUITING","city":"Gyongyos","zip":"3200","country":"Hungary","contacts":[{"name":"Laszlo Urban, Site 007-243","role":"CONTACT","phone":"203929250"}],"geoPoint":{"lat":47.78257,"lon":19.928}},{"facility":"Local Institution - 007-057","status":"NOT_YET_RECRUITING","city":"Tatabanya","zip":"2800","country":"Hungary","contacts":[{"name":"Site 007-057","role":"CONTACT"}],"geoPoint":{"lat":47.58494,"lon":18.39325}},{"facility":"Reformatus Pulmonologiai Centrum","status":"RECRUITING","city":"Torokbalint","zip":"2045","country":"Hungary","contacts":[{"name":"Eva Morocz, Site 007-240","role":"CONTACT","phone":"+36204634328"}],"geoPoint":{"lat":47.42931,"lon":18.91356}},{"facility":"Local Institution - 007-1568","status":"NOT_YET_RECRUITING","city":"Ahemdabad","zip":"380060","country":"India","contacts":[{"name":"Site 007-1568","role":"CONTACT"}]},{"facility":"Local Institution - 007-1574","status":"NOT_YET_RECRUITING","city":"Ahmedabad","zip":"380015","country":"India","contacts":[{"name":"Site 007-1574","role":"CONTACT"}],"geoPoint":{"lat":23.02579,"lon":72.58727}},{"facility":"Local Institution - 007-1565","status":"NOT_YET_RECRUITING","city":"Aurangabad","zip":"431002","country":"India","contacts":[{"name":"Site 007-1565","role":"CONTACT"}],"geoPoint":{"lat":19.87757,"lon":75.34226}},{"facility":"Local Institution - 007-1586","status":"NOT_YET_RECRUITING","city":"Bangalore","zip":"560069","country":"India","contacts":[{"name":"Site 007-1586","role":"CONTACT"}],"geoPoint":{"lat":12.97194,"lon":77.59369}},{"facility":"Local Institution - 007-1575","status":"NOT_YET_RECRUITING","city":"Belagavi","zip":"590010","country":"India","contacts":[{"name":"Site 007-1575","role":"CONTACT"}]},{"facility":"Local Institution - 007-1564","status":"WITHDRAWN","city":"Hyderabad","zip":"500 082","country":"India","geoPoint":{"lat":17.38405,"lon":78.45636}},{"facility":"Local Institution - 007-1563","status":"NOT_YET_RECRUITING","city":"Hyderabad","zip":"500034","country":"India","contacts":[{"name":"Site 007-1563","role":"CONTACT"}],"geoPoint":{"lat":17.38405,"lon":78.45636}},{"facility":"Local Institution - 007-1569","status":"NOT_YET_RECRUITING","city":"Jaipur","zip":"302004","country":"India","contacts":[{"name":"Site 007-1569","role":"CONTACT"}],"geoPoint":{"lat":26.91962,"lon":75.78781}},{"facility":"Local Institution - 007-1566","status":"NOT_YET_RECRUITING","city":"Kochi","zip":"682041","country":"India","contacts":[{"name":"Site 007-1566","role":"CONTACT"}],"geoPoint":{"lat":9.93988,"lon":76.26022}},{"facility":"Local Institution - 007-1570","status":"NOT_YET_RECRUITING","city":"Kolkata","zip":"700094","country":"India","contacts":[{"name":"Site 007-1570","role":"CONTACT"}],"geoPoint":{"lat":22.56263,"lon":88.36304}},{"facility":"Local Institution - 007-1573","status":"NOT_YET_RECRUITING","city":"Madurai","zip":"625 107","country":"India","contacts":[{"name":"Site 007-1573","role":"CONTACT"}],"geoPoint":{"lat":9.91769,"lon":78.11898}},{"facility":"Local Institution - Shetty, R.","status":"NOT_YET_RECRUITING","city":"Mangalore","zip":"575002","country":"India","contacts":[{"name":"Site Shetty, R.","role":"CONTACT"}],"geoPoint":{"lat":12.91723,"lon":74.85603}},{"facility":"Local Institution - 007-1582","status":"NOT_YET_RECRUITING","city":"Mumbai","zip":"400 012","country":"India","contacts":[{"name":"Site 007-1582","role":"CONTACT"}],"geoPoint":{"lat":19.07283,"lon":72.88261}},{"facility":"Local Institution - 007-1561","status":"NOT_YET_RECRUITING","city":"Mysore","zip":"570001","country":"India","contacts":[{"name":"Site 007-1561","role":"CONTACT"}],"geoPoint":{"lat":12.29791,"lon":76.63925}},{"facility":"Local Institution - 007-1567","status":"NOT_YET_RECRUITING","city":"New Delhi","zip":"110076","country":"India","contacts":[{"name":"Site 007-1567","role":"CONTACT"}],"geoPoint":{"lat":28.63576,"lon":77.22445}},{"facility":"Local Institution - 007-1578","status":"WITHDRAWN","city":"New Delhi","zip":"110085","country":"India","geoPoint":{"lat":28.63576,"lon":77.22445}},{"facility":"Local Institution - 007-1560","status":"NOT_YET_RECRUITING","city":"Patna","zip":"800014","country":"India","contacts":[{"name":"Site 007-1560","role":"CONTACT"}],"geoPoint":{"lat":25.59408,"lon":85.13563}},{"facility":"Local Institution - 007-1571","status":"NOT_YET_RECRUITING","city":"Pune","zip":"411004","country":"India","contacts":[{"name":"Site 007-1571","role":"CONTACT"}],"geoPoint":{"lat":18.51957,"lon":73.85535}},{"facility":"Local Institution - 007-1562","status":"NOT_YET_RECRUITING","city":"Rajkot","zip":"360005","country":"India","contacts":[{"name":"Site 007-1562","role":"CONTACT"}],"geoPoint":{"lat":22.29161,"lon":70.79322}},{"facility":"Local Institution - 007-1581","status":"NOT_YET_RECRUITING","city":"Varanasi","zip":"221010","country":"India","contacts":[{"name":"Site 007-1581","role":"CONTACT"}],"geoPoint":{"lat":25.31668,"lon":83.01041}},{"facility":"Local Institution - 007-256","status":"WITHDRAWN","city":"Cork","zip":"T12 E8YV","country":"Ireland","geoPoint":{"lat":51.89797,"lon":-8.47061}},{"facility":"Beaumont Hospital - Dublin","status":"RECRUITING","city":"Dublin","zip":"9","country":"Ireland","contacts":[{"name":"Jarushka Naidoo, Site 007-252","role":"CONTACT","phone":"01-8092010"}],"geoPoint":{"lat":53.33306,"lon":-6.24889}},{"facility":"St. Jamess Hospital","status":"RECRUITING","city":"Dublin","zip":"D08 NHY1","country":"Ireland","contacts":[{"name":"Sinead Cuffe, Site 007-259","role":"CONTACT","phone":"35314103756"}],"geoPoint":{"lat":53.33306,"lon":-6.24889}},{"facility":"Local Institution - 007-251","status":"NOT_YET_RECRUITING","city":"Dublin","zip":"D24 NR0A","country":"Ireland","contacts":[{"name":"Site 007-251","role":"CONTACT"}],"geoPoint":{"lat":53.33306,"lon":-6.24889}},{"facility":"University Hospital Galway","status":"RECRUITING","city":"Galway","zip":"H91 YR71","country":"Ireland","contacts":[{"name":"Silvie Blazkova, Site 007-257","role":"CONTACT","phone":"+353 91-524222"}],"geoPoint":{"lat":53.27194,"lon":-9.04889}},{"facility":"Local Institution - 007-258","status":"WITHDRAWN","city":"Limerick","zip":"V94 F858","country":"Ireland","geoPoint":{"lat":52.66472,"lon":-8.62306}},{"facility":"University Hospital Waterford","status":"RECRUITING","city":"Waterford","zip":"X91 ER8E","country":"Ireland","contacts":[{"name":"Paula Calvert, Site 007-2565","role":"CONTACT","phone":"353(51)842595"}],"geoPoint":{"lat":52.25833,"lon":-7.11194}},{"facility":"Emek Medical Center","status":"RECRUITING","city":"Afula","zip":"1834111","country":"Israel","contacts":[{"name":"Gil Bar-Sela, Site 007-261","role":"CONTACT","phone":"97246495723"}],"geoPoint":{"lat":32.60907,"lon":35.2892}},{"facility":"Rambam Health Care Campus","status":"RECRUITING","city":"Bat Galim","zip":"3109601","country":"Israel","contacts":[{"name":"Sameh Daher, Site 007-266","role":"CONTACT"}]},{"facility":"Soroka Medical Center","status":"RECRUITING","city":"Beer Sheva","zip":"84101","country":"Israel","contacts":[{"name":"Julia Dudnik, Site 007-260","role":"CONTACT","phone":"+97286400795"}],"geoPoint":{"lat":31.25181,"lon":34.7913}},{"facility":"Local Institution - 007-263","status":"WITHDRAWN","city":"Holon","zip":"5822012","country":"Israel","geoPoint":{"lat":32.01034,"lon":34.77918}},{"facility":"Shaare Zedek Medical Center","status":"RECRUITING","city":"Jerusalem","zip":"9103102","country":"Israel","contacts":[{"name":"Nir Peled, Site 007-267","role":"CONTACT","phone":"97205870406206555727"}],"geoPoint":{"lat":31.76904,"lon":35.21633}},{"facility":"Hadassah University Hospital Ein Kerem","status":"RECRUITING","city":"Jerusalem","zip":"9112001","country":"Israel","contacts":[{"name":"Hovav Nechushtan, Site 007-262","role":"CONTACT","phone":"97226777836"}],"geoPoint":{"lat":31.76904,"lon":35.21633}},{"facility":"Kaplan Medical Center","status":"RECRUITING","city":"Rehovot","zip":"7661041","country":"Israel","contacts":[{"name":"Ella Evron, Site 007-265","role":"CONTACT","phone":"97289441084"}],"geoPoint":{"lat":31.89421,"lon":34.81199}},{"facility":"Tel Aviv Sourasky Medical Center","status":"RECRUITING","city":"Tel Aviv","zip":"6423906","country":"Israel","contacts":[{"name":"Sivan Shamai, Site 007-268","role":"CONTACT","phone":"+97236973494"}],"geoPoint":{"lat":32.08088,"lon":34.78057}},{"facility":"Ziv Medical Center","status":"RECRUITING","city":"Zsfat","zip":"1311001","country":"Israel","contacts":[{"name":"Moatz Safadi, Site 007-264","role":"CONTACT","phone":"+97246828951"}]},{"facility":"Local Institution - Unk016","status":"ACTIVE_NOT_RECRUITING","city":"Aviano","zip":"33081","country":"Italy","geoPoint":{"lat":46.07056,"lon":12.59472}},{"facility":"Istituto Tumori Bari Giovanni Paolo II - IRCCS","status":"RECRUITING","city":"Bari","zip":"70124","country":"Italy","contacts":[{"name":"Domenico Galetta, Site 007-275","role":"CONTACT","phone":"390805555442"}],"geoPoint":{"lat":41.11148,"lon":16.8554}},{"facility":"Azienda Ospedaliero-Universitaria di Bologna - Policlinico Sant Orsola-Malpighi","status":"RECRUITING","city":"Bologna","zip":"40138","country":"Italy","contacts":[{"name":"Andrea Ardizzoni, Site 007-753","role":"CONTACT","phone":"390512142206"}],"geoPoint":{"lat":44.49381,"lon":11.33875}},{"facility":"Azienda Socio Sanitaria Territoriale (ASST) degli Spedali Civili di Brescia","status":"RECRUITING","city":"Brescia","zip":"25123","country":"Italy","contacts":[{"name":"Salvatore Grisanti, Site 007-765","role":"CONTACT"}],"geoPoint":{"lat":45.53558,"lon":10.21472}},{"facility":"Local Institution - 007-286","status":"NOT_YET_RECRUITING","city":"Candiolo","zip":"10060","country":"Italy","contacts":[{"name":"Site 007-286","role":"CONTACT"}],"geoPoint":{"lat":44.95858,"lon":7.59812}},{"facility":"Azienda Ospedaliero - Universitaria Careggi","status":"RECRUITING","city":"Firenze","zip":"50134","country":"Italy","contacts":[{"name":"Lorenzo Antonuzzo, Site 007-762","role":"CONTACT","phone":"00390557947298"}],"geoPoint":{"lat":43.77925,"lon":11.24626}},{"facility":"Istituto di Ricovero e Cura a Carattere Scientifico (IRCCS) - Ospedale Policlinico San Martino","status":"RECRUITING","city":"Genova","zip":"16132","country":"Italy","contacts":[{"name":"Carlo Genova, Site 007-285","role":"CONTACT","phone":"393397231066"}],"geoPoint":{"lat":44.40478,"lon":8.94438}},{"facility":"\"Istituto Romagnolo per lo Studio dei Tumori \"Dino Amadori\" - IRST\"","status":"RECRUITING","city":"Meldola","zip":"47014","country":"Italy","contacts":[{"name":"Angelo Delmonte, Site 007-270","role":"CONTACT","phone":"+393487469100"}],"geoPoint":{"lat":44.12775,"lon":12.0626}},{"facility":"Fondazione IRCCS - Istituto Nazionale dei Tumori","status":"RECRUITING","city":"Milano","zip":"20133","country":"Italy","contacts":[{"name":"Giuseppe Lo Russo, Site 007-283","role":"CONTACT"}],"geoPoint":{"lat":45.46427,"lon":9.18951}},{"facility":"Istituto di Ricovero e Cura a Carattere Scientifico (IRCCS) - Ospedale San Raffaele","status":"RECRUITING","city":"Milan","zip":"20132","country":"Italy","contacts":[{"name":"Roberto Ferrara, Site 007-296","role":"CONTACT","phone":"+390226434138"}],"geoPoint":{"lat":45.46427,"lon":9.18951}},{"facility":"Istituto Europeo di Oncologia","status":"RECRUITING","city":"Milan","zip":"20141","country":"Italy","contacts":[{"name":"Filippo de Marinis, Site 007-278","role":"CONTACT","phone":"390257489440"}],"geoPoint":{"lat":45.46427,"lon":9.18951}},{"facility":"Local Institution - 007-318","status":"WITHDRAWN","city":"Monza","zip":"20900","country":"Italy","geoPoint":{"lat":45.58005,"lon":9.27246}},{"facility":"Istituto Nazionale Tumori IRCCS Fondazione G. Pascale","status":"RECRUITING","city":"Napoli","zip":"80131","country":"Italy","contacts":[{"name":"Alessandro Morabito, Site 007-271","role":"CONTACT","phone":"390817770291"}],"geoPoint":{"lat":40.85216,"lon":14.26811}},{"facility":"Local Institution - Unk017","status":"ACTIVE_NOT_RECRUITING","city":"Padova","zip":"35128","country":"Italy","geoPoint":{"lat":45.40797,"lon":11.88586}},{"facility":"Azienda Ospedaliero-Universitaria di Parma","status":"RECRUITING","city":"Parma","zip":"43126","country":"Italy","contacts":[{"name":"Marcello Tiseo, Site 007-272","role":"CONTACT","phone":"390521702682"}],"geoPoint":{"lat":44.79935,"lon":10.32618}},{"facility":"Azienda Ospedaliera di Perugia - Santa Maria della Misericordia","status":"RECRUITING","city":"Perugia","zip":"06132","country":"Italy","contacts":[{"name":"Giulio Metro, Site 007-281","role":"CONTACT","phone":"393492254884"}],"geoPoint":{"lat":43.1122,"lon":12.38878}},{"facility":"Azienda Sanitaria Territoriale Pesaro Urbino","status":"RECRUITING","city":"Pesaro","zip":"61122","country":"Italy","contacts":[{"name":"Rita Chiari, Site 007-766","role":"CONTACT"}],"geoPoint":{"lat":43.90921,"lon":12.9164}},{"facility":"Local Institution - 007-767","status":"NOT_YET_RECRUITING","city":"Ravenna","zip":"48121","country":"Italy","contacts":[{"name":"Site 007-767","role":"CONTACT"}],"geoPoint":{"lat":44.41344,"lon":12.20121}},{"facility":"Istituto Nazionale Tumori Regina Elena","status":"RECRUITING","city":"Roma","zip":"00144","country":"Italy","contacts":[{"name":"Federico Cappuzzo, Site 007-295","role":"CONTACT","phone":"390586223189"}],"geoPoint":{"lat":41.89193,"lon":12.51133}},{"facility":"Fondazione Policlinico Universitario Agostino Gemelli IRCCS","status":"RECRUITING","city":"Roma","zip":"00168","country":"Italy","contacts":[{"name":"Emilio Bria, Site 007-280","role":"CONTACT","phone":"00390630156318"}],"geoPoint":{"lat":41.89193,"lon":12.51133}},{"facility":"Local Institution - Unk030","status":"ACTIVE_NOT_RECRUITING","city":"Rozzano","zip":"20089","country":"Italy","geoPoint":{"lat":45.38193,"lon":9.1559}},{"facility":"Ospedale di Circolo e Fondazione Macchi","status":"RECRUITING","city":"Varese","zip":"21100","country":"Italy","contacts":[{"name":"Francesco Grossi, Site 007-755","role":"CONTACT","phone":"+393355255484"}],"geoPoint":{"lat":45.82058,"lon":8.82511}},{"facility":"Local Institution - 007-1169","status":"NOT_YET_RECRUITING","city":"Toon-shi","state":"Ehime","zip":"791-0295","country":"Japan","contacts":[{"name":"Site 007-1169","role":"CONTACT"}],"geoPoint":{"lat":33.79427,"lon":132.89011}},{"facility":"Local Institution - Hattori, Y.","status":"NOT_YET_RECRUITING","city":"Akashi City","state":"Hyogo","zip":"673-8558","country":"Japan","contacts":[{"name":"Site Hattori, Y.","role":"CONTACT"}],"geoPoint":{"lat":34.65522,"lon":135.00687}},{"facility":"Local Institution - 007-1593","status":"NOT_YET_RECRUITING","city":"Nishinomiya-Shi","state":"Hyogo","zip":"663-8501","country":"Japan","contacts":[{"name":"Site 007-1593","role":"CONTACT"}],"geoPoint":{"lat":34.71562,"lon":135.33199}},{"facility":"Kitasato University Hospital","status":"RECRUITING","city":"Sagamihara","state":"Kanagawa","zip":"252-0375","country":"Japan","contacts":[{"name":"Katsuhiko Naoki, Site Naoki, K.","role":"CONTACT"}],"geoPoint":{"lat":35.54899,"lon":139.26064}},{"facility":"Sendai Kousei Hospital","status":"RECRUITING","city":"Sendai","state":"Miyagi","zip":"980-0873","country":"Japan","contacts":[{"name":"Shunichi Sugawara, Site 007-1159","role":"CONTACT","phone":"81227288000"}],"geoPoint":{"lat":38.26667,"lon":140.86667}},{"facility":"Nagasaki University Hospital","status":"RECRUITING","city":"Nagasaki-shi","state":"Nagasaki","zip":"852-8501","country":"Japan","contacts":[{"name":"Hirokazu Taniguchi, Site 007-1592","role":"CONTACT","phone":"+81958197200"}],"geoPoint":{"lat":32.75,"lon":129.88333}},{"facility":"Nara Medical University Hospital","status":"RECRUITING","city":"Kashihara","state":"Nara","zip":"634-8522","country":"Japan","contacts":[{"name":"Masayuki Takeda, Site 007-1166","role":"CONTACT","phone":"81744223051"}],"geoPoint":{"lat":34.50896,"lon":135.7929}},{"facility":"National Hospital Organization Kinki-Chuo Chest Medical Center","status":"RECRUITING","city":"Sakai-Shi","state":"Osaka","zip":"591-8555","country":"Japan","contacts":[{"name":"Kyoichi Okishio, Site Okishio, K.","role":"CONTACT","phone":"+81722523021"}],"geoPoint":{"lat":34.58333,"lon":135.46667}},{"facility":"Fukushima Medical University Hospital","status":"RECRUITING","city":"Fukushima-Shi","zip":"960-1295","country":"Japan","contacts":[{"name":"Hiroyuki Suzuki, Site 007-1152","role":"CONTACT","phone":"81245471111"}],"geoPoint":{"lat":37.75,"lon":140.46667}},{"facility":"National Hospital Organization Iwakuni Clinical Center","status":"RECRUITING","city":"Iwakuni","zip":"740-8510","country":"Japan","contacts":[{"name":"Shoichi Kuyama, Site Kuyama, S.","role":"CONTACT","phone":"0827355681"}],"geoPoint":{"lat":34.16297,"lon":132.22}},{"facility":"Local Institution - 007-1165","status":"NOT_YET_RECRUITING","city":"Kanazawa","zip":"920-8641","country":"Japan","contacts":[{"name":"Site 007-1165","role":"CONTACT"}],"geoPoint":{"lat":36.6,"lon":136.61667}},{"facility":"Jcho Chukyo Hospital","status":"RECRUITING","city":"Nagoya","zip":"457-8510","country":"Japan","contacts":[{"name":"Shuichi Asano, Site 007-1158","role":"CONTACT","phone":"+81526917151"}],"geoPoint":{"lat":35.18147,"lon":136.90641}},{"facility":"National Hospital Organization - Nagoya Medical Center","status":"RECRUITING","city":"Nagoya","zip":"460-0001","country":"Japan","contacts":[{"name":"Masahide Oki, Site 007-1154","role":"CONTACT","phone":"81529511111"}],"geoPoint":{"lat":35.18147,"lon":136.90641}},{"facility":"Local Institution - 007-1591","status":"NOT_YET_RECRUITING","city":"Nankoku-shi","zip":"783-8505","country":"Japan","contacts":[{"name":"Site 007-1591","role":"CONTACT"}],"geoPoint":{"lat":33.56943,"lon":133.64937}},{"facility":"Osaka City General Hospital","status":"RECRUITING","city":"Osaka","zip":"534-0021","country":"Japan","contacts":[{"name":"Haruko Daga, Site Daga, H.","role":"CONTACT","phone":"81669293269"}],"geoPoint":{"lat":34.69374,"lon":135.50218}},{"facility":"Local Institution - 007-1167","status":"NOT_YET_RECRUITING","city":"Osaka","zip":"541-8567","country":"Japan","contacts":[{"name":"Site 007-1167","role":"CONTACT"}],"geoPoint":{"lat":34.69374,"lon":135.50218}},{"facility":"Local Institution - 007-1164","status":"NOT_YET_RECRUITING","city":"Toyama","zip":"930-0194","country":"Japan","contacts":[{"name":"Site 007-1164","role":"CONTACT"}],"geoPoint":{"lat":36.7,"lon":137.21667}},{"facility":"Pusan National University Hospital","status":"RECRUITING","city":"Busan-si","zip":"49241","country":"Korea, Republic of","contacts":[{"name":"Mi-Hyun Kim, Site 007-522","role":"CONTACT","phone":"+82512407497"}],"geoPoint":{"lat":35.10278,"lon":129.04028}},{"facility":"Inje University Haeundae Paik Hospital","status":"RECRUITING","city":"Busan","zip":"48108","country":"Korea, Republic of","contacts":[{"name":"ILHWAN KIM, Site 007-111","role":"CONTACT","phone":"82517970001"}],"geoPoint":{"lat":35.10278,"lon":129.04028}},{"facility":"Chungbuk National University Hospital","status":"RECRUITING","city":"Cheongju-si","zip":"28644","country":"Korea, Republic of","contacts":[{"name":"Ki Hyeong Lee, Site 007-113","role":"CONTACT","phone":"82432696015"}],"geoPoint":{"lat":36.63722,"lon":127.48972}},{"facility":"Kyungpook National University Chilgok Hospital","status":"RECRUITING","city":"Daegu","zip":"41404","country":"Korea, Republic of","contacts":[{"name":"Seung Soo Yoo, Site 007-110","role":"CONTACT","phone":"+821091330641"}],"geoPoint":{"lat":35.87028,"lon":128.59111}},{"facility":"National Cancer Center - Korea","status":"RECRUITING","city":"Goyang-si","zip":"10408","country":"Korea, Republic of","contacts":[{"name":"Ji Youn Han, Site 007-117","role":"CONTACT","phone":"+82319201154"}],"geoPoint":{"lat":37.65639,"lon":126.835}},{"facility":"Inha University Hospital","status":"RECRUITING","city":"Jung-Gu","zip":"400-712","country":"Korea, Republic of","contacts":[{"name":"Jun Hyeok Lim, Site 007-102","role":"CONTACT","phone":"82328901038"}]},{"facility":"Seoul National University Hospital","status":"RECRUITING","city":"Seoul","zip":"03080","country":"Korea, Republic of","contacts":[{"name":"Dong-Wan Kim, Site 007-108","role":"CONTACT"}],"geoPoint":{"lat":37.566,"lon":126.9784}},{"facility":"Severance Hospital","status":"RECRUITING","city":"Seoul","zip":"03722","country":"Korea, Republic of","contacts":[{"name":"Hye Ryun Kim, Site 007-118","role":"CONTACT","phone":"82222284190"}],"geoPoint":{"lat":37.566,"lon":126.9784}},{"facility":"Asan Medical Center","status":"RECRUITING","city":"Seoul","zip":"05505","country":"Korea, Republic of","contacts":[{"name":"Sang-We Kim, Site 007-104","role":"CONTACT","phone":"82230103215"}],"geoPoint":{"lat":37.566,"lon":126.9784}},{"facility":"Samsung Medical Center","status":"RECRUITING","city":"Seoul","zip":"06351","country":"Korea, Republic of","contacts":[{"name":"Myung-Ju Ahn, Site 007-114","role":"CONTACT","phone":"+82234103438+8223410"}],"geoPoint":{"lat":37.566,"lon":126.9784}},{"facility":"Korea University Guro Hospital","status":"RECRUITING","city":"Seoul","zip":"08308","country":"Korea, Republic of","contacts":[{"name":"Sung Yong Lee, Site 007-523","role":"CONTACT","phone":"821022179216"}],"geoPoint":{"lat":37.566,"lon":126.9784}},{"facility":"Catholic University of Korea St. Vincents Hospital","status":"RECRUITING","city":"Suwon-Si","zip":"16247","country":"Korea, Republic of","contacts":[{"name":"Byoung Yong Shim, Site 007-115","role":"CONTACT","phone":"82312498485"}],"geoPoint":{"lat":37.29111,"lon":127.00889}},{"facility":"Local Institution - Unk079","status":"ACTIVE_NOT_RECRUITING","city":"Johor Bahru","state":"Johor","zip":"81100","country":"Malaysia","geoPoint":{"lat":1.4655,"lon":103.7578}},{"facility":"Local Institution - Choo Khoon, O.","status":"NOT_YET_RECRUITING","city":"George Town","state":"Penang","zip":"10990","country":"Malaysia","contacts":[{"name":"Site Choo Khoon, O.","role":"CONTACT"}],"geoPoint":{"lat":5.41123,"lon":100.33543}},{"facility":"Local Institution - Unk048","status":"ACTIVE_NOT_RECRUITING","city":"George Town","state":"Penang","zip":"10990","country":"Malaysia","geoPoint":{"lat":5.41123,"lon":100.33543}},{"facility":"Local Institution - Unk007","status":"ACTIVE_NOT_RECRUITING","city":"Petaling Jaya","state":"Selangor","zip":"46050","country":"Malaysia","geoPoint":{"lat":3.10726,"lon":101.60671}},{"facility":"Local Institution - 007-073","status":"NOT_YET_RECRUITING","city":"Kuala Lumpur","zip":"50586","country":"Malaysia","contacts":[{"name":"Site 007-073","role":"CONTACT"}],"geoPoint":{"lat":3.1412,"lon":101.68653}},{"facility":"Local Institution - Unk075","status":"ACTIVE_NOT_RECRUITING","city":"Kuala Lumpur","zip":"50603","country":"Malaysia","geoPoint":{"lat":3.1412,"lon":101.68653}},{"facility":"Local Institution - Unk034","status":"ACTIVE_NOT_RECRUITING","city":"Mexico","state":"Distrito Federal","zip":"14080","country":"Mexico","geoPoint":{"lat":19.42847,"lon":-99.12766}},{"facility":"Local Institution - Unk049","status":"ACTIVE_NOT_RECRUITING","city":"Mexico","state":"Distrito Federal","zip":"14080","country":"Mexico","geoPoint":{"lat":19.42847,"lon":-99.12766}},{"facility":"Local Institution - Unk070","status":"ACTIVE_NOT_RECRUITING","city":"Guadalajara","state":"Jalisco","zip":"44670","country":"Mexico","geoPoint":{"lat":20.66682,"lon":-103.39182}},{"facility":"Local Institution - Unk037","status":"ACTIVE_NOT_RECRUITING","city":"Monterrey","zip":"64460","country":"Mexico","geoPoint":{"lat":25.67507,"lon":-100.31847}},{"facility":"Local Institution - Unk026","status":"ACTIVE_NOT_RECRUITING","city":"Monterrey","zip":"64710","country":"Mexico","geoPoint":{"lat":25.67507,"lon":-100.31847}},{"facility":"Het Nederlands Kanker Instituut","status":"RECRUITING","city":"Amsterdam","zip":"1066 CX","country":"Netherlands","contacts":[{"name":"willemijn Theelen, Site 007-302","role":"CONTACT","phone":"06-xxxxxxxx"}],"geoPoint":{"lat":52.37403,"lon":4.88969}},{"facility":"Local Institution - 007-308","status":"NOT_YET_RECRUITING","city":"Den Haag","zip":"2545 AA","country":"Netherlands","contacts":[{"name":"Site 007-308","role":"CONTACT"}],"geoPoint":{"lat":52.07667,"lon":4.29861}},{"facility":"Local Institution - 007-633","status":"NOT_YET_RECRUITING","city":"Dordrecht","zip":"3318 AT","country":"Netherlands","contacts":[{"name":"Site 007-633","role":"CONTACT"}],"geoPoint":{"lat":51.81,"lon":4.67361}},{"facility":"Local Institution - 007-303","status":"ACTIVE_NOT_RECRUITING","city":"Harderwijk","zip":"3844","country":"Netherlands","geoPoint":{"lat":52.34167,"lon":5.62083}},{"facility":"Radboud Universitair Medisch Centrum","status":"RECRUITING","city":"Nijmegen","zip":"6525 GA","country":"Netherlands","contacts":[{"name":"Michel Van Den Heuvel, Site 007-630","role":"CONTACT","phone":"+31631015152"}],"geoPoint":{"lat":51.8425,"lon":5.85278}},{"facility":"Erasmus Medisch Centrum","status":"RECRUITING","city":"Rotterdam","zip":"3015 GD","country":"Netherlands","contacts":[{"name":"Anne-Marie Dingemans, Site 007-304","role":"CONTACT","phone":"31433871318"}],"geoPoint":{"lat":51.9225,"lon":4.47917}},{"facility":"Franciscus Gasthuis & Vlietland - Gasthuis","status":"RECRUITING","city":"Rotterdam","zip":"3045 PM","country":"Netherlands","contacts":[{"name":"Wessel Hanselaar, Site 007-634","role":"CONTACT","phone":"+31104616161"}],"geoPoint":{"lat":51.9225,"lon":4.47917}},{"facility":"Universitair Medisch Centrum Utrecht","status":"RECRUITING","city":"Utrecht","zip":"3584 CX","country":"Netherlands","contacts":[{"name":"Anne Van Lindert, Site 007-631","role":"CONTACT","phone":"31887555555"}],"geoPoint":{"lat":52.09083,"lon":5.12222}},{"facility":"Local Institution - 007-305","status":"WITHDRAWN","city":"Zwolle","zip":"8025 AB","country":"Netherlands","geoPoint":{"lat":52.5125,"lon":6.09444}},{"facility":"Local Institution - Anderson, M.","status":"NOT_YET_RECRUITING","city":"Palmerston North","zip":"4414","country":"New Zealand","contacts":[{"name":"Site Anderson, M.","role":"CONTACT"}],"geoPoint":{"lat":-40.35636,"lon":175.61113}},{"facility":"Local Institution - 007-310","status":"NOT_YET_RECRUITING","city":"Drammen","zip":"3004","country":"Norway","contacts":[{"name":"Site 007-310","role":"CONTACT"}],"geoPoint":{"lat":59.74389,"lon":10.20449}},{"facility":"Local Institution - Unk080","status":"ACTIVE_NOT_RECRUITING","city":"Trujillo","state":"La Libertad","zip":"13011","country":"Peru","geoPoint":{"lat":-8.11599,"lon":-79.02998}},{"facility":"Local Institution - Unk031","status":"ACTIVE_NOT_RECRUITING","city":"Cercado De Lima","state":"Lima","zip":"15036","country":"Peru"},{"facility":"Local Institution - Unk022","status":"ACTIVE_NOT_RECRUITING","city":"Jesus Maria","state":"Lima","zip":"15072","country":"Peru","geoPoint":{"lat":-13.55,"lon":-72.66667}},{"facility":"Local Institution - Unk024","status":"ACTIVE_NOT_RECRUITING","city":"Miraflores","state":"Lima","zip":"15046","country":"Peru"},{"facility":"Local Institution - Unk042","status":"ACTIVE_NOT_RECRUITING","city":"San Isidro","state":"Lima","zip":"0","country":"Peru","geoPoint":{"lat":-12.11667,"lon":-77.05}},{"facility":"Local Institution - Unk071","status":"ACTIVE_NOT_RECRUITING","city":"San Isidro","state":"Lima","zip":"27","country":"Peru","geoPoint":{"lat":-12.11667,"lon":-77.05}},{"facility":"Local Institution - Unk054","status":"ACTIVE_NOT_RECRUITING","city":"Surquillo","state":"Lima","zip":"15038","country":"Peru","geoPoint":{"lat":-5.80111,"lon":-77.26889}},{"facility":"Local Institution - Unk051","status":"ACTIVE_NOT_RECRUITING","city":"Arequipa","zip":"04001","country":"Peru","geoPoint":{"lat":-16.39889,"lon":-71.535}},{"facility":"Local Institution - Unk023","status":"ACTIVE_NOT_RECRUITING","city":"Arequipa","zip":"09630","country":"Peru","geoPoint":{"lat":-16.39889,"lon":-71.535}},{"facility":"Local Institution - Unk044","status":"ACTIVE_NOT_RECRUITING","city":"Arequipa","zip":"0","country":"Peru","geoPoint":{"lat":-16.39889,"lon":-71.535}},{"facility":"Local Institution - Unk040","status":"ACTIVE_NOT_RECRUITING","city":"Cusco","zip":"0","country":"Peru","geoPoint":{"lat":-13.52264,"lon":-71.96734}},{"facility":"Local Institution - Unk046","status":"ACTIVE_NOT_RECRUITING","city":"Lima","zip":"15023","country":"Peru","geoPoint":{"lat":-12.04318,"lon":-77.02824}},{"facility":"Local Institution - 007-1541","status":"WITHDRAWN","city":"Bacolod City","zip":"6100","country":"Philippines","geoPoint":{"lat":10.66667,"lon":122.95}},{"facility":"Local Institution - 007-1545","status":"WITHDRAWN","city":"Cebu City","zip":"6000","country":"Philippines","geoPoint":{"lat":10.31672,"lon":123.89071}},{"facility":"Local Institution - 007-1544","status":"WITHDRAWN","city":"Iloilo City","zip":"5000","country":"Philippines","geoPoint":{"lat":10.69694,"lon":122.56444}},{"facility":"Local Institution - 007-1543","status":"WITHDRAWN","city":"Makati City","zip":"1229","country":"Philippines","geoPoint":{"lat":14.55027,"lon":121.03269}},{"facility":"Local Institution - 007-1542","status":"WITHDRAWN","city":"Molo","zip":"5000","country":"Philippines","geoPoint":{"lat":10.695,"lon":122.54583}},{"facility":"Local Institution - 007-1540","status":"WITHDRAWN","city":"Quezon City","zip":"1112","country":"Philippines","geoPoint":{"lat":14.6488,"lon":121.0509}},{"facility":"Uniwersyteckie Centrum Kliniczne w Gdansku","status":"RECRUITING","city":"Gdansk","zip":"80-214","country":"Poland","contacts":[{"name":"Rafal Dziadziuszko, Site 007-756","role":"CONTACT","phone":"48585844571"}],"geoPoint":{"lat":54.35205,"lon":18.64637}},{"facility":"Swietokrzyskie Centrum Onkologii Samodzielny Publiczny Zaklad Opieki Zdrowotnej","status":"RECRUITING","city":"Kielce","zip":"25-734","country":"Poland","contacts":[{"name":"Malgorzata Majecka, Site 007-317","role":"CONTACT","phone":"48413674315"}],"geoPoint":{"lat":50.87033,"lon":20.62752}},{"facility":"Pratia MCM Krakow","status":"RECRUITING","city":"Krakow","zip":"30-727","country":"Poland","contacts":[{"name":"Anna Drosik-Kwasniewska, Site 007-323","role":"CONTACT","phone":"+48122954100"}],"geoPoint":{"lat":50.06143,"lon":19.93658}},{"facility":"MS Pneumed - Janusz Milanowski, Katarzyna Szmygin-Milanowska Spolka Jawna","status":"RECRUITING","city":"Lublin","zip":"20-064","country":"Poland","contacts":[{"name":"Izabela Chmielewska, Site 007-752","role":"CONTACT","phone":"+504051512"}],"geoPoint":{"lat":51.25,"lon":22.56667}},{"facility":"Warminsko-mazurskie Centrum Chorob Pluc w Olsztynie","status":"RECRUITING","city":"Olsztyn","zip":"10-357","country":"Poland","contacts":[{"name":"Jaroslaw Kolb-Sielecki, Site 007-059","role":"CONTACT","phone":"48895322978"}],"geoPoint":{"lat":53.77995,"lon":20.49416}},{"facility":"Mazowieckie Centrum Leczenia Chorob Pluc I Gruzlicy","status":"RECRUITING","city":"Otwock","zip":"05-400","country":"Poland","contacts":[{"name":"Aleksandra Szczesna, Site 007-325","role":"CONTACT","phone":"4823446300"}],"geoPoint":{"lat":52.10577,"lon":21.26129}},{"facility":"Wielkopolskie Centrum Pulmonologii i Torakochirurgii im. Eugenii i Janusza Zeylandow","status":"RECRUITING","city":"Poznan","zip":"60-569","country":"Poland","contacts":[{"name":"Katarzyna Stencel, Site 007-389","role":"CONTACT","phone":"+48616643300"}],"geoPoint":{"lat":52.40692,"lon":16.92993}},{"facility":"Pratia Poznan","status":"RECRUITING","city":"Skorzewo","zip":"60-185","country":"Poland","contacts":[{"name":"Marcin Grabicki, Site 007-751","role":"CONTACT","phone":"48506969916"}]},{"facility":"Wojewodzki Szpital Zespolony im. L. Rydygiera w Toruniu","status":"RECRUITING","city":"Torun","zip":"87-100","country":"Poland","contacts":[{"name":"Piotr Sawrycki, Site 007-329","role":"CONTACT","phone":"48566101387"}],"geoPoint":{"lat":53.01375,"lon":18.59814}},{"facility":"Local Institution - 007-056","status":"NOT_YET_RECRUITING","city":"Warszawa","zip":"01-138","country":"Poland","contacts":[{"name":"Site 007-056","role":"CONTACT"}],"geoPoint":{"lat":52.22977,"lon":21.01178}},{"facility":"Local Institution - 007-322","status":"WITHDRAWN","city":"Warszawa","zip":"02-781","country":"Poland","geoPoint":{"lat":52.22977,"lon":21.01178}},{"facility":"Unidade Local de Saude de Coimbra","status":"RECRUITING","city":"Coimbra","zip":"3000-075","country":"Portugal","contacts":[{"name":"Ana Figueiredo, Site 007-330","role":"CONTACT","phone":"351966764837"}],"geoPoint":{"lat":40.20564,"lon":-8.41955}},{"facility":"Unidade Local de Saude do Alto Ave, E. P. E (Hospital da Senhora da Oliveira Guimaraes)","status":"RECRUITING","city":"Guimaraes","zip":"4835-044","country":"Portugal","contacts":[{"name":"Pedro Brito, Site 007-333","role":"CONTACT"}],"geoPoint":{"lat":41.44443,"lon":-8.29619}},{"facility":"Local Institution - 007-338-A","status":"NOT_YET_RECRUITING","city":"Lisboa","zip":"1350-352","country":"Portugal","contacts":[{"name":"Site 007-338-A","role":"CONTACT"}],"geoPoint":{"lat":38.71667,"lon":-9.13333}},{"facility":"Local Institution - 007-642","status":"NOT_YET_RECRUITING","city":"Lisbon","zip":"1099-023","country":"Portugal","contacts":[{"name":"Site 007-642","role":"CONTACT"}],"geoPoint":{"lat":38.71667,"lon":-9.13333}},{"facility":"Hospital CUF Descobertas","status":"RECRUITING","city":"Lisbon","zip":"1998-018","country":"Portugal","contacts":[{"name":"Maria Encarnacao Macedo Teixeira, Site 007-338","role":"CONTACT","phone":"+351217508032"}],"geoPoint":{"lat":38.71667,"lon":-9.13333}},{"facility":"Hospital CUF Porto","status":"RECRUITING","city":"Porto","zip":"14341","country":"Portugal","contacts":[{"name":"Barbara Parente, Site 007-334","role":"CONTACT","phone":"351220039000"}],"geoPoint":{"lat":41.14961,"lon":-8.61099}},{"facility":"Unidade Local de Saude de Santo Antonio, E. P. E - Hospital Geral de Santo Antonio","status":"RECRUITING","city":"Porto","zip":"4099-001","country":"Portugal","contacts":[{"name":"Antonio Araujo, Site 007-331","role":"CONTACT","phone":"351222077500x1729"}],"geoPoint":{"lat":41.14961,"lon":-8.61099}},{"facility":"Local Institution - 007-339","status":"WITHDRAWN","city":"Porto","zip":"4200-072","country":"Portugal","geoPoint":{"lat":41.14961,"lon":-8.61099}},{"facility":"Local Institution - 007-335","status":"WITHDRAWN","city":"Vila Nova de Gaia","zip":"4434-502","country":"Portugal","geoPoint":{"lat":41.13363,"lon":-8.61742}},{"facility":"Local Institution - 007-340","status":"NOT_YET_RECRUITING","city":"Cluj-Napoca","zip":"400641","country":"Romania","contacts":[{"name":"Site 007-340","role":"CONTACT"}],"geoPoint":{"lat":46.76667,"lon":23.6}},{"facility":"Local Institution - 007-518","status":"NOT_YET_RECRUITING","city":"Floreti","zip":"407280","country":"Romania","contacts":[{"name":"Site 007-518","role":"CONTACT"}]},{"facility":"Local Institution - 007-515","status":"NOT_YET_RECRUITING","city":"Timioara","zip":"300166","country":"Romania","contacts":[{"name":"Site 007-515","role":"CONTACT"}]},{"facility":"Local Institution - 007-693","status":"NOT_YET_RECRUITING","city":"Belgrade","zip":"11129","country":"Serbia","contacts":[{"name":"Site 007-693","role":"CONTACT"}],"geoPoint":{"lat":44.80401,"lon":20.46513}},{"facility":"Local Institution - 007-694","status":"NOT_YET_RECRUITING","city":"Kragujevac","zip":"34000","country":"Serbia","contacts":[{"name":"Site 007-694","role":"CONTACT"}],"geoPoint":{"lat":44.01667,"lon":20.91667}},{"facility":"Local Institution - 007-691","status":"NOT_YET_RECRUITING","city":"Sremska Kamenica","zip":"21204","country":"Serbia","contacts":[{"name":"Site 007-691","role":"CONTACT"}],"geoPoint":{"lat":45.22158,"lon":19.84367}},{"facility":"Uzice General Hospital","status":"RECRUITING","city":"Uzice","zip":"31000","country":"Serbia","contacts":[{"name":"Zorica Radojevic, Site 007-3515","role":"CONTACT","phone":"+381693521711"}],"geoPoint":{"lat":43.85861,"lon":19.84878}},{"facility":"Local Institution - 007-095","status":"NOT_YET_RECRUITING","city":"Singapore","zip":"188770","country":"Singapore","contacts":[{"name":"Site 007-095","role":"CONTACT"}],"geoPoint":{"lat":1.28967,"lon":103.85007}},{"facility":"Local Institution - 007-4010","status":"WITHDRAWN","city":"Port Elizabeth","state":"Eastern Cape","zip":"6045","country":"South Africa","geoPoint":{"lat":-33.91799,"lon":25.57007}},{"facility":"Local Institution - 007-4013","status":"WITHDRAWN","city":"Johannesburg","state":"Gauteng","zip":"2193","country":"South Africa","geoPoint":{"lat":-26.20227,"lon":28.04363}},{"facility":"Local Institution - 007-4012","status":"WITHDRAWN","city":"Pretoria","state":"Gauteng","zip":"0084","country":"South Africa","geoPoint":{"lat":-25.74486,"lon":28.18783}},{"facility":"Local Institution - 007-611 A","status":"NOT_YET_RECRUITING","city":"Pamplona","state":"Navarre","zip":"31008","country":"Spain","contacts":[{"name":"Site 007-611 A","role":"CONTACT"}],"geoPoint":{"lat":42.81687,"lon":-1.64323}},{"facility":"Complejo Hospitalario Universitario A Coruna","status":"RECRUITING","city":"A Coruna","zip":"15006","country":"Spain","contacts":[{"name":"Maria Rosario Garcia Campelo, Site 007-613","role":"CONTACT","phone":"34981178353x292856"}],"geoPoint":{"lat":43.37135,"lon":-8.396}},{"facility":"Institut Catala dOncologia Badalona","status":"RECRUITING","city":"Badalona","zip":"08916","country":"Spain","contacts":[{"name":"Enric Carcereny Costa, Site 007-610","role":"CONTACT","phone":"34661328161"}],"geoPoint":{"lat":41.45004,"lon":2.24741}},{"facility":"Hospital de la Santa Creu i Sant Pau","status":"RECRUITING","city":"Barcelona","zip":"08025","country":"Spain","contacts":[{"name":"Margarita Majem Tarruella, Site 007-627","role":"CONTACT","phone":"34935565651"}],"geoPoint":{"lat":41.38879,"lon":2.15899}},{"facility":"Hospital Universitari Dexeus","status":"RECRUITING","city":"Barcelona","zip":"08028","country":"Spain","contacts":[{"name":"ANDRES AGUILAR, Site 007-614","role":"CONTACT","phone":"34935460135"}],"geoPoint":{"lat":41.38879,"lon":2.15899}},{"facility":"Hospital Universitari Vall dHebron","status":"RECRUITING","city":"Barcelona","zip":"08035","country":"Spain","contacts":[{"name":"Enriqueta Felip Font, Site 007-612","role":"CONTACT","phone":"34932746077"}],"geoPoint":{"lat":41.38879,"lon":2.15899}},{"facility":"Hospital Clinic de Barcelona","status":"RECRUITING","city":"Barcelona","zip":"08036","country":"Spain","contacts":[{"name":"Alejandro Navarro Mendivil, Site 007-600","role":"CONTACT","phone":"34934894158"}],"geoPoint":{"lat":41.38879,"lon":2.15899}},{"facility":"Local Institution - Unk081","status":"ACTIVE_NOT_RECRUITING","city":"Bilbao","zip":"48013","country":"Spain","geoPoint":{"lat":43.26271,"lon":-2.92528}},{"facility":"Local Institution - Unk063","status":"ACTIVE_NOT_RECRUITING","city":"Burgos","zip":"09006","country":"Spain","geoPoint":{"lat":42.34106,"lon":-3.70184}},{"facility":"Local Institution - Unk014","status":"ACTIVE_NOT_RECRUITING","city":"Jerez de la Frontera","zip":"11407","country":"Spain","geoPoint":{"lat":36.68645,"lon":-6.13606}},{"facility":"Local Institution - 007-628","status":"NOT_YET_RECRUITING","city":"Las Palmas de Gran Canaria","zip":"35016","country":"Spain","contacts":[{"name":"Site 007-628","role":"CONTACT"}],"geoPoint":{"lat":28.09973,"lon":-15.41343}},{"facility":"Local Institution - Unk012","status":"ACTIVE_NOT_RECRUITING","city":"Leon","zip":"24008","country":"Spain","geoPoint":{"lat":42.60003,"lon":-5.57032}},{"facility":"Institut Catala dOncologia - Hospital Duran i Reynals (ICO LHospitalet)","status":"RECRUITING","city":"LHospitalet de Llobregat","zip":"08908","country":"Spain","contacts":[{"name":"Ernesto Nadal Alforja, Site 007-620","role":"CONTACT","phone":"3493260773"}],"geoPoint":{"lat":41.35967,"lon":2.10028}},{"facility":"Clinica Universidad de Navarra - Madrid","status":"RECRUITING","city":"Madrid","zip":"28027","country":"Spain","contacts":[{"name":"Gonzalo Fernandez Hinojal, Site 007-611","role":"CONTACT","phone":"+349133030007332"}],"geoPoint":{"lat":40.4165,"lon":-3.70256}},{"facility":"Hospital Universitario Ramon y Cajal","status":"RECRUITING","city":"Madrid","zip":"28034","country":"Spain","contacts":[{"name":"Maria Pilar Garrido Lopez, Site 007-606","role":"CONTACT","phone":"+34913368000+3491336"}],"geoPoint":{"lat":40.4165,"lon":-3.70256}},{"facility":"Hospital Clinico San Carlos","status":"RECRUITING","city":"Madrid","zip":"28040","country":"Spain","contacts":[{"name":"Carlos Aguado de la Rosa, Site 007-601","role":"CONTACT","phone":"34913303000"}],"geoPoint":{"lat":40.4165,"lon":-3.70256}},{"facility":"Hospital Universitario Fundacion Jimenez Diaz","status":"RECRUITING","city":"Madrid","zip":"28040","country":"Spain","contacts":[{"name":"Manuel Domine Gomez, Site 007-609","role":"CONTACT","phone":"+34915494908ext2539"}],"geoPoint":{"lat":40.4165,"lon":-3.70256}},{"facility":"Hospital Universitario 12 de Octubre","status":"RECRUITING","city":"Madrid","zip":"28041","country":"Spain","contacts":[{"name":"Luis Paz-Ares Rodriguez, Site 007-617","role":"CONTACT","phone":"3491434914692313"}],"geoPoint":{"lat":40.4165,"lon":-3.70256}},{"facility":"Hospital Regional Universitario de Malaga - Hospital Civil","status":"RECRUITING","city":"Malaga","zip":"29009","country":"Spain","contacts":[{"name":"Vanesa Gutierrez Calderon, Site 007-608","role":"CONTACT","phone":"34951290000"}],"geoPoint":{"lat":36.72016,"lon":-4.42034}},{"facility":"Local Institution - 007-604","status":"WITHDRAWN","city":"Santander","zip":"39008","country":"Spain","geoPoint":{"lat":43.46472,"lon":-3.80444}},{"facility":"Hospital Clinico Universitario de Santiago","status":"RECRUITING","city":"Santiago de Compostela","zip":"15706","country":"Spain","contacts":[{"name":"Jorge Garcia Gonzalez, Site 007-754","role":"CONTACT","phone":"34981950511"}],"geoPoint":{"lat":42.88052,"lon":-8.54569}},{"facility":"Hospital Universitario Virgen del Rocio","status":"RECRUITING","city":"Sevilla","zip":"41013","country":"Spain","contacts":[{"name":"Maria De Los Reyes Bernabe Caro, Site 007-629","role":"CONTACT","phone":"34955019273"}],"geoPoint":{"lat":37.38283,"lon":-5.97317}},{"facility":"Hospital Clinico Universitario de Valencia","status":"RECRUITING","city":"Valencia","zip":"46010","country":"Spain","contacts":[{"name":"Maria Amelia Insa Molla, Site 007-618","role":"CONTACT","phone":"34963862625"}],"geoPoint":{"lat":39.46975,"lon":-0.37739}},{"facility":"Hospital Universitari i Politecnic La Fe","status":"RECRUITING","city":"Valencia","zip":"46026","country":"Spain","contacts":[{"name":"Oscar Jose Juan Vidal, Site 007-605","role":"CONTACT","phone":"+34663976139"}],"geoPoint":{"lat":39.46975,"lon":-0.37739}},{"facility":"Local Institution - Unk013","status":"ACTIVE_NOT_RECRUITING","city":"Gavle","zip":"801 88","country":"Sweden","geoPoint":{"lat":60.67452,"lon":17.14174}},{"facility":"Local Institution - 007-397","status":"WITHDRAWN","city":"Sankt Gallen","zip":"9007","country":"Switzerland","geoPoint":{"lat":47.42391,"lon":9.37477}},{"facility":"Local Institution - 007-396","status":"WITHDRAWN","city":"Villars-sur-Glane","zip":"1752","country":"Switzerland","geoPoint":{"lat":46.79054,"lon":7.11717}},{"facility":"Local Institution - 007-128","status":"NOT_YET_RECRUITING","city":"Taichung City","zip":"404","country":"Taiwan","contacts":[{"name":"Site 007-128","role":"CONTACT"}],"geoPoint":{"lat":24.1469,"lon":120.6839}},{"facility":"Local Institution - 007-127","status":"WITHDRAWN","city":"Taichung","zip":"402","country":"Taiwan","geoPoint":{"lat":24.1469,"lon":120.6839}},{"facility":"Taichung Veterans General Hospital","status":"RECRUITING","city":"Taichung","zip":"40705","country":"Taiwan","contacts":[{"name":"Tsung-Ying Yang, Site 007-124","role":"CONTACT","phone":"8864235925253218"}],"geoPoint":{"lat":24.1469,"lon":120.6839}},{"facility":"Chi Mei Hospital - Liouying","status":"RECRUITING","city":"Tainan City","zip":"73657","country":"Taiwan","contacts":[{"name":"Cheng-Yao Lin, Site 007-123","role":"CONTACT","phone":"8866622699973132"}],"geoPoint":{"lat":22.99083,"lon":120.21333}},{"facility":"Local Institution - 007-122","status":"NOT_YET_RECRUITING","city":"Tainan","zip":"704","country":"Taiwan","contacts":[{"name":"Site 007-122","role":"CONTACT"}],"geoPoint":{"lat":22.99083,"lon":120.21333}},{"facility":"National Taiwan University Hospital","status":"RECRUITING","city":"Taipei City","zip":"10002","country":"Taiwan","contacts":[{"name":"Chih-Hsin (James) Yang, Site 007-120","role":"CONTACT","phone":"+886223123456+886975"}],"geoPoint":{"lat":25.04776,"lon":121.53185}},{"facility":"Taipei Veterans General Hospital","status":"RECRUITING","city":"Taipei City","zip":"11217","country":"Taiwan","contacts":[{"name":"Yuh-Min Chen, Site 007-126","role":"CONTACT","phone":"8862287112121x7865"}],"geoPoint":{"lat":25.04776,"lon":121.53185}},{"facility":"Local Institution - 007-129","status":"NOT_YET_RECRUITING","city":"Taipei City","zip":"23561","country":"Taiwan","contacts":[{"name":"Site 007-129","role":"CONTACT"}],"geoPoint":{"lat":25.04776,"lon":121.53185}},{"facility":"Chang Gung Memorial Hospital - Linkou Branch","status":"RECRUITING","city":"Taoyuan","zip":"333","country":"Taiwan","contacts":[{"name":"John Wen-Cheng Chang, Site 007-125","role":"CONTACT","phone":"+88633281200"}],"geoPoint":{"lat":24.95233,"lon":121.20193}},{"facility":"Local Institution - 007-139","status":"NOT_YET_RECRUITING","city":"Bangkok","zip":"10210","country":"Thailand","contacts":[{"name":"Site 007-139","role":"CONTACT"}],"geoPoint":{"lat":13.75398,"lon":100.50144}},{"facility":"Local Institution - Runglodvatana, Y.","status":"NOT_YET_RECRUITING","city":"Krung Thep Maha Nakhon","zip":"10300","country":"Thailand","contacts":[{"name":"Site Runglodvatana, Y.","role":"CONTACT"}]},{"facility":"Local Institution - 007-061","status":"NOT_YET_RECRUITING","city":"Alanya","zip":"07400","country":"Turkey","contacts":[{"name":"Site 007-061","role":"CONTACT"}],"geoPoint":{"lat":36.54375,"lon":31.99982}},{"facility":"Local Institution - 007-096","status":"NOT_YET_RECRUITING","city":"Altindag","zip":"06100","country":"Turkey","contacts":[{"name":"Site 007-096","role":"CONTACT"}]},{"facility":"Hacettepe Universitesi Kanser Enstitusu","status":"RECRUITING","city":"Ankara","zip":"06100","country":"Turkey","contacts":[{"name":"Mustafa Erman, Site 007-066","role":"CONTACT","phone":"+905334318506"}],"geoPoint":{"lat":39.91987,"lon":32.85427}},{"facility":"Local Institution - 007-3810","status":"ACTIVE_NOT_RECRUITING","city":"Antalya","zip":"07070","country":"Turkey","geoPoint":{"lat":36.90812,"lon":30.69556}},{"facility":"Memorial Bahcelievler Hospital","status":"RECRUITING","city":"Bahcelievler","zip":"34180","country":"Turkey","contacts":[{"name":"Hakan Harputluoglu, Site 007-098","role":"CONTACT","phone":"904223410660"}],"geoPoint":{"lat":41.00231,"lon":28.8598}},{"facility":"Local Institution - 007-060","status":"NOT_YET_RECRUITING","city":"Bornova","zip":"35100","country":"Turkey","contacts":[{"name":"Site 007-060","role":"CONTACT"}],"geoPoint":{"lat":38.47921,"lon":27.2399}},{"facility":"Local Institution - 007-055","status":"NOT_YET_RECRUITING","city":"Cankaya","zip":"06800","country":"Turkey","contacts":[{"name":"Site 007-055","role":"CONTACT"}],"geoPoint":{"lat":39.9179,"lon":32.86268}},{"facility":"Trakya Universitesi Tip Fakultesi","status":"RECRUITING","city":"Edirne","zip":"22130","country":"Turkey","contacts":[{"name":"Bulent Erdogan, Site 007-054","role":"CONTACT","phone":"905052137335"}],"geoPoint":{"lat":41.67719,"lon":26.55597}},{"facility":"Local Institution - 007-069","status":"NOT_YET_RECRUITING","city":"Istanbul","zip":"34214","country":"Turkey","contacts":[{"name":"Site 007-069","role":"CONTACT"}],"geoPoint":{"lat":41.01384,"lon":28.94966}},{"facility":"Local Institution - 007-3813","status":"NOT_YET_RECRUITING","city":"Istanbul","zip":"34846","country":"Turkey","contacts":[{"name":"Site 007-3813","role":"CONTACT"}],"geoPoint":{"lat":41.01384,"lon":28.94966}},{"facility":"Izmir Ekonomi Universitesi Medical Point Hastanesi","status":"RECRUITING","city":"Izmir","zip":"35575","country":"Turkey","contacts":[{"name":"Cagatay Arslan, Site 007-099","role":"CONTACT","phone":"+905052642353"}],"geoPoint":{"lat":38.41273,"lon":27.13838}},{"facility":"Local Institution - 007-3811","status":"NOT_YET_RECRUITING","city":"Kocaeli","zip":"41380","country":"Turkey","contacts":[{"name":"Site 007-3811","role":"CONTACT"}],"geoPoint":{"lat":39.62497,"lon":27.51145}},{"facility":"Inonu Universitesi Turgut Ozal Tip Merkezi","status":"RECRUITING","city":"Malatya","zip":"44000","country":"Turkey","contacts":[{"name":"Mustafa Dikilitas, Site 007-097","role":"CONTACT","phone":"905335720175"}],"geoPoint":{"lat":38.35018,"lon":38.31667}},{"facility":"Ankara Universitesi Tip Fakultesi - Cebeci Arastirma ve Uygulama Hastanesi","status":"RECRUITING","city":"Mamak","zip":"06620","country":"Turkey","contacts":[{"name":"Yuksel Urun, Site 007-068","role":"CONTACT","phone":"0905337483275"}]},{"facility":"Local Institution - 007-062","status":"NOT_YET_RECRUITING","city":"Sisli","zip":"34367","country":"Turkey","contacts":[{"name":"Site 007-062","role":"CONTACT"}],"geoPoint":{"lat":41.06046,"lon":28.98717}},{"facility":"University Hospitals Birmingham NHS Foundation Trust","status":"RECRUITING","city":"Birmingham","zip":"B9 5SS","country":"United Kingdom","contacts":[{"name":"Shobhit Baijal, Site 007-410","role":"CONTACT","phone":"+(44)01214247456"}],"geoPoint":{"lat":52.48142,"lon":-1.89983}},{"facility":"Local Institution - 007-415","status":"WITHDRAWN","city":"Edinburgh","zip":"EH4 2XU","country":"United Kingdom","geoPoint":{"lat":55.95206,"lon":-3.19648}},{"facility":"Local Institution - 007-403","status":"NOT_YET_RECRUITING","city":"Kent","zip":"ME16 9QQ","country":"United Kingdom","contacts":[{"name":"Site 007-403","role":"CONTACT"}]},{"facility":"University Hospitals of Leicester NHS Trust","status":"RECRUITING","city":"Leicester","zip":"LE1 5WW","country":"United Kingdom","contacts":[{"name":"Samreen Ahmed, Site 007-408","role":"CONTACT","phone":"+442380796164"}],"geoPoint":{"lat":52.6386,"lon":-1.13169}},{"facility":"University College London Hospitals NHS Foundation Trust","status":"RECRUITING","city":"London","zip":"NW1 2BU","country":"United Kingdom","contacts":[{"name":"Siow-Ming Lee, Site 007-402","role":"CONTACT","phone":"+442034479091"}],"geoPoint":{"lat":51.50853,"lon":-0.12574}},{"facility":"Guys and St Thomas NHS Foundation Trust","status":"RECRUITING","city":"London","zip":"SE1 9RT","country":"United Kingdom","contacts":[{"name":"Alexandros Georgiou, Site 007-409","role":"CONTACT","phone":"00442071882006"}],"geoPoint":{"lat":51.50853,"lon":-0.12574}},{"facility":"The Christie NHS Foundation Trust","status":"RECRUITING","city":"Manchester","zip":"M20 4BX","country":"United Kingdom","contacts":[{"name":"Colin Lindsay, Site 007-407","role":"CONTACT","phone":"+441614463745"}],"geoPoint":{"lat":53.48095,"lon":-2.23743}},{"facility":"Royal Surrey County Hospital NHS Foundation Trust","status":"RECRUITING","city":"Surrey","zip":"GU2 7XX","country":"United Kingdom","contacts":[{"name":"Ajay Mehta, Site 007-419","role":"CONTACT","phone":"441483571122"}]}]},"referencesModule":{"seeAlsoLinks":[{"label":"BMS Clinical Trial Information","url":"https://www.bms.com/researchers-and-partners/clinical-trials-and-research.html"},{"label":"BMS Clinical Trial Patient Recruiting","url":"https://www.bmsclinicaltrials.com/us/en/clinical-trials/NCT04613596.html"}]},"ipdSharingStatementModule":{"ipdSharing":"NO"}},"derivedSection":{"miscInfoModule":{"versionHolder":"2025-07-07"},"conditionBrowseModule":{"meshes":[{"id":"D008175","term":"Lung Neoplasms"},{"id":"D002289","term":"Carcinoma, Non-Small-Cell Lung"}],"ancestors":[{"id":"D012142","term":"Respiratory Tract Neoplasms"},{"id":"D013899","term":"Thoracic Neoplasms"},{"id":"D009371","term":"Neoplasms by Site"},{"id":"D009369","term":"Neoplasms"},{"id":"D008171","term":"Lung Diseases"},{"id":"D012140","term":"Respiratory Tract Diseases"},{"id":"D002283","term":"Carcinoma, Bronchogenic"},{"id":"D001984","term":"Bronchial Neoplasms"}],"browseLeaves":[{"id":"M11172","name":"Lung Neoplasms","asFound":"Lung Cancer","relevance":"HIGH"},{"id":"M5546","name":"Carcinoma, Non-Small-Cell Lung","asFound":"Non-small Cell Lung Cancer","relevance":"HIGH"},{"id":"M5534","name":"Carcinoma","relevance":"LOW"},{"id":"M14979","name":"Respiratory Tract Neoplasms","relevance":"LOW"},{"id":"M16658","name":"Thoracic Neoplasms","relevance":"LOW"},{"id":"M11168","name":"Lung Diseases","relevance":"LOW"},{"id":"M14977","name":"Respiratory Tract Diseases","relevance":"LOW"},{"id":"M5540","name":"Carcinoma, Bronchogenic","relevance":"LOW"},{"id":"M5260","name":"Bronchial Neoplasms","relevance":"LOW"}],"browseBranches":[{"abbrev":"BC04","name":"Neoplasms"},{"abbrev":"BC08","name":"Respiratory Tract (Lung and Bronchial) Diseases"},{"abbrev":"All","name":"All Conditions"}]},"interventionBrowseModule":{"meshes":[{"id":"C582435","term":"Pembrolizumab"},{"id":"C000718190","term":"Adagrasib"}],"ancestors":[{"id":"D000074322","term":"Antineoplastic Agents, Immunological"},{"id":"D000970","term":"Antineoplastic Agents"},{"id":"D000082082","term":"Immune Checkpoint Inhibitors"},{"id":"D045504","term":"Molecular Mechanisms of Pharmacological Action"}],"browseLeaves":[{"id":"M349416","name":"Pembrolizumab","asFound":"Type","relevance":"HIGH"},{"id":"M288000","name":"Adagrasib","asFound":"Empagliflozin 10 mg","relevance":"HIGH"},{"id":"M1346","name":"Antineoplastic Agents, Immunological","relevance":"LOW"},{"id":"M2342","name":"Immune Checkpoint Inhibitors","relevance":"LOW"}],"browseBranches":[{"abbrev":"ANeo","name":"Antineoplastic Agents"},{"abbrev":"All","name":"All Drugs and Chemicals"}]}},"hasResults":false}