{"protocolSection":{"identificationModule":{"nctId":"NCT06764875","orgStudyIdInfo":{"id":"D702AC00001"},"secondaryIdInfos":[{"id":"2024-512583-57-00","type":"OTHER","domain":"EU Clinical Trial Number"}],"organization":{"fullName":"AstraZeneca","class":"INDUSTRY"},"briefTitle":"A Phase Ⅲ Study of Rilvegostomig in Combination With Fluoropyrimidine and Trastuzumab Deruxtecan as the First-line Treatment for HER2-positive Gastric Cancer","officialTitle":"A Randomized, Phase Ⅲ Study of Rilvegostomig in Combination With Fluoropyrimidine and Trastuzumab Deruxtecan Versus Trastuzumab, Chemotherapy, and Pembrolizumab for the First Line Treatment of HER2-positive Gastric Cancer (ARTEMIDE-Gastric01)"},"statusModule":{"statusVerifiedDate":"2025-04","overallStatus":"RECRUITING","expandedAccessInfo":{"hasExpandedAccess":false},"startDateStruct":{"date":"2025-03-01","type":"ACTUAL"},"primaryCompletionDateStruct":{"date":"2029-04-02","type":"ESTIMATED"},"completionDateStruct":{"date":"2030-11-12","type":"ESTIMATED"},"studyFirstSubmitDate":"2024-12-12","studyFirstSubmitQcDate":"2025-01-07","studyFirstPostDateStruct":{"date":"2025-01-09","type":"ACTUAL"},"lastUpdateSubmitDate":"2025-04-25","lastUpdatePostDateStruct":{"date":"2025-04-27","type":"ACTUAL"}},"sponsorCollaboratorsModule":{"responsibleParty":{"type":"SPONSOR"},"leadSponsor":{"name":"AstraZeneca","class":"INDUSTRY"}},"oversightModule":{"oversightHasDmc":true,"isFdaRegulatedDrug":true,"isFdaRegulatedDevice":false},"descriptionModule":{"briefSummary":"This is a Phase Ⅲ, randomized, open-label, Sponsor-blinded, 3-arm, global, multicenter study assessing the efficacy and safety of rilvegostomig in combination with fluoropyrimidine and T-DXd (Arm A) compared to trastuzumab, chemotherapy, and pembrolizumab (Arm B) in HER2-positive locally advanced or metastatic gastric or GEJ adenocarcinoma participants whose tumors express PD L1 CPS ≥ 1. Rilvegostomig in combination with trastuzumab and chemotherapy will be evaluated in a separate arm (Arm C) to assess the contribution of each component in the experimental arm.","detailedDescription":"The purpose of this study is to assess the efficacy and safety of rilvegostomig in combination with fluoropyrimidine and T-DXd (Arm A) compared to trastuzumab, chemotherapy, and pembrolizumab (Arm B) in HER2-positive locally advanced or metastatic gastric or GEJ adenocarcinoma participants whose tumors express PD L1 CPS ≥ 1. Rilvegostomig in combination with trastuzumab and chemotherapy will be evaluated in a separate arm (Arm C) to assess the contribution of each component in the experimental arm.\n\nThis study will be conducted at up to 200-250 sites globally in approximately 25 countries."},"conditionsModule":{"conditions":["HER2-positive Gastric Cancer","Gastroesophageal Junction Adenocarcinoma"]},"designModule":{"studyType":"INTERVENTIONAL","phases":["PHASE3"],"designInfo":{"allocation":"RANDOMIZED","interventionModel":"PARALLEL","primaryPurpose":"TREATMENT","maskingInfo":{"masking":"SINGLE","maskingDescription":"The study will be conducted \"Sponsor-blinded\", such that intervention arm allocation is not known to Sponsor personnel.","whoMasked":["OUTCOMES_ASSESSOR"]}},"enrollmentInfo":{"count":840,"type":"ESTIMATED"}},"armsInterventionsModule":{"armGroups":[{"label":"Arm A","type":"EXPERIMENTAL","description":"T-DXd + Rilvegostomig + Fluoropyrimidine (Capecitabine OR 5-FU)","interventionNames":["Drug: Rilvegostomig","Drug: Trastuzumab deruxtecan","Drug: 5-fluorouracil","Drug: Capecitabine"]},{"label":"Arm B","type":"ACTIVE_COMPARATOR","description":"Pembrolizumab + Trastuzumab + FP (5-FU plus cisplatin) or CAPOX (capecitabine plus oxaliplatin)","interventionNames":["Drug: Trastuzumab","Drug: Pembrolizumab","Drug: 5-fluorouracil","Drug: Capecitabine","Drug: Cisplatin","Drug: Oxaliplatin"]},{"label":"Arm C","type":"ACTIVE_COMPARATOR","description":"Rilvegostomig + Trastuzumab + FP (5-FU plus cisplatin) or CAPOX (capecitabine plus oxaliplatin)","interventionNames":["Drug: Rilvegostomig","Drug: Trastuzumab","Drug: 5-fluorouracil","Drug: Capecitabine","Drug: Cisplatin","Drug: Oxaliplatin"]}],"interventions":[{"type":"DRUG","name":"Rilvegostomig","description":"Q3W, intravenous infusion","armGroupLabels":["Arm A","Arm C"],"otherNames":["AZD2936"]},{"type":"DRUG","name":"Trastuzumab deruxtecan","description":"Q3W, intravenous infusion","armGroupLabels":["Arm A"],"otherNames":["T-DXd, DS-8201"]},{"type":"DRUG","name":"Trastuzumab","description":"Q3W, intravenous infusion","armGroupLabels":["Arm B","Arm C"]},{"type":"DRUG","name":"Pembrolizumab","description":"Q3W, intravenous infusion","armGroupLabels":["Arm B"]},{"type":"DRUG","name":"5-fluorouracil","description":"Q3W, intravenous infusion","armGroupLabels":["Arm A","Arm B","Arm C"],"otherNames":["5-FU"]},{"type":"DRUG","name":"Capecitabine","description":"BID, oral administration","armGroupLabels":["Arm A","Arm B","Arm C"]},{"type":"DRUG","name":"Cisplatin","description":"Q3W, intravenous infusion","armGroupLabels":["Arm B","Arm C"]},{"type":"DRUG","name":"Oxaliplatin","description":"Q3W, intravenous infusion","armGroupLabels":["Arm B","Arm C"]}]},"outcomesModule":{"primaryOutcomes":[{"measure":"Progression free survival (PFS)","description":"PFS is defined as time from randomization until progression per RECIST v1.1, or death due to any cause.","timeFrame":"Up to approximately 6 years"},{"measure":"Overall Survival (OS)","description":"OS is defined as time from randomization until the date of death due to any cause.","timeFrame":"Up to approximately 6 years"}],"secondaryOutcomes":[{"measure":"Objective Response Rate (ORR)","description":"ORR according to RECIST v1.1. ORR is defined as the proportion of participants who have a complete response (CR) or partial response (PR).","timeFrame":"Up to approximately 6 years"},{"measure":"Duration of Response (DoR)","description":"DoR according to RECIST v1.1. DoR will be defined as the time from the date of first documented response until date of documented progression per RECIST v1.1 or death due to any cause.","timeFrame":"Up to approximately 6 years"},{"measure":"Proportion of all randomized participants alive and progression-free at 6 months (PFS6)","description":"Proportion of all randomized participants alive and progression-free at 6 months calculated for progression.","timeFrame":"Up to 6 months"},{"measure":"Proportion of all randomized participants alive and progression-free at 12 months (PFS12)","description":"Proportion of all randomized participants alive and progression-free at 12 months calculated for progression.","timeFrame":"Up to 12 months"},{"measure":"Time to second progression or death (PFS2)","description":"PFS2 is defined as the time from randomization to the earliest of the progression event (following the initial progression), after the first subsequent therapy, or death, where the first objective progression includes progression occurring after 2 missed visits.","timeFrame":"Up to approximately 6 years"},{"measure":"Occurrence of adverse events (AEs) and serious adverse events (SAEs)","description":"Occurrence of AEs and SAEs will be graded according to the revised NCI CTCAE v5.0.","timeFrame":"Up to approximately 6 years"},{"measure":"Pharmacokinetics (PK) of rilvegostomig, T-DXd, total anti-HER2 antibody, DXd, 5-FU, and capecitabine in serum","description":"Concentration of rilvegostomig, T-DXd, total anti-HER2 antibody, DXd, fluoropyrimidine, and capecitabine in serum or plasma.","timeFrame":"Up to approximately 6 years"},{"measure":"Immunogenicity of rilvegostomig and T-DXd assessed by the presence of antidrug antibodies (ADAs) for rilvegostomig and T-DXd","description":"Presence of antidrug antibodies (ADAs) for rilvegostomig and T-DXd (confirmatory results: titers and neutralizing antibodies for confirmed positive samples).","timeFrame":"Up to approximately 6 years"},{"measure":"Increase in enteral feeding assistance and eating difficulties","description":"Time to first-confirmed worsening of eating symptoms or initiation of feeding assistance among all participants, as randomized.","timeFrame":"Up to approximately 6 years"},{"measure":"Proportion of time on study intervention with high side-effect bother","description":"Proportion of time on study intervention with high side-effect bother relative to low side-effect burden as measured by the Patient Global Impression of Treatment Tolerability (PGI-TT).","timeFrame":"Up to approximately 6 years"},{"measure":"Overall Survival at 12 months (OS12)","description":"Proportion of all randomized participants alive at 12 months.","timeFrame":"Up to 12 months"},{"measure":"Overall Survival at 24 months (OS24)","description":"Proportion of all randomized participants alive at 24 months.","timeFrame":"Up to 24 months"},{"measure":"Pharmacokinetics (PK) of rilvegostomig, T-DXd, total anti-HER2 antibody, DXd, 5-FU, and capecitabine in serum","description":"PK parameters (peak and trough concentrations).","timeFrame":"Up to approximately 6 years"}]},"eligibilityModule":{"eligibilityCriteria":"Inclusion Criteria:\n\n* HER2 positive for gastric cancer on a tumor biopsy.\n* PD-L1 combined positive score (CPS) ≥ 1.\n* Provision of tumor tissue sample from recent biopsy adequate for HER2 and PD-L1 testing.\n* Previously untreated, unresectable, locally advanced or metastatic gastric or GEJ adenocarcinoma.\n* WHO or Eastern Cooperative Oncology Group performance status of 0 or 1.\n* Have measurable target disease assessed by the Investigator based on RECIST v1.1.\n* Have adequate organ and bone marrow function within 14 days before randomization.\n* LVEF ≥ 55% within 28 days before randomization.\n* Adequate treatment washout period before randomization.\n\nExclusion Criteria:\n\n* Lack of physiological integrity of the upper gastrointestinal tract.\n* Known dihydropyrimidine dehydrogenase enzyme deficiency.\n* Contraindication to pembrolizumab or trastuzumab, contraindications to fluoropyrimidine (5-FU and capecitabine) or platinum (cisplatin and oxaliplatin) treatment as per local label.\n* History of another primary malignancy except for malignancy treated with curative intent with no known active disease within 3 years before the first dose of study intervention and of low potential risk for recurrence.\n* Persistent toxicities caused by previous anti-cancer therapy.\n* Spinal cord compression or brain metastases unless asymptomatic, treated and stable and not requiring corticosteroid or anticonvulsant may be included in the study if they have recovered from the acute toxic effect of radiotherapy.\n* Uncontrolled infection including tuberculosis and active hepatitis A infection.\n* Uncontrolled infection requiring intravenous (IV) antibiotics, anti-virals, or antifungals.\n* Recent receipt of live, attenuated vaccine.\n* Chronic/active HBV or HCV infection unless controlled.\n* Clinically significant cardiac or psychological conditions.\n* Active or prior documented autoimmune or inflammatory disorders requiring chronic treatment with steroids or other immunosuppressive treatment.\n* History of (non-infectious) ILD/pneumonitis, has current ILD/pneumonitis, or where suspected ILD/pneumonitis cannot be ruled out by imaging at screening.\n* Lung-specific intercurrent clinically significant illnesses.\n* Any active non-infectious skin disease requiring systemic treatment.\n* A pleural effusion, ascites or pericardial effusion that requires drainage, peritoneal shunt, or cell-free and concentrated ascites reinfusion therapy (CART).\n* History of any of the following: drug-induced severe cutaneous adverse reaction.\n* Any concurrent antic-ancer treatment with the exception of receptor activator of nuclear factor kappa-B ligand inhibitors.\n* Have had major surgical procedure recently (excluding placement of vascular access) or recent significant traumatic injury or an anticipated need for major surgery during the study.\n* Current or prior use of immunosuppressive medication within 14 days before study intervention.","healthyVolunteers":false,"sex":"ALL","minimumAge":"18 Years","stdAges":["ADULT","OLDER_ADULT"]},"contactsLocationsModule":{"centralContacts":[{"name":"AstraZeneca Clinical Study Information Center","role":"CONTACT","phone":"1-877-240-9479","email":"information.center@astrazeneca.com"}],"locations":[{"facility":"Research Site","status":"NOT_YET_RECRUITING","city":"Anchorage","state":"Alaska","zip":"99508","country":"United States","geoPoint":{"lat":61.21806,"lon":-149.90028}},{"facility":"Research Site","status":"NOT_YET_RECRUITING","city":"Duarte","state":"California","zip":"91010","country":"United States","geoPoint":{"lat":34.13945,"lon":-117.97729}},{"facility":"Research Site","status":"NOT_YET_RECRUITING","city":"Los Alamitos","state":"California","zip":"90720","country":"United States","geoPoint":{"lat":33.80307,"lon":-118.07256}},{"facility":"Research Site","status":"NOT_YET_RECRUITING","city":"Los Angeles","state":"California","zip":"90089","country":"United States","geoPoint":{"lat":34.05223,"lon":-118.24368}},{"facility":"Research Site","status":"NOT_YET_RECRUITING","city":"Santa Monica","state":"California","zip":"90404","country":"United States","geoPoint":{"lat":34.01945,"lon":-118.49119}},{"facility":"Research Site","status":"NOT_YET_RECRUITING","city":"Walnut Creek","state":"California","zip":"94598","country":"United States","geoPoint":{"lat":37.90631,"lon":-122.06496}},{"facility":"Research Site","status":"NOT_YET_RECRUITING","city":"Aurora","state":"Colorado","zip":"80045","country":"United States","geoPoint":{"lat":39.72943,"lon":-104.83192}},{"facility":"Research Site","status":"NOT_YET_RECRUITING","city":"Marietta","state":"Georgia","zip":"30060","country":"United States","geoPoint":{"lat":33.9526,"lon":-84.54993}},{"facility":"Research Site","status":"NOT_YET_RECRUITING","city":"Arlington Heights","state":"Illinois","zip":"60005","country":"United States","geoPoint":{"lat":42.08836,"lon":-87.98063}},{"facility":"Research Site","status":"NOT_YET_RECRUITING","city":"Chicago","state":"Illinois","zip":"60637","country":"United States","geoPoint":{"lat":41.85003,"lon":-87.65005}},{"facility":"Research Site","status":"WITHDRAWN","city":"Dyer","state":"Indiana","zip":"46311","country":"United States","geoPoint":{"lat":41.4942,"lon":-87.52171}},{"facility":"Research Site","status":"NOT_YET_RECRUITING","city":"Louisville","state":"Kentucky","zip":"40217","country":"United States","geoPoint":{"lat":38.25424,"lon":-85.75941}},{"facility":"Research Site","status":"NOT_YET_RECRUITING","city":"Silver Spring","state":"Maryland","zip":"20904","country":"United States","geoPoint":{"lat":38.99067,"lon":-77.02609}},{"facility":"Research Site","status":"NOT_YET_RECRUITING","city":"Boston","state":"Massachusetts","zip":"02114","country":"United States","geoPoint":{"lat":42.35843,"lon":-71.05977}},{"facility":"Research Site","status":"NOT_YET_RECRUITING","city":"Grand Rapids","state":"Michigan","zip":"49503","country":"United States","geoPoint":{"lat":42.96336,"lon":-85.66809}},{"facility":"Research Site","status":"NOT_YET_RECRUITING","city":"Burnsville","state":"Minnesota","zip":"55337","country":"United States","geoPoint":{"lat":44.76774,"lon":-93.27772}},{"facility":"Research Site","status":"WITHDRAWN","city":"Kansas City","state":"Missouri","zip":"64111","country":"United States","geoPoint":{"lat":39.09973,"lon":-94.57857}},{"facility":"Research Site","status":"NOT_YET_RECRUITING","city":"New York","state":"New York","zip":"10065","country":"United States","geoPoint":{"lat":40.71427,"lon":-74.00597}},{"facility":"Research Site","status":"NOT_YET_RECRUITING","city":"Cincinnati","state":"Ohio","zip":"45220","country":"United States","geoPoint":{"lat":39.12713,"lon":-84.51435}},{"facility":"Research Site","status":"NOT_YET_RECRUITING","city":"Nashville","state":"Tennessee","zip":"37232","country":"United States","geoPoint":{"lat":36.16589,"lon":-86.78444}},{"facility":"Research Site","status":"NOT_YET_RECRUITING","city":"Dallas","state":"Texas","zip":"75246","country":"United States","geoPoint":{"lat":32.78306,"lon":-96.80667}},{"facility":"Research Site","status":"NOT_YET_RECRUITING","city":"Webster","state":"Texas","zip":"77598","country":"United States","geoPoint":{"lat":29.53773,"lon":-95.11826}},{"facility":"Research Site","status":"NOT_YET_RECRUITING","city":"Fairfax","state":"Virginia","zip":"22031","country":"United States","geoPoint":{"lat":38.84622,"lon":-77.30637}},{"facility":"Research Site","status":"NOT_YET_RECRUITING","city":"Richmond","state":"Virginia","zip":"23235","country":"United States","geoPoint":{"lat":37.55376,"lon":-77.46026}},{"facility":"Research Site","status":"WITHDRAWN","city":"Madison","state":"Wisconsin","zip":"53792","country":"United States","geoPoint":{"lat":43.07305,"lon":-89.40123}},{"facility":"Research Site","status":"NOT_YET_RECRUITING","city":"Buenos Aires","zip":"1264","country":"Argentina","geoPoint":{"lat":-34.61315,"lon":-58.37723}},{"facility":"Research Site","status":"NOT_YET_RECRUITING","city":"Ciudad Autónoma Buenos Aires","zip":"C1430EFA","country":"Argentina","geoPoint":{"lat":-34.61315,"lon":-58.37723}},{"facility":"Research Site","status":"NOT_YET_RECRUITING","city":"Rosario","zip":"2123","country":"Argentina","geoPoint":{"lat":-32.94682,"lon":-60.63932}},{"facility":"Research Site","status":"NOT_YET_RECRUITING","city":"Rosario","zip":"S2000DEJ","country":"Argentina","geoPoint":{"lat":-32.94682,"lon":-60.63932}},{"facility":"Research Site","status":"NOT_YET_RECRUITING","city":"Viedma","zip":"R8500ACE","country":"Argentina","geoPoint":{"lat":-40.81345,"lon":-62.99668}},{"facility":"Research Site","status":"NOT_YET_RECRUITING","city":"Darlinghurst","zip":"2010","country":"Australia","geoPoint":{"lat":-33.87939,"lon":151.21925}},{"facility":"Research Site","status":"NOT_YET_RECRUITING","city":"Heidelberg","zip":"3084","country":"Australia","geoPoint":{"lat":-37.75,"lon":145.06667}},{"facility":"Research Site","status":"NOT_YET_RECRUITING","city":"Murdoch","zip":"6150","country":"Australia","geoPoint":{"lat":-32.06987,"lon":115.83757}},{"facility":"Research Site","status":"NOT_YET_RECRUITING","city":"Westmead","zip":"2145","country":"Australia","geoPoint":{"lat":-33.80383,"lon":150.98768}},{"facility":"Research Site","status":"NOT_YET_RECRUITING","city":"Linz","zip":"4010","country":"Austria","geoPoint":{"lat":48.30639,"lon":14.28611}},{"facility":"Research Site","status":"NOT_YET_RECRUITING","city":"Salzburg","zip":"5020","country":"Austria","geoPoint":{"lat":47.79941,"lon":13.04399}},{"facility":"Research Site","status":"NOT_YET_RECRUITING","city":"Wiener Neustadt","zip":"2700","country":"Austria","geoPoint":{"lat":47.80484,"lon":16.23201}},{"facility":"Research Site","status":"NOT_YET_RECRUITING","city":"Wien","zip":"1090","country":"Austria","geoPoint":{"lat":48.20849,"lon":16.37208}},{"facility":"Research Site","status":"NOT_YET_RECRUITING","city":"Edegem","zip":"2650","country":"Belgium","geoPoint":{"lat":51.15662,"lon":4.44504}},{"facility":"Research Site","status":"NOT_YET_RECRUITING","city":"Gent","zip":"9000","country":"Belgium","geoPoint":{"lat":51.05,"lon":3.71667}},{"facility":"Research Site","status":"NOT_YET_RECRUITING","city":"Leuven","zip":"3000","country":"Belgium","geoPoint":{"lat":50.87959,"lon":4.70093}},{"facility":"Research Site","status":"NOT_YET_RECRUITING","city":"Liège","zip":"4000","country":"Belgium","geoPoint":{"lat":50.63373,"lon":5.56749}},{"facility":"Research Site","status":"NOT_YET_RECRUITING","city":"Barretos","zip":"14784-057","country":"Brazil","geoPoint":{"lat":-20.55722,"lon":-48.56778}},{"facility":"Research Site","status":"NOT_YET_RECRUITING","city":"Brasilia","zip":"71681-603","country":"Brazil","geoPoint":{"lat":-15.77972,"lon":-47.92972}},{"facility":"Research Site","status":"NOT_YET_RECRUITING","city":"Campo Grande","zip":"79020-180","country":"Brazil","geoPoint":{"lat":-20.44278,"lon":-54.64639}},{"facility":"Research Site","status":"WITHDRAWN","city":"Natal","zip":"59075-740","country":"Brazil","geoPoint":{"lat":-5.795,"lon":-35.20944}},{"facility":"Research Site","status":"NOT_YET_RECRUITING","city":"Porto Alegre","zip":"91350-200","country":"Brazil","geoPoint":{"lat":-30.03306,"lon":-51.23}},{"facility":"Research Site","status":"NOT_YET_RECRUITING","city":"Recife","zip":"50040-000","country":"Brazil","geoPoint":{"lat":-8.05389,"lon":-34.88111}},{"facility":"Research Site","status":"NOT_YET_RECRUITING","city":"Salvador","zip":"40170-110","country":"Brazil","geoPoint":{"lat":-12.97111,"lon":-38.51083}},{"facility":"Research Site","status":"RECRUITING","city":"Sao Paulo","zip":"05652-9000","country":"Brazil","geoPoint":{"lat":-23.5475,"lon":-46.63611}},{"facility":"Research Site","status":"RECRUITING","city":"Vitória","zip":"29043-272","country":"Brazil","geoPoint":{"lat":-20.31944,"lon":-40.33778}},{"facility":"Research Site","status":"NOT_YET_RECRUITING","city":"Calgary","state":"Alberta","zip":"T2N 5G2","country":"Canada","geoPoint":{"lat":51.05011,"lon":-114.08529}},{"facility":"Research Site","status":"NOT_YET_RECRUITING","city":"Edmonton","state":"Alberta","zip":"T6G 1Z2","country":"Canada","geoPoint":{"lat":53.55014,"lon":-113.46871}},{"facility":"Research Site","status":"NOT_YET_RECRUITING","city":"Barrie","state":"Ontario","zip":"L4M 6M2","country":"Canada","geoPoint":{"lat":44.40011,"lon":-79.66634}},{"facility":"Research Site","status":"WITHDRAWN","city":"Hamilton","state":"Ontario","zip":"L8V 5C2","country":"Canada","geoPoint":{"lat":43.25011,"lon":-79.84963}},{"facility":"Research Site","status":"NOT_YET_RECRUITING","city":"Toronto","state":"Ontario","zip":"M5G 2M9","country":"Canada","geoPoint":{"lat":43.70011,"lon":-79.4163}},{"facility":"Research Site","status":"RECRUITING","city":"Montreal","state":"Quebec","zip":"H3A 1A1","country":"Canada","geoPoint":{"lat":45.50884,"lon":-73.58781}},{"facility":"Research Site","status":"NOT_YET_RECRUITING","city":"Puerto Montt","zip":"5480000","country":"Chile","geoPoint":{"lat":-41.46691,"lon":-72.94956}},{"facility":"Research Site","status":"NOT_YET_RECRUITING","city":"Rancagua","zip":"2852424","country":"Chile","geoPoint":{"lat":-34.17083,"lon":-70.74444}},{"facility":"Research Site","status":"NOT_YET_RECRUITING","city":"Santiago","zip":"7500653","country":"Chile","geoPoint":{"lat":-33.45694,"lon":-70.64827}},{"facility":"Research Site","status":"NOT_YET_RECRUITING","city":"Santiago","zip":"7620002","country":"Chile","geoPoint":{"lat":-33.45694,"lon":-70.64827}},{"facility":"Research Site","status":"NOT_YET_RECRUITING","city":"Temuco","zip":"4810218","country":"Chile","geoPoint":{"lat":-38.73965,"lon":-72.59842}},{"facility":"Research Site","status":"NOT_YET_RECRUITING","city":"Viña del Mar","zip":"2520598","country":"Chile","geoPoint":{"lat":-33.02457,"lon":-71.55183}},{"facility":"Research Site","status":"NOT_YET_RECRUITING","city":"Anyang","zip":"455000","country":"China","geoPoint":{"lat":36.096,"lon":114.38278}},{"facility":"Research Site","status":"NOT_YET_RECRUITING","city":"Beijing","zip":"100050","country":"China","geoPoint":{"lat":39.9075,"lon":116.39723}},{"facility":"Research Site","status":"NOT_YET_RECRUITING","city":"Beijing","zip":"CN-100730","country":"China","geoPoint":{"lat":39.9075,"lon":116.39723}},{"facility":"Research Site","status":"RECRUITING","city":"Bengbu","zip":"233004","country":"China","geoPoint":{"lat":32.94083,"lon":117.36083}},{"facility":"Research Site","status":"NOT_YET_RECRUITING","city":"Changchun","zip":"130021","country":"China","geoPoint":{"lat":43.88,"lon":125.32278}},{"facility":"Research Site","status":"NOT_YET_RECRUITING","city":"Changsha","zip":"410013","country":"China","geoPoint":{"lat":28.19874,"lon":112.97087}},{"facility":"Research Site","status":"RECRUITING","city":"Chengdu","zip":"610041","country":"China","geoPoint":{"lat":30.66667,"lon":104.06667}},{"facility":"Research Site","status":"NOT_YET_RECRUITING","city":"Fuzhou","zip":"350001","country":"China","geoPoint":{"lat":26.06139,"lon":119.30611}},{"facility":"Research Site","status":"NOT_YET_RECRUITING","city":"Fuzhou","zip":"350014","country":"China","geoPoint":{"lat":26.06139,"lon":119.30611}},{"facility":"Research Site","status":"RECRUITING","city":"Guangzhou","zip":"510060","country":"China","geoPoint":{"lat":23.11667,"lon":113.25}},{"facility":"Research Site","status":"NOT_YET_RECRUITING","city":"Guangzhou","zip":"510655","country":"China","geoPoint":{"lat":23.11667,"lon":113.25}},{"facility":"Research Site","status":"RECRUITING","city":"Guangzhou","zip":"510700","country":"China","geoPoint":{"lat":23.11667,"lon":113.25}},{"facility":"Research Site","status":"NOT_YET_RECRUITING","city":"Hangzhou","zip":"310016","country":"China","geoPoint":{"lat":30.29365,"lon":120.16142}},{"facility":"Research Site","status":"NOT_YET_RECRUITING","city":"Harbin","zip":"150081","country":"China","geoPoint":{"lat":45.75,"lon":126.65}},{"facility":"Research Site","status":"NOT_YET_RECRUITING","city":"Hefei","zip":"230022","country":"China","geoPoint":{"lat":31.86389,"lon":117.28083}},{"facility":"Research Site","status":"RECRUITING","city":"Hefei","zip":"230031","country":"China","geoPoint":{"lat":31.86389,"lon":117.28083}},{"facility":"Research Site","status":"NOT_YET_RECRUITING","city":"Jinan","zip":"250021","country":"China","geoPoint":{"lat":36.66833,"lon":116.99722}},{"facility":"Research Site","status":"NOT_YET_RECRUITING","city":"Kunming","zip":"650118","country":"China","geoPoint":{"lat":25.03889,"lon":102.71833}},{"facility":"Research Site","status":"RECRUITING","city":"Lanzhou","zip":"730000","country":"China","geoPoint":{"lat":36.05701,"lon":103.83987}},{"facility":"Research Site","status":"NOT_YET_RECRUITING","city":"Lanzhou","zip":"730000","country":"China","geoPoint":{"lat":36.05701,"lon":103.83987}},{"facility":"Research Site","status":"RECRUITING","city":"Linfen","zip":"041099","country":"China","geoPoint":{"lat":36.08889,"lon":111.51889}},{"facility":"Research Site","status":"RECRUITING","city":"Linyi","zip":"276001","country":"China","geoPoint":{"lat":35.06306,"lon":118.34278}},{"facility":"Research Site","status":"NOT_YET_RECRUITING","city":"Nanchang","zip":"330008","country":"China","geoPoint":{"lat":28.68396,"lon":115.85306}},{"facility":"Research Site","status":"NOT_YET_RECRUITING","city":"Nanjing","zip":"210009","country":"China","geoPoint":{"lat":32.06167,"lon":118.77778}},{"facility":"Research Site","status":"NOT_YET_RECRUITING","city":"Nanjing","zip":"210029","country":"China","geoPoint":{"lat":32.06167,"lon":118.77778}},{"facility":"Research Site","status":"NOT_YET_RECRUITING","city":"Shandong","country":"China"},{"facility":"Research Site","status":"NOT_YET_RECRUITING","city":"Shanghai","zip":"200025","country":"China","geoPoint":{"lat":31.22222,"lon":121.45806}},{"facility":"Research Site","status":"NOT_YET_RECRUITING","city":"Shanghai","zip":"200032","country":"China","geoPoint":{"lat":31.22222,"lon":121.45806}},{"facility":"Research Site","status":"NOT_YET_RECRUITING","city":"Shanghai","zip":"201114","country":"China","geoPoint":{"lat":31.22222,"lon":121.45806}},{"facility":"Research Site","status":"NOT_YET_RECRUITING","city":"Shenyang","zip":"110004","country":"China","geoPoint":{"lat":41.79222,"lon":123.43278}},{"facility":"Research Site","status":"NOT_YET_RECRUITING","city":"Shenyang","zip":"110042","country":"China","geoPoint":{"lat":41.79222,"lon":123.43278}},{"facility":"Research Site","status":"NOT_YET_RECRUITING","city":"Shijiazhuang","zip":"050000","country":"China","geoPoint":{"lat":38.04139,"lon":114.47861}},{"facility":"Research Site","status":"NOT_YET_RECRUITING","city":"Tianjin","zip":"300060","country":"China","geoPoint":{"lat":39.14222,"lon":117.17667}},{"facility":"Research Site","status":"NOT_YET_RECRUITING","city":"Wenzhou","zip":"325000","country":"China","geoPoint":{"lat":27.99942,"lon":120.66682}},{"facility":"Research Site","status":"RECRUITING","city":"Wuhan","zip":"430030","country":"China","geoPoint":{"lat":30.58333,"lon":114.26667}},{"facility":"Research Site","status":"RECRUITING","city":"Xi'an","zip":"710068","country":"China","geoPoint":{"lat":34.25833,"lon":108.92861}},{"facility":"Research Site","status":"RECRUITING","city":"Xian","zip":"710061","country":"China","geoPoint":{"lat":34.25833,"lon":108.92861}},{"facility":"Research Site","status":"RECRUITING","city":"Xining","zip":"810001","country":"China","geoPoint":{"lat":36.62554,"lon":101.75739}},{"facility":"Research Site","status":"NOT_YET_RECRUITING","city":"Yinchuan","zip":"750004","country":"China","geoPoint":{"lat":38.46806,"lon":106.27306}},{"facility":"Research Site","status":"NOT_YET_RECRUITING","city":"Zhengzhou","zip":"450008","country":"China","geoPoint":{"lat":34.75778,"lon":113.64861}},{"facility":"Research Site","status":"NOT_YET_RECRUITING","city":"Bordeaux","zip":"33076","country":"France","geoPoint":{"lat":44.84044,"lon":-0.5805}},{"facility":"Research Site","status":"NOT_YET_RECRUITING","city":"Caen Cedex 5","zip":"41076","country":"France","geoPoint":{"lat":49.18585,"lon":-0.35912}},{"facility":"Research Site","status":"NOT_YET_RECRUITING","city":"Clermont-Ferrand","zip":"63003","country":"France","geoPoint":{"lat":45.77966,"lon":3.08628}},{"facility":"Research Site","status":"NOT_YET_RECRUITING","city":"Dijon","zip":"21079","country":"France","geoPoint":{"lat":47.31667,"lon":5.01667}},{"facility":"Research Site","status":"NOT_YET_RECRUITING","city":"Lyon","zip":"69373","country":"France","geoPoint":{"lat":45.74848,"lon":4.84669}},{"facility":"Research Site","status":"NOT_YET_RECRUITING","city":"Marseille","zip":"13273","country":"France","geoPoint":{"lat":43.29551,"lon":5.38958}},{"facility":"Research Site","status":"NOT_YET_RECRUITING","city":"Poitiers","zip":"86021","country":"France","geoPoint":{"lat":46.58333,"lon":0.33333}},{"facility":"Research Site","status":"NOT_YET_RECRUITING","city":"Rennes","zip":"35000","country":"France","geoPoint":{"lat":48.11198,"lon":-1.67429}},{"facility":"Research Site","status":"NOT_YET_RECRUITING","city":"Toulouse","zip":"31059","country":"France","geoPoint":{"lat":43.60426,"lon":1.44367}},{"facility":"Research Site","status":"NOT_YET_RECRUITING","city":"Villejuif Cedex","zip":"94805","country":"France","geoPoint":{"lat":48.7939,"lon":2.35992}},{"facility":"Research Site","status":"NOT_YET_RECRUITING","city":"Augsburg","zip":"86156","country":"Germany","geoPoint":{"lat":48.37154,"lon":10.89851}},{"facility":"Research Site","status":"NOT_YET_RECRUITING","city":"Bad Saarow","zip":"15526","country":"Germany","geoPoint":{"lat":52.28333,"lon":14.06667}},{"facility":"Research Site","status":"WITHDRAWN","city":"Berlin","zip":"10249","country":"Germany","geoPoint":{"lat":52.52437,"lon":13.41053}},{"facility":"Research Site","status":"NOT_YET_RECRUITING","city":"Berlin","zip":"10707","country":"Germany","geoPoint":{"lat":52.52437,"lon":13.41053}},{"facility":"Research Site","status":"NOT_YET_RECRUITING","city":"Berlin","zip":"13353","country":"Germany","geoPoint":{"lat":52.52437,"lon":13.41053}},{"facility":"Research Site","status":"NOT_YET_RECRUITING","city":"Braunschweig","zip":"38114","country":"Germany","geoPoint":{"lat":52.26594,"lon":10.52673}},{"facility":"Research Site","status":"NOT_YET_RECRUITING","city":"Chemnitz","zip":"9116","country":"Germany","geoPoint":{"lat":50.8357,"lon":12.92922}},{"facility":"Research Site","status":"NOT_YET_RECRUITING","city":"Düsseldorf","zip":"40225","country":"Germany","geoPoint":{"lat":51.22172,"lon":6.77616}},{"facility":"Research Site","status":"NOT_YET_RECRUITING","city":"Essen","zip":"45122","country":"Germany","geoPoint":{"lat":51.45657,"lon":7.01228}},{"facility":"Research Site","status":"NOT_YET_RECRUITING","city":"Frankfurt","zip":"60488","country":"Germany","geoPoint":{"lat":50.11552,"lon":8.68417}},{"facility":"Research Site","status":"NOT_YET_RECRUITING","city":"Göttingen","zip":"37075","country":"Germany","geoPoint":{"lat":51.53443,"lon":9.93228}},{"facility":"Research Site","status":"NOT_YET_RECRUITING","city":"Hamburg","zip":"20246","country":"Germany","geoPoint":{"lat":53.57532,"lon":10.01534}},{"facility":"Research Site","status":"NOT_YET_RECRUITING","city":"Leipzig","zip":"04103","country":"Germany","geoPoint":{"lat":51.33962,"lon":12.37129}},{"facility":"Research Site","status":"NOT_YET_RECRUITING","city":"Ludwigshafen","zip":"67063","country":"Germany","geoPoint":{"lat":49.48121,"lon":8.44641}},{"facility":"Research Site","status":"NOT_YET_RECRUITING","city":"Mannheim","zip":"68167","country":"Germany","geoPoint":{"lat":49.4891,"lon":8.46694}},{"facility":"Research Site","status":"NOT_YET_RECRUITING","city":"Ulm","zip":"89081","country":"Germany","geoPoint":{"lat":48.39841,"lon":9.99155}},{"facility":"Research Site","status":"NOT_YET_RECRUITING","city":"Hong Kong","zip":"150001","country":"Hong Kong","geoPoint":{"lat":22.27832,"lon":114.17469}},{"facility":"Research Site","status":"RECRUITING","city":"Hong Kong","zip":"999077","country":"Hong Kong","geoPoint":{"lat":22.27832,"lon":114.17469}},{"facility":"Research Site","status":"NOT_YET_RECRUITING","city":"Hong Kong","country":"Hong Kong","geoPoint":{"lat":22.27832,"lon":114.17469}},{"facility":"Research Site","status":"NOT_YET_RECRUITING","city":"Shatin","zip":"00000","country":"Hong Kong","geoPoint":{"lat":22.38333,"lon":114.18333}},{"facility":"Research Site","status":"WITHDRAWN","city":"Budapest","zip":"1122","country":"Hungary","geoPoint":{"lat":47.49801,"lon":19.03991}},{"facility":"Research Site","status":"NOT_YET_RECRUITING","city":"Budapest","zip":"1145","country":"Hungary","geoPoint":{"lat":47.49801,"lon":19.03991}},{"facility":"Research Site","status":"NOT_YET_RECRUITING","city":"Gyula","zip":"5700","country":"Hungary","geoPoint":{"lat":46.65,"lon":21.28333}},{"facility":"Research Site","status":"NOT_YET_RECRUITING","city":"Gyöngyös","zip":"3200","country":"Hungary","geoPoint":{"lat":47.78257,"lon":19.928}},{"facility":"Research Site","status":"NOT_YET_RECRUITING","city":"Győr","zip":"9024","country":"Hungary","geoPoint":{"lat":47.68333,"lon":17.63512}},{"facility":"Research Site","status":"NOT_YET_RECRUITING","city":"Zalaegerszeg","zip":"8900","country":"Hungary","geoPoint":{"lat":46.84,"lon":16.84389}},{"facility":"Research Site","status":"NOT_YET_RECRUITING","city":"Bangalore","zip":"560027","country":"India","geoPoint":{"lat":12.97194,"lon":77.59369}},{"facility":"Research Site","status":"NOT_YET_RECRUITING","city":"Delhi","zip":"110029","country":"India","geoPoint":{"lat":28.65195,"lon":77.23149}},{"facility":"Research Site","status":"NOT_YET_RECRUITING","city":"Delhi","zip":"110085","country":"India","geoPoint":{"lat":28.65195,"lon":77.23149}},{"facility":"Research Site","status":"NOT_YET_RECRUITING","city":"Hyderabad","zip":"500034","country":"India","geoPoint":{"lat":17.38405,"lon":78.45636}},{"facility":"Research Site","status":"NOT_YET_RECRUITING","city":"Kolkata","zip":"700016","country":"India","geoPoint":{"lat":22.56263,"lon":88.36304}},{"facility":"Research Site","status":"NOT_YET_RECRUITING","city":"Mumbai","zip":"400012","country":"India","geoPoint":{"lat":19.07283,"lon":72.88261}},{"facility":"Research Site","status":"NOT_YET_RECRUITING","city":"Varanasi","zip":"221005","country":"India","geoPoint":{"lat":25.31668,"lon":83.01041}},{"facility":"Research Site","status":"NOT_YET_RECRUITING","city":"Cagliari","zip":"09124","country":"Italy","geoPoint":{"lat":39.23054,"lon":9.11917}},{"facility":"Research Site","status":"NOT_YET_RECRUITING","city":"Firenze","zip":"50134","country":"Italy","geoPoint":{"lat":43.77925,"lon":11.24626}},{"facility":"Research Site","status":"NOT_YET_RECRUITING","city":"Milano","zip":"20162","country":"Italy","geoPoint":{"lat":45.46427,"lon":9.18951}},{"facility":"Research Site","status":"NOT_YET_RECRUITING","city":"Napoli","zip":"80131","country":"Italy","geoPoint":{"lat":40.85216,"lon":14.26811}},{"facility":"Research Site","status":"NOT_YET_RECRUITING","city":"Padova","zip":"35128","country":"Italy","geoPoint":{"lat":45.40797,"lon":11.88586}},{"facility":"Research Site","status":"NOT_YET_RECRUITING","city":"Rozzano","zip":"20089","country":"Italy","geoPoint":{"lat":45.38193,"lon":9.1559}},{"facility":"Research Site","status":"NOT_YET_RECRUITING","city":"Torino","zip":"10126","country":"Italy","geoPoint":{"lat":45.07049,"lon":7.68682}},{"facility":"Research Site","status":"NOT_YET_RECRUITING","city":"Tricase","zip":"73039","country":"Italy","geoPoint":{"lat":39.93018,"lon":18.35421}},{"facility":"Research Site","status":"NOT_YET_RECRUITING","city":"Akashi-shi","zip":"673-8558","country":"Japan","geoPoint":{"lat":34.65522,"lon":135.00687}},{"facility":"Research Site","status":"NOT_YET_RECRUITING","city":"Chuo-ku","zip":"104-0045","country":"Japan","geoPoint":{"lat":35.57779,"lon":139.71685}},{"facility":"Research Site","status":"NOT_YET_RECRUITING","city":"Fukuoka-shi","zip":"811-1395","country":"Japan","geoPoint":{"lat":33.6,"lon":130.41667}},{"facility":"Research Site","status":"NOT_YET_RECRUITING","city":"Hidaka-shi","zip":"350-1298","country":"Japan"},{"facility":"Research Site","status":"NOT_YET_RECRUITING","city":"Shiwa-gun","zip":"028-3695","country":"Japan","geoPoint":{"lat":33.23058,"lon":133.24871}},{"facility":"Research Site","status":"NOT_YET_RECRUITING","city":"Yokohama-shi","zip":"241-8515","country":"Japan","geoPoint":{"lat":35.43333,"lon":139.65}},{"facility":"Research Site","status":"NOT_YET_RECRUITING","city":"Daegu","zip":"41404","country":"Korea, Republic of","geoPoint":{"lat":35.87028,"lon":128.59111}},{"facility":"Research Site","status":"NOT_YET_RECRUITING","city":"Goyang-si","zip":"410-769","country":"Korea, Republic of","geoPoint":{"lat":37.65639,"lon":126.835}},{"facility":"Research Site","status":"NOT_YET_RECRUITING","city":"Gyeonggi-do","zip":"13620","country":"Korea, Republic of","geoPoint":{"lat":37.58944,"lon":126.76917}},{"facility":"Research Site","status":"NOT_YET_RECRUITING","city":"Jeonnam","zip":"519-763","country":"Korea, Republic of"},{"facility":"Research Site","status":"NOT_YET_RECRUITING","city":"Seoul","zip":"03080","country":"Korea, Republic of","geoPoint":{"lat":37.566,"lon":126.9784}},{"facility":"Research Site","status":"NOT_YET_RECRUITING","city":"Seoul","zip":"03722","country":"Korea, Republic of","geoPoint":{"lat":37.566,"lon":126.9784}},{"facility":"Research Site","status":"NOT_YET_RECRUITING","city":"Seoul","zip":"06351","country":"Korea, Republic of","geoPoint":{"lat":37.566,"lon":126.9784}},{"facility":"Research Site","status":"NOT_YET_RECRUITING","city":"Seoul","zip":"06591","country":"Korea, Republic of","geoPoint":{"lat":37.566,"lon":126.9784}},{"facility":"Research Site","status":"NOT_YET_RECRUITING","city":"Seoul","zip":"5505","country":"Korea, Republic of","geoPoint":{"lat":37.566,"lon":126.9784}},{"facility":"Research Site","status":"NOT_YET_RECRUITING","city":"Georgetown","zip":"10450","country":"Malaysia"},{"facility":"Research Site","status":"NOT_YET_RECRUITING","city":"Ipoh","zip":"30450","country":"Malaysia","geoPoint":{"lat":4.5841,"lon":101.0829}},{"facility":"Research Site","status":"NOT_YET_RECRUITING","city":"Kuala Lumpur","zip":"50586","country":"Malaysia","geoPoint":{"lat":3.1412,"lon":101.68653}},{"facility":"Research Site","status":"NOT_YET_RECRUITING","city":"Kuala Lumpur","zip":"59100","country":"Malaysia","geoPoint":{"lat":3.1412,"lon":101.68653}},{"facility":"Research Site","status":"NOT_YET_RECRUITING","city":"Sabah","zip":"88996","country":"Malaysia"},{"facility":"Research Site","status":"NOT_YET_RECRUITING","city":"Amsterdam","zip":"1105 AZ","country":"Netherlands","geoPoint":{"lat":52.37403,"lon":4.88969}},{"facility":"Research Site","status":"NOT_YET_RECRUITING","city":"Arnhem","zip":"6815 AD","country":"Netherlands","geoPoint":{"lat":51.98,"lon":5.91111}},{"facility":"Research Site","status":"NOT_YET_RECRUITING","city":"Arequipa","zip":"AREQUIPA54","country":"Peru","geoPoint":{"lat":-16.39889,"lon":-71.535}},{"facility":"Research Site","status":"NOT_YET_RECRUITING","city":"Lima","zip":"15036","country":"Peru","geoPoint":{"lat":-12.04318,"lon":-77.02824}},{"facility":"Research Site","status":"NOT_YET_RECRUITING","city":"Lima","zip":"LIMA 29","country":"Peru","geoPoint":{"lat":-12.04318,"lon":-77.02824}},{"facility":"Research Site","status":"NOT_YET_RECRUITING","city":"Lima","zip":"Lima 32","country":"Peru","geoPoint":{"lat":-12.04318,"lon":-77.02824}},{"facility":"Research Site","status":"NOT_YET_RECRUITING","city":"Lima","zip":"Lima 34","country":"Peru","geoPoint":{"lat":-12.04318,"lon":-77.02824}},{"facility":"Research Site","status":"NOT_YET_RECRUITING","city":"San Isidro","zip":"15073","country":"Peru","geoPoint":{"lat":-12.11667,"lon":-77.05}},{"facility":"Research Site","status":"NOT_YET_RECRUITING","city":"Białystok","zip":"15-027","country":"Poland","geoPoint":{"lat":53.13333,"lon":23.16433}},{"facility":"Research Site","status":"NOT_YET_RECRUITING","city":"Gdańsk","zip":"80-219","country":"Poland","geoPoint":{"lat":54.35205,"lon":18.64637}},{"facility":"Research Site","status":"NOT_YET_RECRUITING","city":"Koszalin","zip":"75-581","country":"Poland","geoPoint":{"lat":54.19438,"lon":16.17222}},{"facility":"Research Site","status":"NOT_YET_RECRUITING","city":"Olsztyn","zip":"10-228","country":"Poland","geoPoint":{"lat":53.77995,"lon":20.49416}},{"facility":"Research Site","status":"NOT_YET_RECRUITING","city":"Przemysl","zip":"37-700","country":"Poland","geoPoint":{"lat":49.78498,"lon":22.76728}},{"facility":"Research Site","status":"NOT_YET_RECRUITING","city":"Warszawa","zip":"02-034","country":"Poland","geoPoint":{"lat":52.22977,"lon":21.01178}},{"facility":"Research Site","status":"NOT_YET_RECRUITING","city":"Wrocław","zip":"50-556","country":"Poland","geoPoint":{"lat":51.1,"lon":17.03333}},{"facility":"Research Site","status":"NOT_YET_RECRUITING","city":"Rio Piedras","zip":"00935","country":"Puerto Rico","geoPoint":{"lat":18.39745,"lon":-66.04989}},{"facility":"Research Site","status":"NOT_YET_RECRUITING","city":"Badalona","zip":"08916","country":"Spain","geoPoint":{"lat":41.45004,"lon":2.24741}},{"facility":"Research Site","status":"NOT_YET_RECRUITING","city":"Barcelona","zip":"08035","country":"Spain","geoPoint":{"lat":41.38879,"lon":2.15899}},{"facility":"Research Site","status":"NOT_YET_RECRUITING","city":"Madrid","zip":"28034","country":"Spain","geoPoint":{"lat":40.4165,"lon":-3.70256}},{"facility":"Research Site","status":"NOT_YET_RECRUITING","city":"Madrid","zip":"28041","country":"Spain","geoPoint":{"lat":40.4165,"lon":-3.70256}},{"facility":"Research Site","status":"NOT_YET_RECRUITING","city":"Orense","zip":"32005","country":"Spain","geoPoint":{"lat":42.33669,"lon":-7.86407}},{"facility":"Research Site","status":"NOT_YET_RECRUITING","city":"Santander","zip":"39008","country":"Spain","geoPoint":{"lat":43.46472,"lon":-3.80444}},{"facility":"Research Site","status":"NOT_YET_RECRUITING","city":"Sevilla","zip":"41013","country":"Spain","geoPoint":{"lat":37.38283,"lon":-5.97317}},{"facility":"Research Site","status":"NOT_YET_RECRUITING","city":"Valencia","zip":"46010","country":"Spain","geoPoint":{"lat":39.46975,"lon":-0.37739}},{"facility":"Research Site","status":"RECRUITING","city":"Kaohsiung","zip":"80756","country":"Taiwan","geoPoint":{"lat":22.61626,"lon":120.31333}},{"facility":"Research Site","status":"RECRUITING","city":"Kaohsiung","zip":"824","country":"Taiwan","geoPoint":{"lat":22.61626,"lon":120.31333}},{"facility":"Research Site","status":"RECRUITING","city":"Taichung","zip":"40447","country":"Taiwan","geoPoint":{"lat":24.1469,"lon":120.6839}},{"facility":"Research Site","status":"NOT_YET_RECRUITING","city":"Tainan","zip":"704","country":"Taiwan","geoPoint":{"lat":22.99083,"lon":120.21333}},{"facility":"Research Site","status":"RECRUITING","city":"Taipei","zip":"100","country":"Taiwan","geoPoint":{"lat":25.04776,"lon":121.53185}},{"facility":"Research Site","status":"RECRUITING","city":"Taipei","zip":"112","country":"Taiwan","geoPoint":{"lat":25.04776,"lon":121.53185}},{"facility":"Research Site","status":"RECRUITING","city":"Taoyuan","zip":"333","country":"Taiwan","geoPoint":{"lat":24.95233,"lon":121.20193}},{"facility":"Research Site","status":"RECRUITING","city":"Bangkok","zip":"10330","country":"Thailand","geoPoint":{"lat":13.75398,"lon":100.50144}},{"facility":"Research Site","status":"NOT_YET_RECRUITING","city":"Bangkok","zip":"10400","country":"Thailand","geoPoint":{"lat":13.75398,"lon":100.50144}},{"facility":"Research Site","status":"RECRUITING","city":"Bangkok","zip":"10700","country":"Thailand","geoPoint":{"lat":13.75398,"lon":100.50144}},{"facility":"Research Site","status":"RECRUITING","city":"Banphaeo","zip":"74120","country":"Thailand"},{"facility":"Research Site","status":"RECRUITING","city":"Dusit","zip":"10300","country":"Thailand","geoPoint":{"lat":13.7775,"lon":100.51977}},{"facility":"Research Site","status":"RECRUITING","city":"Khon Kaen","zip":"40002","country":"Thailand","geoPoint":{"lat":16.44671,"lon":102.833}},{"facility":"Research Site","status":"NOT_YET_RECRUITING","city":"Ankara","zip":"06100","country":"Turkey","geoPoint":{"lat":39.91987,"lon":32.85427}},{"facility":"Research Site","status":"NOT_YET_RECRUITING","city":"Antalya","zip":"07100","country":"Turkey","geoPoint":{"lat":36.90812,"lon":30.69556}},{"facility":"Research Site","status":"NOT_YET_RECRUITING","city":"Diyarbakir","zip":"21280","country":"Turkey","geoPoint":{"lat":37.91363,"lon":40.21721}},{"facility":"Research Site","status":"NOT_YET_RECRUITING","city":"Erzurum","zip":"25240","country":"Turkey","geoPoint":{"lat":39.90861,"lon":41.27694}},{"facility":"Research Site","status":"NOT_YET_RECRUITING","city":"Istanbul","zip":"34010","country":"Turkey","geoPoint":{"lat":41.01384,"lon":28.94966}},{"facility":"Research Site","status":"NOT_YET_RECRUITING","city":"Izmir","zip":"35965","country":"Turkey","geoPoint":{"lat":38.41273,"lon":27.13838}},{"facility":"Research Site","status":"NOT_YET_RECRUITING","city":"Mezitli","zip":"33200","country":"Turkey","geoPoint":{"lat":36.74541,"lon":34.52256}},{"facility":"Research Site","status":"NOT_YET_RECRUITING","city":"Cambridge","zip":"CB2 2QQ","country":"United Kingdom","geoPoint":{"lat":52.2,"lon":0.11667}},{"facility":"Research Site","status":"NOT_YET_RECRUITING","city":"Coventry","zip":"CV2 2DX","country":"United Kingdom","geoPoint":{"lat":52.40656,"lon":-1.51217}},{"facility":"Research Site","status":"NOT_YET_RECRUITING","city":"Dundee","zip":"DD1 9SY","country":"United Kingdom","geoPoint":{"lat":56.46913,"lon":-2.97489}},{"facility":"Research Site","status":"NOT_YET_RECRUITING","city":"London","zip":"EC1A 7BE","country":"United Kingdom","geoPoint":{"lat":51.50853,"lon":-0.12574}},{"facility":"Research Site","status":"NOT_YET_RECRUITING","city":"London","zip":"W1G 6AD","country":"United Kingdom","geoPoint":{"lat":51.50853,"lon":-0.12574}},{"facility":"Research Site","status":"NOT_YET_RECRUITING","city":"Manchester","zip":"M20 4BX","country":"United Kingdom","geoPoint":{"lat":53.48095,"lon":-2.23743}},{"facility":"Research Site","status":"NOT_YET_RECRUITING","city":"Sutton","zip":"SM2 5PT","country":"United Kingdom","geoPoint":{"lat":51.35,"lon":-0.2}},{"facility":"Research Site","status":"NOT_YET_RECRUITING","city":"Hanoi","zip":"100000","country":"Vietnam","geoPoint":{"lat":21.0245,"lon":105.84117}},{"facility":"Research Site","status":"NOT_YET_RECRUITING","city":"Ho Chi Minh city","zip":"700000","country":"Vietnam","geoPoint":{"lat":10.82302,"lon":106.62965}},{"facility":"Research Site","status":"NOT_YET_RECRUITING","city":"Vinh","zip":"460000","country":"Vietnam","geoPoint":{"lat":18.67337,"lon":105.69232}}]},"ipdSharingStatementModule":{"ipdSharing":"YES","description":"Qualified researchers can request access to anonymized individual patient-level data from AstraZeneca group of companies sponsored clinical trials via the request portal Vivli.org. All requests will be evaluated as per the AZ disclosure commitment: https://astrazenecagrouptrials.pharmacm.com/ST/Submission/Disclosure.\n\nYes, indicates that AZ are accepting requests for IPD, but this does not mean all requests will be shared.","infoTypes":["STUDY_PROTOCOL","SAP"],"timeFrame":"AstraZeneca will meet or exceed data availability as per the commitments made to the EFPIA PhRMA Data Sharing Principles. For details of our timelines, please refer to our disclosure commitment at https://astrazenecagrouptrials.pharmacm.com/ST/Submission/Disclosure.","accessCriteria":"When a request has been approved AstraZeneca will provide access to the anonymized individual patient-level data via secure research environment Vivli.org. Signed Data Usage Agreement (non-negotiable contract for data accessors) must be in place before accessing requested information.","url":"https://vivli.org/"}},"derivedSection":{"miscInfoModule":{"versionHolder":"2025-07-07"},"conditionBrowseModule":{"meshes":[{"id":"D013274","term":"Stomach Neoplasms"}],"ancestors":[{"id":"D009369","term":"Neoplasms"},{"id":"D005770","term":"Gastrointestinal Neoplasms"},{"id":"D004067","term":"Digestive System Neoplasms"},{"id":"D009371","term":"Neoplasms by Site"},{"id":"D004066","term":"Digestive System Diseases"},{"id":"D005767","term":"Gastrointestinal Diseases"},{"id":"D013272","term":"Stomach Diseases"}],"browseLeaves":[{"id":"M16064","name":"Stomach Neoplasms","asFound":"Gastric Cancer","relevance":"HIGH"},{"id":"M3585","name":"Adenocarcinoma","relevance":"LOW"},{"id":"M8886","name":"Gastrointestinal Neoplasms","relevance":"LOW"},{"id":"M7256","name":"Digestive System Neoplasms","relevance":"LOW"},{"id":"M7255","name":"Digestive System Diseases","relevance":"LOW"},{"id":"M8883","name":"Gastrointestinal Diseases","relevance":"LOW"},{"id":"M16062","name":"Stomach Diseases","relevance":"LOW"},{"id":"T5486","name":"Stomach Cancer","asFound":"Gastric Cancer","relevance":"HIGH"}],"browseBranches":[{"abbrev":"BC04","name":"Neoplasms"},{"abbrev":"BC06","name":"Digestive System Diseases"},{"abbrev":"All","name":"All Conditions"},{"abbrev":"Rare","name":"Rare Diseases"}]},"interventionBrowseModule":{"meshes":[{"id":"C582435","term":"Pembrolizumab"},{"id":"D000069287","term":"Capecitabine"},{"id":"D000077150","term":"Oxaliplatin"},{"id":"D005472","term":"Fluorouracil"},{"id":"D000068878","term":"Trastuzumab"},{"id":"C000614160","term":"Trastuzumab deruxtecan"}],"ancestors":[{"id":"D000970","term":"Antineoplastic Agents"},{"id":"D000074322","term":"Antineoplastic Agents, Immunological"},{"id":"D000082082","term":"Immune Checkpoint Inhibitors"},{"id":"D045504","term":"Molecular Mechanisms of Pharmacological Action"},{"id":"D000964","term":"Antimetabolites, Antineoplastic"},{"id":"D000963","term":"Antimetabolites"},{"id":"D007166","term":"Immunosuppressive Agents"},{"id":"D007155","term":"Immunologic Factors"},{"id":"D045505","term":"Physiological Effects of Drugs"},{"id":"D018796","term":"Immunoconjugates"}],"browseLeaves":[{"id":"M377","name":"Capecitabine","asFound":"Acid","relevance":"HIGH"},{"id":"M325","name":"Trastuzumab","asFound":"Rate","relevance":"HIGH"},{"id":"M6182","name":"Cisplatin","relevance":"LOW"},{"id":"M1674","name":"Oxaliplatin","asFound":"Min","relevance":"HIGH"},{"id":"M8600","name":"Fluorouracil","asFound":"Is a","relevance":"HIGH"},{"id":"M349416","name":"Pembrolizumab","asFound":"Type","relevance":"HIGH"},{"id":"M233243","name":"Trastuzumab deruxtecan","asFound":"Panitumumab","relevance":"HIGH"},{"id":"M1346","name":"Antineoplastic Agents, Immunological","relevance":"LOW"},{"id":"M2342","name":"Immune Checkpoint Inhibitors","relevance":"LOW"},{"id":"M4281","name":"Antimetabolites","relevance":"LOW"},{"id":"M10212","name":"Immunosuppressive Agents","relevance":"LOW"},{"id":"M10201","name":"Immunologic Factors","relevance":"LOW"},{"id":"M20855","name":"Immunoconjugates","relevance":"LOW"}],"browseBranches":[{"abbrev":"ANeo","name":"Antineoplastic Agents"},{"abbrev":"All","name":"All Drugs and Chemicals"}]}},"hasResults":false}