{"protocolSection":{"identificationModule":{"nctId":"NCT05317416","orgStudyIdInfo":{"id":"C1071007"},"secondaryIdInfos":[{"id":"MagnetisMM-7","type":"OTHER","domain":"Alias Study Number"},{"id":"2023-508897-27-00","type":"REGISTRY","domain":"CTIS (EU)"}],"organization":{"fullName":"Pfizer","class":"INDUSTRY"},"briefTitle":"Study With Elranatamab Versus Lenalidomide in Patients With Newly Diagnosed Multiple Myeloma After Transplant","officialTitle":"A RANDOMIZED, 2-ARM, PHASE 3 STUDY OF ELRANATAMAB (PF-06863135) VERSUS LENALIDOMIDE IN PATIENTS WITH NEWLY DIAGNOSED MULTIPLE MYELOMA AFTER UNDERGOING AUTOLOGOUS STEM-CELL TRANSPLANTATION","acronym":"MagnetisMM-7"},"statusModule":{"statusVerifiedDate":"2025-07","overallStatus":"RECRUITING","expandedAccessInfo":{"hasExpandedAccess":false},"startDateStruct":{"date":"2022-03-25","type":"ACTUAL"},"primaryCompletionDateStruct":{"date":"2027-08-04","type":"ESTIMATED"},"completionDateStruct":{"date":"2029-10-31","type":"ESTIMATED"},"studyFirstSubmitDate":"2022-03-18","studyFirstSubmitQcDate":"2022-03-30","studyFirstPostDateStruct":{"date":"2022-04-07","type":"ACTUAL"},"lastUpdateSubmitDate":"2025-07-01","lastUpdatePostDateStruct":{"date":"2025-07-02","type":"ACTUAL"}},"sponsorCollaboratorsModule":{"responsibleParty":{"type":"SPONSOR"},"leadSponsor":{"name":"Pfizer","class":"INDUSTRY"}},"oversightModule":{"oversightHasDmc":true,"isFdaRegulatedDrug":true,"isFdaRegulatedDevice":false},"descriptionModule":{"briefSummary":"The purpose of this study is to evaluate whether elranatamab monotherapy can provide clinical benefit compared to lenalidomide monotherapy (control) in participants with newly diagnosed multiple myeloma after undergoing autologous stem cell transplant. In Part 1 and Part 2 of the study, participants in the study will either receive elranatamab (arm A and C) as an injection under the skin at the study clinic or lenalidomide orally once daily at home (arm B). Participation in the study will be approximately five years","detailedDescription":"Elranatamab is a bispecific antibody: binding of elranatamab to CD3-expressing T-cells and BCMA-expressing multiple myeloma cells causes targeted T-cell-mediated cytotoxicity."},"conditionsModule":{"conditions":["Multiple Myeloma"],"keywords":["BCMA","Multiple Myeloma","Newly diagnosed","Elranatamab","Targeted T-cell","MagnetisMM","MM7","Phase 3","B-cell Maturation Antigen","monoclonal antibody","Stem cell transplant","Autologous stem cell transplant (ASCT)","Hematologic disease","Minimum residual disease","Lenalidomide"]},"designModule":{"studyType":"INTERVENTIONAL","phases":["PHASE3"],"designInfo":{"allocation":"RANDOMIZED","interventionModel":"PARALLEL","primaryPurpose":"TREATMENT","maskingInfo":{"masking":"NONE"}},"enrollmentInfo":{"count":760,"type":"ESTIMATED"}},"armsInterventionsModule":{"armGroups":[{"label":"Arm A - Part 1","type":"EXPERIMENTAL","description":"Elranatamab","interventionNames":["Drug: Elranatamab"]},{"label":"Arm B - Part 1","type":"ACTIVE_COMPARATOR","description":"Lenalidomide","interventionNames":["Drug: Lenalidomide"]},{"label":"Arm B - Part 2","type":"ACTIVE_COMPARATOR","description":"Lenalidomide","interventionNames":["Drug: Lenalidomide"]},{"label":"Arm C - Part 2","type":"EXPERIMENTAL","description":"Elranatamab","interventionNames":["Drug: Elranatamab"]}],"interventions":[{"type":"DRUG","name":"Elranatamab","description":"BCMA-CD3 bispecific antibody","armGroupLabels":["Arm A - Part 1"]},{"type":"DRUG","name":"Lenalidomide","description":"Immunomodulatory drug","armGroupLabels":["Arm B - Part 1"]},{"type":"DRUG","name":"Lenalidomide","description":"Immunomodulatory drug","armGroupLabels":["Arm B - Part 2"]},{"type":"DRUG","name":"Elranatamab","description":"BCMA-CD3 bispecific antibody","armGroupLabels":["Arm C - Part 2"]}]},"outcomesModule":{"primaryOutcomes":[{"measure":"Minimal Residual Disease negativity rate","description":"Minimal Residual Disease negativity rate per IMWG criteria as assessed via Next Generation Sequencing","timeFrame":"12 months after randomization"},{"measure":"Progression Free Survival","description":"Progression Free Survival assessed by Blinded Independent Central review per IMWG response criteria","timeFrame":"Assessed for up to approximately 5 years"}],"secondaryOutcomes":[{"measure":"Overall Survival","description":"Defined as the time from randomization until death due to any cause","timeFrame":"Assessed for up to approximately 5 years"},{"measure":"Sustained MRD negative rate","description":"Sustained Minimal Residual Disease negative rate per IMWG criteria as assessed via Next Generation Sequencing","timeFrame":"24 months after randomization"},{"measure":"Progression Free Survival","description":"Progression Free Survival by investigator per IMWG response criteria","timeFrame":"Assessed for up to approximately 5 years"},{"measure":"Overall minimal residual disease negative rate","description":"Minimal residual disease negative rate per IMWG criteria","timeFrame":"Assessed for up to approximately 5 years"},{"measure":"Duration of minimal residual disease negativity","description":"Minimal residual disease negativity per IMWG criteria","timeFrame":"Assessed for up to approximately 5 years"},{"measure":"Sustained minimal residual disease negativity rate","description":"Minimal residual disease negativity per IMWG criteria that has lasted a minimum of 12 months","timeFrame":"Assessed for up to approximately 5 years"},{"measure":"Complete response rate","description":"Complete response rate by blinded independent central review and by investigator per IMWG criteria","timeFrame":"Assessed for up to approximately 5 years"},{"measure":"Duration of complete response","description":"Duration of complete response by blinded independent central review and by investigator per IMWG criteria","timeFrame":"Assessed for up to approximately 5 years"},{"measure":"Frequency of adverse events","description":"Adverse event as characterized by type, frequency, severity per the National Cancer Institute Common Terminology Criteria for Adverse Events (NCI CTCAE) version 5, seriousness and relationship to the study intervention","timeFrame":"Up to 90 days after last dose"},{"measure":"Severity of Cytokine Release Syndrome and Immune effector Cell Associated Neurotoxicity syndrome","description":"Cytokine Release Syndrome and Immune effector Cell Associated Neurotoxicity syndrome severity assessed per ASH-ASTCT criteria","timeFrame":"Assessed for up to approximately 5 years"},{"measure":"Frequency of laboratory abnormalities","timeFrame":"Assessed for up to approximately 5 years"},{"measure":"Pre-dose concentrations of elranatamab","description":"Pharmacokinetics of elranatamab (trough concentrations of elranatamab)","timeFrame":"Assessed for up to approximately 5 years"},{"measure":"Post-dose concentrations of elranatamab","description":"Pharmacokinetics of elranatamab (Post-dose serum concentrations of elranatamab)\"","timeFrame":"Assessed for up to approximately 5 years"},{"measure":"Incidence and titers of Anti-Drug Antibody and Neutralizing Antibody against elranatamab","description":"Immunogenicity of elranatamab","timeFrame":"Assessed for up to approximately 5 years"},{"measure":"Health-related quality of life by European Organization for Research and Treatment of Cancer Quality of Life Questionnaire - Core 30","description":"Higher scores on the functional scales represent higher levels of functioning. Higher scores on the global health status/quality of life scale represent higher health status/quality of life. Higher scores on symptom scales/items represent a greater presence of symptoms","timeFrame":"Assessed for up to approximately 5 years"},{"measure":"Health-related quality of life by European Organization for Research and Treatment of Cancer Quality of Life Questionnaire - Myeloma 20","description":"Higher scores on the functioning subscales (body image, future perspective) represent higher levels of functioning, whereas higher scores on the symptom subscales (disease symptoms, side effects) represent a greater presence of symptoms","timeFrame":"Assessed for up to approximately 5 years"},{"measure":"Progression Free Survival 2","description":"Progression Free Survival to the date of second objective disease progression by investigator per IMWG response criteria","timeFrame":"Assessed for up to approximately 5 years"}]},"eligibilityModule":{"eligibilityCriteria":"Inclusion Criteria:\n\n* Diagnosis of MM as defined according to IMWG criteria (Rajkumar, 2014) with measurable disease at diagnosis\n* Part 1 patients must be MRD positive, Part 2 patients can be MRD negative or MRD positive\n* History of induction therapy for newly diagnosed MM, followed by high dose therapy and autologous stem cell transplant. Randomization must occur within 120 days from the stem cell transplant. For participants who receive consolidation therapy after ASCT, randomization must occur within 60 days of consolidation and within 7 months from ASCT.\n* Partial Response or better according to IMWG criteria at the time of randomization\n* Must have an archival bone marrow aspirate sample(s) to identify the dominant malignant (index) clone by central laboratory NGS test (ClonoSEQ assay) that is used to track MRD status. This sample should preferably be collected before induction treatment (eg, at diagnosis) or before transplant.\n* ECOG performance status ≤1\n* Resolved acute effects of any prior therapy to baseline severity or CTCAE Grade ≤ 1\n* Not pregnant and willing to use contraception\n\nExclusion Criteria:\n\n* Plasma cell leukemia\n* Amyloidosis, Waldenström's macroglobulinemia\n* POEMS syndrome\n* Known active CNS involvement or clinical signs of myelomatous meningeal involvement\n* Previous MM maintenance treatment\n* Prior treatment with BCMA targeted therapy\n* Any other active malignancy within 3 years prior to enrollment, except for adequately treated basal cell or squamous cell skin cancer, or carcinoma in situ\n* Active, uncontrolled bacterial, fungal, or viral infection, including (but not limited to) HBV, HCV, and known HIV or AIDS-related illness\n* Previous administration with an investigational drug or vaccine within 30 days (or as determined by the local requirement) or 5 half-lives preceding the first dose of study intervention used in this study (whichever is longer)","healthyVolunteers":false,"sex":"ALL","minimumAge":"18 Years","stdAges":["ADULT","OLDER_ADULT"]},"contactsLocationsModule":{"centralContacts":[{"name":"Pfizer CT.gov Call Center","role":"CONTACT","phone":"1-800-718-1021","email":"ClinicalTrials.gov_Inquiries@pfizer.com"}],"overallOfficials":[{"name":"Pfizer CT.gov Call Center","affiliation":"Pfizer","role":"STUDY_DIRECTOR"}],"locations":[{"facility":"Banner Gateway Medical Center","status":"RECRUITING","city":"Gilbert","state":"Arizona","zip":"85234","country":"United States","geoPoint":{"lat":33.35283,"lon":-111.78903}},{"facility":"Banner MD Anderson Cancer Center","status":"RECRUITING","city":"Gilbert","state":"Arizona","zip":"85234","country":"United States","geoPoint":{"lat":33.35283,"lon":-111.78903}},{"facility":"Ronald Reagan UCLA Medical Center","status":"RECRUITING","city":"Los Angeles","state":"California","zip":"90095","country":"United States","geoPoint":{"lat":34.05223,"lon":-118.24368}},{"facility":"UCLA Hematology/Oncology - Westwood (Building 200 Suite 120)","status":"RECRUITING","city":"Los Angeles","state":"California","zip":"90095","country":"United States","geoPoint":{"lat":34.05223,"lon":-118.24368}},{"facility":"UCLA Hematology/Oncology - Santa Monica","status":"RECRUITING","city":"Los Angeles","state":"California","zip":"90404","country":"United States","geoPoint":{"lat":34.05223,"lon":-118.24368}},{"facility":"Georgetown University Medical Center","status":"RECRUITING","city":"Washington","state":"District of Columbia","zip":"20007","country":"United States","geoPoint":{"lat":38.89511,"lon":-77.03637}},{"facility":"Miami Cancer Institute at Baptist Health, Inc.","status":"RECRUITING","city":"Miami","state":"Florida","zip":"33176","country":"United States","geoPoint":{"lat":25.77427,"lon":-80.19366}},{"facility":"Emory University Hospital Midtown","status":"RECRUITING","city":"Atlanta","state":"Georgia","zip":"30308","country":"United States","geoPoint":{"lat":33.749,"lon":-84.38798}},{"facility":"Emory University Hospital","status":"RECRUITING","city":"Atlanta","state":"Georgia","zip":"30322","country":"United States","geoPoint":{"lat":33.749,"lon":-84.38798}},{"facility":"Investigational Drug Service, Emory University Clinic","status":"RECRUITING","city":"Atlanta","state":"Georgia","zip":"30322","country":"United States","geoPoint":{"lat":33.749,"lon":-84.38798}},{"facility":"Winship Cancer Institute, Emory University","status":"RECRUITING","city":"Atlanta","state":"Georgia","zip":"30322","country":"United States","geoPoint":{"lat":33.749,"lon":-84.38798}},{"facility":"Loyola University Chicago","status":"RECRUITING","city":"Maywood","state":"Illinois","zip":"60153","country":"United States","geoPoint":{"lat":41.8792,"lon":-87.84312}},{"facility":"Ascentist Doctor Hospital","status":"RECRUITING","city":"Leawood","state":"Kansas","zip":"66211","country":"United States","geoPoint":{"lat":38.96667,"lon":-94.6169}},{"facility":"American Oncology Partners, P.A. dba MidAmerica Cancer Care","status":"RECRUITING","city":"Merriam","state":"Kansas","zip":"66204","country":"United States","geoPoint":{"lat":39.02362,"lon":-94.69357}},{"facility":"O'Brien Pharmacy","status":"RECRUITING","city":"Mission","state":"Kansas","zip":"66205","country":"United States","geoPoint":{"lat":39.02778,"lon":-94.65579}},{"facility":"University of Michigan","status":"RECRUITING","city":"Ann Arbor","state":"Michigan","zip":"48109","country":"United States","geoPoint":{"lat":42.27756,"lon":-83.74088}},{"facility":"University Of Mississippi Medical Center","status":"RECRUITING","city":"Jackson","state":"Mississippi","zip":"39213","country":"United States","geoPoint":{"lat":32.29876,"lon":-90.18481}},{"facility":"University of Mississippi Medical Center","status":"RECRUITING","city":"Jackson","state":"Mississippi","zip":"39216","country":"United States","geoPoint":{"lat":32.29876,"lon":-90.18481}},{"facility":"American Oncology Partners, P.A. Dba MidAmerica Cancer Care","status":"RECRUITING","city":"Kansas City","state":"Missouri","zip":"64132","country":"United States","geoPoint":{"lat":39.09973,"lon":-94.57857}},{"facility":"Dartmouth-Hitchcock Medical Center","status":"RECRUITING","city":"Lebanon","state":"New Hampshire","zip":"03756","country":"United States","geoPoint":{"lat":43.64229,"lon":-72.25176}},{"facility":"WMCHealth Advanced Physician Services","status":"RECRUITING","city":"Hawthorne","state":"New York","zip":"10532","country":"United States","geoPoint":{"lat":41.10732,"lon":-73.79597}},{"facility":"Westchester Medical Center","status":"RECRUITING","city":"Valhalla","state":"New York","zip":"10595","country":"United States","geoPoint":{"lat":41.07482,"lon":-73.77513}},{"facility":"Cleveland Clinic","status":"RECRUITING","city":"Cleveland","state":"Ohio","zip":"44195","country":"United States","geoPoint":{"lat":41.4995,"lon":-81.69541}},{"facility":"OhioHealth Arthur G.H. Bing, MD, Cancer Center","status":"RECRUITING","city":"Columbus","state":"Ohio","zip":"43214","country":"United States","geoPoint":{"lat":39.96118,"lon":-82.99879}},{"facility":"OhioHealth Research Institute","status":"RECRUITING","city":"Columbus","state":"Ohio","zip":"43214","country":"United States","geoPoint":{"lat":39.96118,"lon":-82.99879}},{"facility":"OhioHealth Riverside Methodist Hospital","status":"RECRUITING","city":"Columbus","state":"Ohio","zip":"43214","country":"United States","geoPoint":{"lat":39.96118,"lon":-82.99879}},{"facility":"Baylor University Medical Center","status":"RECRUITING","city":"Dallas","state":"Texas","zip":"75246","country":"United States","geoPoint":{"lat":32.78306,"lon":-96.80667}},{"facility":"Baylor Scott & White Medical Center - Temple","status":"RECRUITING","city":"Temple","state":"Texas","zip":"76508","country":"United States","geoPoint":{"lat":31.09823,"lon":-97.34278}},{"facility":"Royal Prince Alfred Hospital","status":"NOT_YET_RECRUITING","city":"Camperdown","state":"New South Wales","zip":"2050","country":"Australia","geoPoint":{"lat":-33.88965,"lon":151.17642}},{"facility":"Shoalhaven District Memorial Hospital","status":"RECRUITING","city":"Nowra","state":"New South Wales","zip":"2541","country":"Australia","geoPoint":{"lat":-34.88422,"lon":150.60036}},{"facility":"Westmead Hospital","status":"RECRUITING","city":"Westmead","state":"New South Wales","zip":"2145","country":"Australia","geoPoint":{"lat":-33.80383,"lon":150.98768}},{"facility":"Wollongong Hospital","status":"RECRUITING","city":"Wollongong","state":"New South Wales","zip":"2500","country":"Australia","geoPoint":{"lat":-34.424,"lon":150.89345}},{"facility":"Pindara Private Hospital","status":"RECRUITING","city":"Benowa","state":"Queensland","zip":"4217","country":"Australia","geoPoint":{"lat":-28.01667,"lon":153.4}},{"facility":"QScan Radiology Clinics","status":"RECRUITING","city":"Clayfield","state":"Queensland","zip":"4011","country":"Australia","geoPoint":{"lat":-27.41894,"lon":153.05818}},{"facility":"Princess Alexandra Hospital","status":"RECRUITING","city":"Woolloongabba","state":"Queensland","zip":"4102","country":"Australia","geoPoint":{"lat":-27.48855,"lon":153.03655}},{"facility":"Epworth Healthcare","status":"RECRUITING","city":"East Melbourne","state":"Victoria","zip":"3002","country":"Australia","geoPoint":{"lat":-37.81667,"lon":144.9879}},{"facility":"Precision Haematology","status":"RECRUITING","city":"East Melbourne","state":"Victoria","zip":"3002","country":"Australia","geoPoint":{"lat":-37.81667,"lon":144.9879}},{"facility":"St Vincent's Hospital (Melbourne)","status":"RECRUITING","city":"Fitzroy","state":"Victoria","zip":"3065","country":"Australia","geoPoint":{"lat":-37.79839,"lon":144.97833}},{"facility":"Slade Pharmacy","status":"RECRUITING","city":"Richmond","zip":"3121","country":"Australia","geoPoint":{"lat":-37.81819,"lon":145.00176}},{"facility":"Medizinische Universität Wien","status":"RECRUITING","city":"Vienna","state":"Wien","zip":"1090","country":"Austria","geoPoint":{"lat":48.20849,"lon":16.37208}},{"facility":"Hanusch-Krankenhaus","status":"RECRUITING","city":"Vienna","zip":"1140","country":"Austria","geoPoint":{"lat":48.20849,"lon":16.37208}},{"facility":"Medizinische Universität Wien","status":"RECRUITING","city":"Wien","zip":"1090","country":"Austria","geoPoint":{"lat":48.20849,"lon":16.37208}},{"facility":"Institut Jules Bordet","status":"RECRUITING","city":"Anderlecht","state":"Bruxelles-capitale, Région DE","zip":"1070","country":"Belgium","geoPoint":{"lat":50.83619,"lon":4.31454}},{"facility":"Grand Hôpital de Charleroi","status":"RECRUITING","city":"Charleroi","state":"Hainaut","zip":"6060","country":"Belgium","geoPoint":{"lat":50.41136,"lon":4.44448}},{"facility":"Université Catholique de Louvain-Namur - Centre Hospitalier Universitaire Dinant-Godinne - Site Godi","status":"RECRUITING","city":"Yvoir","state":"Namur","zip":"5530","country":"Belgium","geoPoint":{"lat":50.3279,"lon":4.88059}},{"facility":"UZ Gent","status":"RECRUITING","city":"Gent","state":"Oost-vlaanderen","zip":"9000","country":"Belgium","geoPoint":{"lat":51.05,"lon":3.71667}},{"facility":"ZNA Middelheim","status":"RECRUITING","city":"Antwerpen","zip":"2020","country":"Belgium","geoPoint":{"lat":51.21989,"lon":4.40346}},{"facility":"Zna Cadix","status":"RECRUITING","city":"Antwerpen","zip":"2030","country":"Belgium","geoPoint":{"lat":51.21989,"lon":4.40346}},{"facility":"UZ Brussel","status":"RECRUITING","city":"Brussel","zip":"1090","country":"Belgium","geoPoint":{"lat":50.85045,"lon":4.34878}},{"facility":"Instituto D'Or de Pesquisa e Ensino (IDOR) - Filial Salvador","status":"RECRUITING","city":"Salvador","state":"Bahia","zip":"41253-190","country":"Brazil","geoPoint":{"lat":-12.97111,"lon":-38.51083}},{"facility":"Centro Gaucho Integrado De Oncologia, Hematologia, Ensino E Pesquisa","status":"RECRUITING","city":"Porto Alegre","state":"RIO Grande DO SUL","zip":"90110-270","country":"Brazil","geoPoint":{"lat":-30.03306,"lon":-51.23}},{"facility":"Centro de Pesquisa Clínica - Área Administrativa","status":"RECRUITING","city":"Porto Alegre","state":"RIO Grande DO SUL","zip":"90850-170","country":"Brazil","geoPoint":{"lat":-30.03306,"lon":-51.23}},{"facility":"Hospital Mae de Deus","status":"RECRUITING","city":"Porto Alegre","state":"RIO Grande DO SUL","zip":"90880-480","country":"Brazil","geoPoint":{"lat":-30.03306,"lon":-51.23}},{"facility":"Hospital Amaral Carvalho","status":"RECRUITING","city":"Jaú","state":"SÃO Paulo","zip":"17210-080","country":"Brazil","geoPoint":{"lat":-22.29639,"lon":-48.55778}},{"facility":"Hospital das Clínicas da Faculdade de Medicina de Ribeirão Preto da Universidade de São Paulo (USP)","status":"RECRUITING","city":"Ribeirão Preto","state":"SÃO Paulo","zip":"14051-140","country":"Brazil","geoPoint":{"lat":-21.1775,"lon":-47.81028}},{"facility":"BP - A Beneficencia Portuguesa de São Paulo","status":"ACTIVE_NOT_RECRUITING","city":"Sao Paulo","state":"SÃO Paulo","zip":"01321-001","country":"Brazil","geoPoint":{"lat":-23.5475,"lon":-46.63611}},{"facility":"Clínica Médica São Germano LTDA","status":"RECRUITING","city":"SP","state":"SÃO Paulo","zip":"04537-080","country":"Brazil"},{"facility":"Fundação Doutor Amaral Carvalho","status":"RECRUITING","city":"Jaú","zip":"17210-080","country":"Brazil","geoPoint":{"lat":-22.29639,"lon":-48.55778}},{"facility":"Américas Medical City","status":"RECRUITING","city":"Rio de Janeiro","zip":"22775-001","country":"Brazil","geoPoint":{"lat":-22.90278,"lon":-43.2075}},{"facility":"Instituto de Educação, Pesquisa e Gestão em Saúde","status":"RECRUITING","city":"Rio de Janeiro","zip":"22775001","country":"Brazil","geoPoint":{"lat":-22.90278,"lon":-43.2075}},{"facility":"ESHO Empresa de Serviços Hospitalares S.A/ Hospital Samaritano de Higienópolis","status":"RECRUITING","city":"São Paulo","zip":"01232-010","country":"Brazil","geoPoint":{"lat":-23.5475,"lon":-46.63611}},{"facility":"HU UNIFESP / SPDM - Hospital São Paulo","status":"RECRUITING","city":"São Paulo","zip":"04024-002","country":"Brazil","geoPoint":{"lat":-23.5475,"lon":-46.63611}},{"facility":"Universidade Federal de Sao Paulo","status":"RECRUITING","city":"São Paulo","zip":"04024-002","country":"Brazil","geoPoint":{"lat":-23.5475,"lon":-46.63611}},{"facility":"Hospital Japonês Santa Cruz","status":"TERMINATED","city":"São Paulo","zip":"04122-000","country":"Brazil","geoPoint":{"lat":-23.5475,"lon":-46.63611}},{"facility":"Clínica Médica São Germano S/S Ltda","status":"RECRUITING","city":"São Paulo","zip":"04537-080","country":"Brazil","geoPoint":{"lat":-23.5475,"lon":-46.63611}},{"facility":"Arthur J.E. Child Comprehensive Cancer Centre","status":"RECRUITING","city":"Calgary","state":"Alberta","zip":"T2N 5G2","country":"Canada","geoPoint":{"lat":51.05011,"lon":-114.08529}},{"facility":"Dr. Everett Chalmers Regional Hospital","status":"RECRUITING","city":"Fredericton","state":"New Brunswick","zip":"E3B 5N5","country":"Canada","geoPoint":{"lat":45.94541,"lon":-66.66558}},{"facility":"Saint John Regional Hospital","status":"RECRUITING","city":"Saint John","state":"New Brunswick","zip":"E2L 4L2","country":"Canada","geoPoint":{"lat":45.2727,"lon":-66.06769}},{"facility":"Hamilton Health Sciences Corporation","status":"RECRUITING","city":"Hamilton","state":"Ontario","zip":"L8L 8E7","country":"Canada","geoPoint":{"lat":43.25011,"lon":-79.84963}},{"facility":"Princess Margaret Cancer Centre","status":"RECRUITING","city":"Toronto","state":"Ontario","zip":"M5G 2M9","country":"Canada","geoPoint":{"lat":43.70011,"lon":-79.4163}},{"facility":"Windsor Regional Hospital Cancer Program","status":"RECRUITING","city":"Windsor","state":"Ontario","zip":"N8W 1L9","country":"Canada","geoPoint":{"lat":42.30008,"lon":-83.01654}},{"facility":"Centre Integre Universitaire de la Santé et de Services Sociaux de l'Est-de-l'ile-de-Montreal,","status":"RECRUITING","city":"Montreal","state":"Quebec","zip":"H1T 2M4","country":"Canada","geoPoint":{"lat":45.50884,"lon":-73.58781}},{"facility":"McGill University Health Centre","status":"RECRUITING","city":"Montreal","state":"Quebec","zip":"H4A 3J1","country":"Canada","geoPoint":{"lat":45.50884,"lon":-73.58781}},{"facility":"Centre intégré universitaire de santé et de services sociaux du Nord-de-l'Île-de-Montréal (CIUSSS NÎ","status":"RECRUITING","city":"Montreal","state":"Quebec","zip":"H4J 1C5","country":"Canada","geoPoint":{"lat":45.50884,"lon":-73.58781}},{"facility":"Sun Yat-sen University Cancer Center","status":"RECRUITING","city":"Guangzhou","state":"Guangdong","zip":"510060","country":"China","geoPoint":{"lat":23.11667,"lon":113.25}},{"facility":"Institute of hematology&blood disease hospital","status":"RECRUITING","city":"Tianjin","state":"Tianjin","zip":"300020","country":"China","geoPoint":{"lat":39.14222,"lon":117.17667}},{"facility":"The First Affiliated Hospital of Wenzhou Medical University","status":"RECRUITING","city":"Wenzhou","state":"Zhejiang","zip":"325000","country":"China","geoPoint":{"lat":27.99942,"lon":120.66682}},{"facility":"Fakultní nemocnice Brno Bohunice","status":"RECRUITING","city":"Brno","state":"Brno-město","zip":"625 00","country":"Czechia","geoPoint":{"lat":49.19522,"lon":16.60796}},{"facility":"Fakultni nemocnice Hradec Kralove","status":"RECRUITING","city":"Hradec Kralove","state":"Hradec Králové","zip":"500 05","country":"Czechia","geoPoint":{"lat":50.20923,"lon":15.83277}},{"facility":"Fakultni nemocnice Ostrava","status":"RECRUITING","city":"Ostrava","state":"Moravskoslezský KRAJ","zip":"708 52","country":"Czechia","geoPoint":{"lat":49.83465,"lon":18.28204}},{"facility":"Fakultni nemocnice Olomouc","status":"RECRUITING","city":"Olomouc","zip":"779 00","country":"Czechia","geoPoint":{"lat":49.59552,"lon":17.25175}},{"facility":"Vseobecna fakultni nemocnice v Praze","status":"RECRUITING","city":"Praha 2","zip":"12808","country":"Czechia","geoPoint":{"lat":50.08804,"lon":14.42076}},{"facility":"Oulun yliopistollinen sairaala","status":"RECRUITING","city":"Oulu","state":"Pohjois-pohjanmaa","zip":"90220","country":"Finland","geoPoint":{"lat":65.01236,"lon":25.46816}},{"facility":"Helsinki University Hospital - Comprehensive Cancer Center (HYKS - Syöpäkeskus)","status":"RECRUITING","city":"Helsinki","state":"Uusimaa","zip":"00029","country":"Finland","geoPoint":{"lat":60.16952,"lon":24.93545}},{"facility":"Turku University Hospital","status":"RECRUITING","city":"Turku","state":"Varsinais-suomi","zip":"20520","country":"Finland","geoPoint":{"lat":60.45148,"lon":22.26869}},{"facility":"Institut Universitaire du Cancer Toulouse - Oncopole - CHU de TOULOUSE","status":"RECRUITING","city":"Toulouse","state":"Haute-garonne","zip":"31100","country":"France","geoPoint":{"lat":43.60426,"lon":1.44367}},{"facility":"Pitie Salpetriere University Hospital","status":"RECRUITING","city":"Paris","state":"Orne","zip":"75013","country":"France","geoPoint":{"lat":48.85341,"lon":2.3488}},{"facility":"Gustave Roussy","status":"RECRUITING","city":"Villejuif","state":"Val-de-marne","zip":"94800","country":"France","geoPoint":{"lat":48.7939,"lon":2.35992}},{"facility":"Centre Hospitalier Universitaire de Poitiers","status":"RECRUITING","city":"Poitiers","state":"Vienne","zip":"86021","country":"France","geoPoint":{"lat":46.58333,"lon":0.33333}},{"facility":"Chu Grenoble Alpes","status":"NOT_YET_RECRUITING","city":"La Tronche","zip":"38700","country":"France","geoPoint":{"lat":45.20429,"lon":5.73645}},{"facility":"Hopital Claude Huriez - CHU de Lille","status":"RECRUITING","city":"Lille","zip":"59037","country":"France","geoPoint":{"lat":50.63297,"lon":3.05858}},{"facility":"Hôpital Saint Antoine","status":"RECRUITING","city":"Paris Cedex 12","zip":"75571","country":"France","geoPoint":{"lat":48.85341,"lon":2.3488}},{"facility":"Hopital Lyon Sud","status":"RECRUITING","city":"Pierre Benite","zip":"69495","country":"France","geoPoint":{"lat":45.7009,"lon":4.82511}},{"facility":"Centre Hospitalier Régional Universitaire de Tours - Hôpital Bretonneau","status":"RECRUITING","city":"Tours","zip":"37032","country":"France","geoPoint":{"lat":47.38333,"lon":0.68333}},{"facility":"Universitätsklinikum Würzburg","status":"RECRUITING","city":"Würzburg","state":"Bayern","zip":"97080","country":"Germany","geoPoint":{"lat":49.79391,"lon":9.95121}},{"facility":"Universitätsmedizin Johannes Gutenberg Universität Mainz","status":"RECRUITING","city":"Mainz","state":"Rheinland-pfalz","zip":"55131","country":"Germany","geoPoint":{"lat":49.98419,"lon":8.2791}},{"facility":"Universitätsklinikum Leipzig","status":"RECRUITING","city":"Leipzig","state":"Sachsen","zip":"04103","country":"Germany","geoPoint":{"lat":51.33962,"lon":12.37129}},{"facility":"Universitaetsklinikum Schleswig-Holstein Campus Kiel","status":"ACTIVE_NOT_RECRUITING","city":"Kiel","state":"Schleswig-holstein","zip":"24105","country":"Germany","geoPoint":{"lat":54.32133,"lon":10.13489}},{"facility":"Charite Universitätsmedizin Berlin Campus Benjamin Franklin","status":"RECRUITING","city":"Berlin","zip":"12200","country":"Germany","geoPoint":{"lat":52.52437,"lon":13.41053}},{"facility":"Klinikum Chemnitz gGMbH","status":"RECRUITING","city":"Chemnitz","zip":"09116","country":"Germany","geoPoint":{"lat":50.8357,"lon":12.92922}},{"facility":"Universitätsklinikum Essen","status":"RECRUITING","city":"Essen","zip":"45147","country":"Germany","geoPoint":{"lat":51.45657,"lon":7.01228}},{"facility":"Klinikum rechts der Isar der Technischen Universität München","status":"RECRUITING","city":"München","zip":"81675","country":"Germany","geoPoint":{"lat":48.13743,"lon":11.57549}},{"facility":"Alexandra General Hospital of Athens","status":"RECRUITING","city":"Athens","state":"Attikí","zip":"115 28","country":"Greece","geoPoint":{"lat":37.97945,"lon":23.71622}},{"facility":"Theageneio Cancer Hospital of Thessaloniki","status":"RECRUITING","city":"Thessaloniki","state":"Kentrikí Makedonía","zip":"546 39","country":"Greece","geoPoint":{"lat":40.64361,"lon":22.93086}},{"facility":"University Hospital of Ioannina","status":"RECRUITING","city":"Ioannina","state":"Ípeiros","zip":"455 00","country":"Greece","geoPoint":{"lat":39.66486,"lon":20.85189}},{"facility":"Somogy Megyei Kaposi Mór Oktató Kórház","status":"ACTIVE_NOT_RECRUITING","city":"Kaposvár","state":"Somogy","zip":"7400","country":"Hungary","geoPoint":{"lat":46.36667,"lon":17.8}},{"facility":"Semmelweis University","status":"ACTIVE_NOT_RECRUITING","city":"Budapest","zip":"1088","country":"Hungary","geoPoint":{"lat":47.49801,"lon":19.03991}},{"facility":"Dél-Pesti Centrumkórház","status":"ACTIVE_NOT_RECRUITING","city":"Budapest","zip":"1097","country":"Hungary","geoPoint":{"lat":47.49801,"lon":19.03991}},{"facility":"Debreceni Egyetem Klinikai Kozpont","status":"TERMINATED","city":"Debrecen","zip":"4032","country":"Hungary","geoPoint":{"lat":47.53333,"lon":21.63333}},{"facility":"Szabolcs-Szatmár-Bereg Megyei Kórházak és Egyetemi Oktatókórház, Jósa András Oktatókórház","status":"ACTIVE_NOT_RECRUITING","city":"Nyíregyháza","zip":"4400","country":"Hungary","geoPoint":{"lat":47.95539,"lon":21.71671}},{"facility":"Artemis hospital","status":"TERMINATED","city":"Gurugram","state":"Haryana","zip":"122001","country":"India"},{"facility":"Medanta-The Medicity","status":"ACTIVE_NOT_RECRUITING","city":"Gurugram","state":"Haryana","zip":"122001","country":"India"},{"facility":"Fortis Memorial Research Institute","status":"TERMINATED","city":"Gurugram","state":"Haryana","zip":"122002","country":"India"},{"facility":"Himalayan Institute Hospital Trust University","status":"ACTIVE_NOT_RECRUITING","city":"Dehradun","state":"Uttarakhand","zip":"248140","country":"India","geoPoint":{"lat":30.32295,"lon":78.03168}},{"facility":"Tata Medical Center","status":"ACTIVE_NOT_RECRUITING","city":"Kolkata","state":"WEST Bengal","zip":"700160","country":"India","geoPoint":{"lat":22.56263,"lon":88.36304}},{"facility":"Rajiv Gandhi Cancer Institute And Research Centre","status":"TERMINATED","city":"Delhi","zip":"110085","country":"India","geoPoint":{"lat":28.65195,"lon":77.23149}},{"facility":"Soroka Medical Center","status":"RECRUITING","city":"Be'er Sheva","state":"Hadarom","zip":"8410101","country":"Israel","geoPoint":{"lat":31.25181,"lon":34.7913}},{"facility":"Rabin Medical Center","status":"RECRUITING","city":"Petah-Tikva","state":"Hamerkaz","zip":"4910021","country":"Israel","geoPoint":{"lat":32.08707,"lon":34.88747}},{"facility":"Sheba Medical Center","status":"RECRUITING","city":"Ramat Gan","state":"Hamerkaz","zip":"5262100","country":"Israel","geoPoint":{"lat":32.08227,"lon":34.81065}},{"facility":"Rambam Health Care Campus","status":"RECRUITING","city":"Haifa","state":"Hatsafon","zip":"3109601","country":"Israel","geoPoint":{"lat":32.81841,"lon":34.9885}},{"facility":"Tel-Aviv Sourasky Medical Center Dana-Dwek Children's Hospital","status":"RECRUITING","city":"Tel Aviv","state":"Tell Abīb","zip":"6423906","country":"Israel","geoPoint":{"lat":32.08088,"lon":34.78057}},{"facility":"Shaare Zedek Medical Center","status":"ACTIVE_NOT_RECRUITING","city":"Jerusalem","state":"Yerushalayim","zip":"9013102","country":"Israel","geoPoint":{"lat":31.76904,"lon":35.21633}},{"facility":"Hadassah Medical Center","status":"RECRUITING","city":"Jerusalem","state":"Yerushalayim","zip":"9112001","country":"Israel","geoPoint":{"lat":31.76904,"lon":35.21633}},{"facility":"Hadassah Mount Scopus Medical Center","status":"RECRUITING","city":"Jerusalem","state":"Yerushalayim","zip":"9124001","country":"Israel","geoPoint":{"lat":31.76904,"lon":35.21633}},{"facility":"Shaare Zedek Medical Center","status":"ACTIVE_NOT_RECRUITING","city":"Jerusalem","zip":"9013102","country":"Israel","geoPoint":{"lat":31.76904,"lon":35.21633}},{"facility":"IRCCS - Istituto Romagnolo per lo Studio dei Tumori (IRST) \"Dino Amadori\"","status":"RECRUITING","city":"Meldola","state":"Emilia-romagna","zip":"47014","country":"Italy","geoPoint":{"lat":44.12775,"lon":12.0626}},{"facility":"Fondazione Policlinico Universitario Agostino Gemelli","status":"RECRUITING","city":"Roma","state":"Lazio","zip":"00168","country":"Italy","geoPoint":{"lat":41.89193,"lon":12.51133}},{"facility":"Fondazione IRCCS Cà Granda Ospedale Maggiore Policlinico","status":"RECRUITING","city":"Milano","state":"Lombardia","zip":"20122","country":"Italy","geoPoint":{"lat":45.46427,"lon":9.18951}},{"facility":"Policlinico \"G. Rodolico\"","status":"RECRUITING","city":"Catania","state":"Sicilia","zip":"95123","country":"Italy","geoPoint":{"lat":37.49223,"lon":15.07041}},{"facility":"Azienda Ospedaliero Universitaria Senese","status":"RECRUITING","city":"Siena","state":"Toscana","zip":"53100","country":"Italy","geoPoint":{"lat":43.31822,"lon":11.33064}},{"facility":"Azienda Ospedaliero Universitaria Ospedali Riuniti Umberto I - G.M. Lancisi - G. Salesi","status":"RECRUITING","city":"Ancona","zip":"60126","country":"Italy","geoPoint":{"lat":43.5942,"lon":13.50337}},{"facility":"IRCCS Azienda Ospedaliero-Universitaria di Bologna, Policlinico di Sant'Orsola","status":"RECRUITING","city":"Bologna","zip":"40138","country":"Italy","geoPoint":{"lat":44.49381,"lon":11.33875}},{"facility":"AOU Policlinico Umberto I","status":"RECRUITING","city":"Roma","zip":"00161","country":"Italy","geoPoint":{"lat":41.89193,"lon":12.51133}},{"facility":"Nagoya City University Hospital","status":"RECRUITING","city":"Nagoya","state":"Aichi","zip":"467-8602","country":"Japan","geoPoint":{"lat":35.18147,"lon":136.90641}},{"facility":"Gunma University Hospital","status":"RECRUITING","city":"Maebashi","state":"Gunma","zip":"371-8511","country":"Japan","geoPoint":{"lat":36.4,"lon":139.08333}},{"facility":"Kobe City Medical Center General Hospital","status":"RECRUITING","city":"Kobe-city","state":"Hyogo","zip":"650-0047","country":"Japan","geoPoint":{"lat":34.6913,"lon":135.183}},{"facility":"Iwate Medical University Hospital","status":"RECRUITING","city":"Yahaba-cho","state":"Iwate","zip":"028-3695","country":"Japan"},{"facility":"University Hospital,Kyoto Prefectural University of Medicine","status":"RECRUITING","city":"Kyoto-shi","state":"Kyoto","zip":"602-8566","country":"Japan","geoPoint":{"lat":35.02107,"lon":135.75385}},{"facility":"Tohoku University Hospital","status":"RECRUITING","city":"Sendai","state":"Miyagi","zip":"980-8574","country":"Japan","geoPoint":{"lat":38.26667,"lon":140.86667}},{"facility":"Hamamatsu University Hospital","status":"RECRUITING","city":"Hamamatsu-shi","state":"Shizuoka","zip":"431-3192","country":"Japan","geoPoint":{"lat":34.7,"lon":137.73333}},{"facility":"Shizuoka Cancer Center","status":"RECRUITING","city":"Sunto-gun","state":"Shizuoka","zip":"411-8777","country":"Japan"},{"facility":"Nippon Medical School Hospital","status":"RECRUITING","city":"Bunkyo-ku","state":"Tokyo","zip":"113-8603","country":"Japan","geoPoint":{"lat":35.37517,"lon":139.92991}},{"facility":"Kagoshima University Hospital","status":"RECRUITING","city":"Kagoshima","zip":"890-8520","country":"Japan","geoPoint":{"lat":31.56667,"lon":130.55}},{"facility":"National Hospital Organization Kumamoto Medical Center","status":"RECRUITING","city":"Kumamoto","zip":"860-0008","country":"Japan","geoPoint":{"lat":32.80589,"lon":130.69182}},{"facility":"University Hospital,Kyoto Prefectural University of Medicine","status":"RECRUITING","city":"Kyoto","zip":"602-8566","country":"Japan","geoPoint":{"lat":35.02107,"lon":135.75385}},{"facility":"National Hospital Organization Okayama Medical Center","status":"RECRUITING","city":"Okayama","zip":"701-1192","country":"Japan","geoPoint":{"lat":34.65,"lon":133.93333}},{"facility":"Osaka Metropolitan University Hospital","status":"RECRUITING","city":"Osaka","zip":"545-8586","country":"Japan","geoPoint":{"lat":34.69374,"lon":135.50218}},{"facility":"Japanese Red Cross Medical Center","status":"RECRUITING","city":"Tokyo","zip":"150-8935","country":"Japan","geoPoint":{"lat":35.6895,"lon":139.69171}},{"facility":"Yamagata University Hospital","status":"RECRUITING","city":"Yamagata","zip":"990-9585","country":"Japan","geoPoint":{"lat":38.23333,"lon":140.36667}},{"facility":"Gachon University Gil Medical Center","status":"ACTIVE_NOT_RECRUITING","city":"Namdong-gu","state":"Incheon-gwangyeoksi [incheon]","zip":"21565","country":"Korea, Republic of"},{"facility":"Chonnam National University Hwasun Hospital","status":"ACTIVE_NOT_RECRUITING","city":"Hwasun Gun","state":"Jeonranamdo","zip":"58128","country":"Korea, Republic of"},{"facility":"Seoul National University Bundang Hospital","status":"RECRUITING","city":"Seongnam","state":"Kyǒnggi-do","zip":"13620","country":"Korea, Republic of","geoPoint":{"lat":37.43861,"lon":127.13778}},{"facility":"Pusan National University Hospital","status":"TERMINATED","city":"Busan","state":"Pusan-kwangyǒkshi","zip":"49241","country":"Korea, Republic of","geoPoint":{"lat":35.10278,"lon":129.04028}},{"facility":"Seoul National University Hospital","status":"RECRUITING","city":"Seoul","state":"Seoul-teukbyeolsi [seoul]","zip":"03080","country":"Korea, Republic of","geoPoint":{"lat":37.566,"lon":126.9784}},{"facility":"Samsung Medical Center","status":"ACTIVE_NOT_RECRUITING","city":"Seoul","state":"Seoul-teukbyeolsi [seoul]","zip":"06351","country":"Korea, Republic of","geoPoint":{"lat":37.566,"lon":126.9784}},{"facility":"The Catholic Univ. of Korea Seoul St. Mary's Hospital(Seoul St. Mary's Hospital)","status":"ACTIVE_NOT_RECRUITING","city":"Seoul","state":"Seoul-teukbyeolsi [seoul]","zip":"06591","country":"Korea, Republic of","geoPoint":{"lat":37.566,"lon":126.9784}},{"facility":"The Catholic Univ. of Korea Seoul St. Mary's Hospital","status":"ACTIVE_NOT_RECRUITING","city":"Seoul","state":"Seoul-teukbyeolsi [seoul]","zip":"06591","country":"Korea, Republic of","geoPoint":{"lat":37.566,"lon":126.9784}},{"facility":"Kyungpook National University","status":"TERMINATED","city":"Daegu","state":"Taegu-kwangyǒkshi","zip":"41944","country":"Korea, Republic of","geoPoint":{"lat":35.87028,"lon":128.59111}},{"facility":"Kyungpook National University Hospital","status":"TERMINATED","city":"Jung-gu","state":"Taegu-kwangyǒkshi","zip":"41944","country":"Korea, Republic of"},{"facility":"HagaZiekenhuis","status":"RECRUITING","city":"Den Haag","state":"Zuid-holland","zip":"2545 AA","country":"Netherlands","geoPoint":{"lat":52.07667,"lon":4.29861}},{"facility":"Maastricht Universitair Medisch Centrum","status":"RECRUITING","city":"Maastricht","zip":"6229 HX","country":"Netherlands","geoPoint":{"lat":50.84833,"lon":5.68889}},{"facility":"Isala","status":"RECRUITING","city":"Zwolle","zip":"8025 AB","country":"Netherlands","geoPoint":{"lat":52.5125,"lon":6.09444}},{"facility":"Oslo Universitetssykehus Ullevål","status":"RECRUITING","city":"Oslo","zip":"0450","country":"Norway","geoPoint":{"lat":59.91273,"lon":10.74609}},{"facility":"Stavanger Universitetssykehus","status":"RECRUITING","city":"Stavanger","zip":"4011","country":"Norway","geoPoint":{"lat":58.97005,"lon":5.73332}},{"facility":"Centrum Medyczne Pratia Poznań","status":"ACTIVE_NOT_RECRUITING","city":"Skorzewo","state":"Wielkopolskie","zip":"60-185","country":"Poland"},{"facility":"Uniwersyteckie Centrum Kliniczne,","status":"ACTIVE_NOT_RECRUITING","city":"Gdansk","zip":"80-214","country":"Poland","geoPoint":{"lat":54.35205,"lon":18.64637}},{"facility":"Uniwersytecki Szpital Kliniczny w Poznaniu","status":"ACTIVE_NOT_RECRUITING","city":"Poznan","zip":"60-569","country":"Poland","geoPoint":{"lat":52.40692,"lon":16.92993}},{"facility":"Uniwersyteckie Centrum Kliniczne WUM Centralny Szpital Kliniczny","status":"ACTIVE_NOT_RECRUITING","city":"Warszawa","zip":"02-097","country":"Poland","geoPoint":{"lat":52.22977,"lon":21.01178}},{"facility":"Narodowy Instytut Onkologii im. Marii Sklodowskiej-Curie - Panstwowy Instytut Badawczy","status":"ACTIVE_NOT_RECRUITING","city":"Warszawa","zip":"02-781","country":"Poland","geoPoint":{"lat":52.22977,"lon":21.01178}},{"facility":"Uniwersytecki Szpital Kliniczny im. Jana Mikulicza-Radeckiego we Wroclawiu","status":"ACTIVE_NOT_RECRUITING","city":"Wroclaw","zip":"50-367","country":"Poland","geoPoint":{"lat":51.1,"lon":17.03333}},{"facility":"Pratia Onkologia Katowice","status":"ACTIVE_NOT_RECRUITING","city":"Katowice","state":"Śląskie","zip":"40-519","country":"Poland","geoPoint":{"lat":50.25841,"lon":19.02754}},{"facility":"Complejo Hospitalario Universitario de Santiago","status":"RECRUITING","city":"Santiago de Compostela","state":"A Coruna","zip":"15706","country":"Spain","geoPoint":{"lat":42.88052,"lon":-8.54569}},{"facility":"Hospital Universitari Vall d'Hebron","status":"RECRUITING","city":"Barcelona","state":"Barcelona [barcelona]","zip":"08035","country":"Spain","geoPoint":{"lat":41.38879,"lon":2.15899}},{"facility":"Institut Català d'Oncologia - L'Hospitalet","status":"RECRUITING","city":"L'Hospitalet Del Llobregat","state":"Barcelona [barcelona]","zip":"08908","country":"Spain"},{"facility":"Hospital Universitari Mutua Terrassa","status":"RECRUITING","city":"Terrassa","state":"Barcelona [barcelona]","zip":"08221","country":"Spain","geoPoint":{"lat":41.56667,"lon":2.01667}},{"facility":"Institut Catala d' Oncologia. Hospital Germans Trias i Pujol","status":"RECRUITING","city":"Badalona","state":"Barcelona","zip":"08916","country":"Spain","geoPoint":{"lat":41.45004,"lon":2.24741}},{"facility":"Hospital Universitari Mutua Terrassa","status":"RECRUITING","city":"Terrassa","state":"Barcelona","zip":"08221","country":"Spain","geoPoint":{"lat":41.56667,"lon":2.01667}},{"facility":"Hospital Universitario de Salamanca","status":"RECRUITING","city":"Salamanca","state":"Castilla Y LEÓN","zip":"37007","country":"Spain","geoPoint":{"lat":40.96882,"lon":-5.66388}},{"facility":"Hospital Clínic de Barcelona","status":"RECRUITING","city":"Barcelona","state":"Catalunya [cataluña]","zip":"08036","country":"Spain","geoPoint":{"lat":41.38879,"lon":2.15899}},{"facility":"Clinica Universidad de Navarra","status":"RECRUITING","city":"Madrid","state":"Madrid, Comunidad DE","zip":"28027","country":"Spain","geoPoint":{"lat":40.4165,"lon":-3.70256}},{"facility":"Hospital Universitario La Paz","status":"RECRUITING","city":"Madrid","state":"Madrid, Comunidad DE","zip":"28046","country":"Spain","geoPoint":{"lat":40.4165,"lon":-3.70256}},{"facility":"Hospital Universitario Quironsalud Madrid","status":"RECRUITING","city":"Pozuelo de Alarcon","state":"Madrid","zip":"28223","country":"Spain","geoPoint":{"lat":40.43293,"lon":-3.81338}},{"facility":"Hospital San Pedro de Alcántara","status":"RECRUITING","city":"Cáceres","zip":"10003","country":"Spain","geoPoint":{"lat":39.47649,"lon":-6.37224}},{"facility":"Institut Catala Oncologia - Hospital Universitari de Girona Dr Josep Trueta","status":"RECRUITING","city":"Gerona","zip":"17007","country":"Spain","geoPoint":{"lat":41.98311,"lon":2.82493}},{"facility":"Hospital La Princesa","status":"RECRUITING","city":"Madrid","zip":"28006","country":"Spain","geoPoint":{"lat":40.4165,"lon":-3.70256}},{"facility":"Hospital General Universitario Gregorio Marañon","status":"RECRUITING","city":"Madrid","zip":"28007","country":"Spain","geoPoint":{"lat":40.4165,"lon":-3.70256}},{"facility":"Hospital Universitario 12 de Octubre","status":"RECRUITING","city":"Madrid","zip":"28041","country":"Spain","geoPoint":{"lat":40.4165,"lon":-3.70256}},{"facility":"Hospital Universitario HM Sanchinarro","status":"RECRUITING","city":"Madrid","zip":"28050","country":"Spain","geoPoint":{"lat":40.4165,"lon":-3.70256}},{"facility":"Hospital Universitario de Salamanca - Complejo Asistencial Universitario de Salamanca","status":"RECRUITING","city":"Salamanca","zip":"37007","country":"Spain","geoPoint":{"lat":40.96882,"lon":-5.66388}},{"facility":"Hospital Universitari i Politecnic La Fe","status":"RECRUITING","city":"València","zip":"46026","country":"Spain","geoPoint":{"lat":39.46975,"lon":-0.37739}},{"facility":"Helsingborgs Lasarett","status":"RECRUITING","city":"Helsingborg","state":"Skåne LÄN [se-12]","zip":"251 87","country":"Sweden","geoPoint":{"lat":56.04673,"lon":12.69437}},{"facility":"Karolinska Universitetssjukhuset Huddinge","status":"RECRUITING","city":"Stockholm","state":"Stockholms LÄN [se-01]","zip":"141 86","country":"Sweden","geoPoint":{"lat":59.33258,"lon":18.0649}},{"facility":"Södra Älvsborgs Sjukhus Borås","status":"RECRUITING","city":"Borås","state":"Västra Götalands LÄN [se-14]","zip":"501 82","country":"Sweden","geoPoint":{"lat":57.72101,"lon":12.9401}},{"facility":"Falu Lasarett","status":"RECRUITING","city":"Falun","zip":"791 31","country":"Sweden","geoPoint":{"lat":60.60357,"lon":15.62597}},{"facility":"Universitetssjukhuset Örebro","status":"RECRUITING","city":"Örebro","state":"Örebro LÄN [se-18]","zip":"701 85","country":"Sweden","geoPoint":{"lat":59.27412,"lon":15.2066}},{"facility":"Universitetssjukhuset i Linköping","status":"RECRUITING","city":"Linköping","state":"Östergötlands LÄN [se-05]","zip":"581 85","country":"Sweden","geoPoint":{"lat":58.41086,"lon":15.62157}},{"facility":"CHUV (centre hospitalier universitaire vaudois)","status":"RECRUITING","city":"Lausanne","state":"Vaud","zip":"1011","country":"Switzerland","geoPoint":{"lat":46.516,"lon":6.63282}},{"facility":"UniversitätsSpital Zürich","status":"RECRUITING","city":"Zürich","state":"Zürich (DE)","zip":"8091","country":"Switzerland","geoPoint":{"lat":47.36667,"lon":8.54999}},{"facility":"Kantonsspital Baden","status":"RECRUITING","city":"Baden","zip":"5404","country":"Switzerland","geoPoint":{"lat":47.47333,"lon":8.30592}},{"facility":"Inselspital Bern","status":"RECRUITING","city":"Berne","zip":"3010","country":"Switzerland","geoPoint":{"lat":46.94809,"lon":7.44744}},{"facility":"Kantonsspital Winterthur","status":"RECRUITING","city":"Winterthur","zip":"8401","country":"Switzerland","geoPoint":{"lat":47.50564,"lon":8.72413}},{"facility":"China Medical University Hospital","status":"RECRUITING","city":"Taichung","zip":"40447","country":"Taiwan","geoPoint":{"lat":24.1469,"lon":120.6839}},{"facility":"Taichung Veterans General Hospital","status":"RECRUITING","city":"Taichung","zip":"407","country":"Taiwan","geoPoint":{"lat":24.1469,"lon":120.6839}},{"facility":"National Taiwan University Hospital","status":"RECRUITING","city":"Taipei","zip":"10002","country":"Taiwan","geoPoint":{"lat":25.04776,"lon":121.53185}},{"facility":"Taipei Veterans General Hospital","status":"RECRUITING","city":"Taipei","zip":"11217","country":"Taiwan","geoPoint":{"lat":25.04776,"lon":121.53185}},{"facility":"Chang Gung Medical Foundation-Linkou Branch","status":"RECRUITING","city":"Taoyuan","zip":"333","country":"Taiwan","geoPoint":{"lat":24.95233,"lon":121.20193}},{"facility":"Medipol Mega Universite Hastanesi","status":"ACTIVE_NOT_RECRUITING","city":"İstanbul","state":"İ̇stanbul","zip":"34214","country":"Turkey","geoPoint":{"lat":41.01384,"lon":28.94966}},{"facility":"Sisli Florence Nightingale Hastanesi","status":"TERMINATED","city":"İstanbul","state":"İ̇stanbul","zip":"34381","country":"Turkey","geoPoint":{"lat":41.01384,"lon":28.94966}},{"facility":"Ege Universitesi Hastanesi","status":"ACTIVE_NOT_RECRUITING","city":"Izmir","state":"İ̇zmir","zip":"35100","country":"Turkey","geoPoint":{"lat":38.41273,"lon":27.13838}},{"facility":"Dokuz Eylul Universitesi Hastanesi","status":"ACTIVE_NOT_RECRUITING","city":"İzmir","state":"İ̇zmir","zip":"35340","country":"Turkey","geoPoint":{"lat":38.41273,"lon":27.13838}},{"facility":"Ankara University Health Practice and Research Hospitals","status":"ACTIVE_NOT_RECRUITING","city":"Ankara","zip":"06100","country":"Turkey","geoPoint":{"lat":39.91987,"lon":32.85427}},{"facility":"Dr. Abdurrahman Yurtaslan Ankara Onkoloji Egitim ve Arastırma Hastanesi","status":"ACTIVE_NOT_RECRUITING","city":"Ankara","zip":"06200","country":"Turkey","geoPoint":{"lat":39.91987,"lon":32.85427}},{"facility":"Aydın Adnan Menderes Universitesi Hastanesi","status":"ACTIVE_NOT_RECRUITING","city":"Aydin","zip":"09100","country":"Turkey","geoPoint":{"lat":37.84501,"lon":27.83963}},{"facility":"Erciyes Universitesi Tıp Fakultesi Hastaneleri","status":"TERMINATED","city":"Kayseri","zip":"38030","country":"Turkey","geoPoint":{"lat":38.73222,"lon":35.48528}},{"facility":"Özel Anadolu Sağlık Merkezi","status":"ACTIVE_NOT_RECRUITING","city":"Kocaeli","zip":"41400","country":"Turkey","geoPoint":{"lat":39.62497,"lon":27.51145}},{"facility":"Addenbrooke's Hospital","status":"RECRUITING","city":"Cambridge","state":"Cambridgeshire","zip":"CB2 2QQ","country":"United Kingdom","geoPoint":{"lat":52.2,"lon":0.11667}},{"facility":"Queen Elizabeth Hospital Birmingham","status":"RECRUITING","city":"Birmingham","state":"England","zip":"B15 2TH","country":"United Kingdom","geoPoint":{"lat":52.48142,"lon":-1.89983}},{"facility":"Belfast City Hospital","status":"RECRUITING","city":"Belfast","zip":"BT9 7AB","country":"United Kingdom","geoPoint":{"lat":54.59682,"lon":-5.92541}},{"facility":"The Beatson West of Scotland Cancer Centre","status":"RECRUITING","city":"Glasgow","zip":"G12 0YN","country":"United Kingdom","geoPoint":{"lat":55.86515,"lon":-4.25763}},{"facility":"Royal Berkshire Hospital","status":"RECRUITING","city":"Reading","zip":"RG1 5AN","country":"United Kingdom","geoPoint":{"lat":51.45625,"lon":-0.97113}},{"facility":"New Cross Hospital","status":"RECRUITING","city":"Wolverhampton","zip":"WV10 0QP","country":"United Kingdom","geoPoint":{"lat":52.58547,"lon":-2.12296}}]},"referencesModule":{"seeAlsoLinks":[{"label":"To obtain contact information for a study center near you, click here.","url":"https://pmiform.com/clinical-trial-info-request?StudyID=C1071007"}]},"ipdSharingStatementModule":{"ipdSharing":"YES","description":"Pfizer will provide access to individual de-identified participant data and related study documents (e.g. protocol, Statistical Analysis Plan (SAP), Clinical Study Report (CSR)) upon request from qualified researchers, and subject to certain criteria, conditions, and exceptions. Further details on Pfizer's data sharing criteria and process for requesting access can be found at: https://www.pfizer.com/science/clinical_trials/trial_data_and_results/data_requests.","url":"https://www.pfizer.com/science/clinical_trials/trial_data_and_results/data_requests"}},"derivedSection":{"miscInfoModule":{"versionHolder":"2025-07-07"},"conditionBrowseModule":{"meshes":[{"id":"D009101","term":"Multiple Myeloma"},{"id":"D054219","term":"Neoplasms, Plasma Cell"}],"ancestors":[{"id":"D009370","term":"Neoplasms by Histologic Type"},{"id":"D009369","term":"Neoplasms"},{"id":"D020141","term":"Hemostatic Disorders"},{"id":"D014652","term":"Vascular Diseases"},{"id":"D002318","term":"Cardiovascular Diseases"},{"id":"D010265","term":"Paraproteinemias"},{"id":"D001796","term":"Blood Protein Disorders"},{"id":"D006402","term":"Hematologic Diseases"},{"id":"D006474","term":"Hemorrhagic Disorders"},{"id":"D008232","term":"Lymphoproliferative Disorders"},{"id":"D007160","term":"Immunoproliferative Disorders"},{"id":"D007154","term":"Immune System Diseases"}],"browseLeaves":[{"id":"M12058","name":"Multiple Myeloma","asFound":"Multiple Myeloma","relevance":"HIGH"},{"id":"M27588","name":"Neoplasms, Plasma Cell","asFound":"Multiple Myeloma","relevance":"HIGH"},{"id":"M9490","name":"Hematologic Diseases","relevance":"LOW"},{"id":"M12315","name":"Neoplasms by Histologic Type","relevance":"LOW"},{"id":"M21977","name":"Hemostatic Disorders","relevance":"LOW"},{"id":"M5059","name":"Blood Coagulation Disorders","relevance":"LOW"},{"id":"M17400","name":"Vascular Diseases","relevance":"LOW"},{"id":"M13178","name":"Paraproteinemias","relevance":"LOW"},{"id":"M5077","name":"Blood Protein Disorders","relevance":"LOW"},{"id":"M9560","name":"Hemorrhagic Disorders","relevance":"LOW"},{"id":"M11225","name":"Lymphoproliferative Disorders","relevance":"LOW"},{"id":"M10206","name":"Immunoproliferative Disorders","relevance":"LOW"},{"id":"M10200","name":"Immune System Diseases","relevance":"LOW"},{"id":"T3947","name":"Multiple Myeloma","asFound":"Multiple Myeloma","relevance":"HIGH"}],"browseBranches":[{"abbrev":"BC04","name":"Neoplasms"},{"abbrev":"BC14","name":"Heart and Blood Diseases"},{"abbrev":"BC15","name":"Blood and Lymph Conditions"},{"abbrev":"BC20","name":"Immune System Diseases"},{"abbrev":"All","name":"All Conditions"},{"abbrev":"Rare","name":"Rare Diseases"}]},"interventionBrowseModule":{"meshes":[{"id":"D000077269","term":"Lenalidomide"}],"ancestors":[{"id":"D007155","term":"Immunologic Factors"},{"id":"D045505","term":"Physiological Effects of Drugs"},{"id":"D020533","term":"Angiogenesis Inhibitors"},{"id":"D043924","term":"Angiogenesis Modulating Agents"},{"id":"D006133","term":"Growth Substances"},{"id":"D006131","term":"Growth Inhibitors"},{"id":"D000970","term":"Antineoplastic Agents"}],"browseLeaves":[{"id":"M2853","name":"Immunomodulating Agents","relevance":"LOW"},{"id":"M4225","name":"Antibodies","relevance":"LOW"},{"id":"M10184","name":"Immunoglobulins","relevance":"LOW"},{"id":"M4230","name":"Antibodies, Monoclonal","relevance":"LOW"},{"id":"M20194","name":"Antibodies, Bispecific","relevance":"LOW"},{"id":"M1725","name":"Lenalidomide","asFound":"Counseling","relevance":"HIGH"},{"id":"M10201","name":"Immunologic Factors","relevance":"LOW"},{"id":"M22318","name":"Angiogenesis Inhibitors","relevance":"LOW"},{"id":"M9231","name":"Growth Inhibitors","relevance":"LOW"}],"browseBranches":[{"abbrev":"All","name":"All Drugs and Chemicals"},{"abbrev":"ANeo","name":"Antineoplastic Agents"}]}},"hasResults":false}