{"protocolSection":{"identificationModule":{"nctId":"NCT06662786","orgStudyIdInfo":{"id":"61186372COR3001"},"secondaryIdInfos":[{"id":"61186372COR3001","type":"OTHER","domain":"Janssen Research & Development, LLC"},{"id":"2024-513852-13-00","type":"REGISTRY","domain":"EUCT number"}],"organization":{"fullName":"Janssen Research & Development, LLC","class":"INDUSTRY"},"briefTitle":"A Study of Amivantamab and mFOLFOX6 or FOLFIRI Versus Cetuximab and mFOLFOX6 or FOLFIRI as First-line Treatment in Participants With KRAS/NRAS and BRAF Wild-type Unresectable or Metastatic Left-sided Colorectal Cancer","officialTitle":"A Randomized, Open-label Phase 3 Study of Amivantamab and mFOLFOX6 or FOLFIRI Versus Cetuximab and mFOLFOX6 or FOLFIRI as First-line Treatment in Participants With KRAS/NRAS and BRAF Wild-type Unresectable or Metastatic Left-sided Colorectal Cancer","acronym":"OrigAMI-2"},"statusModule":{"statusVerifiedDate":"2025-06","overallStatus":"RECRUITING","expandedAccessInfo":{"hasExpandedAccess":true,"nctId":"NCT04599712","statusForNctId":"APPROVED_FOR_MARKETING"},"startDateStruct":{"date":"2024-10-18","type":"ACTUAL"},"primaryCompletionDateStruct":{"date":"2028-12-15","type":"ESTIMATED"},"completionDateStruct":{"date":"2032-12-15","type":"ESTIMATED"},"studyFirstSubmitDate":"2024-10-28","studyFirstSubmitQcDate":"2024-10-28","studyFirstPostDateStruct":{"date":"2024-10-29","type":"ACTUAL"},"lastUpdateSubmitDate":"2025-06-20","lastUpdatePostDateStruct":{"date":"2025-06-22","type":"ACTUAL"}},"sponsorCollaboratorsModule":{"responsibleParty":{"type":"SPONSOR"},"leadSponsor":{"name":"Janssen Research & Development, LLC","class":"INDUSTRY"}},"oversightModule":{"oversightHasDmc":true,"isFdaRegulatedDrug":true,"isFdaRegulatedDevice":false},"descriptionModule":{"briefSummary":"The purpose of this study is to compare how long the participants are disease-free (progression-free survival) when treated with amivantamab and chemotherapy with 5-fluorouracil, leucovorin calcium (folinic acid) or levoleucovorin, oxaliplatin (mFOLFOX6) or 5-fluorouracil, leucovorin calcium (folinic acid) or levoleucovorin, and irinotecan hydrochloride (FOLFIRI) versus cetuximab and mFOLFOX6 or FOLFIRI in adult participants with Kirsten rat sarcoma viral oncogene homolog (KRAS)/ Neuroblastoma RAS viral oncogene homolog (NRAS) and v-Raf murine sarcoma viral oncogene homolog B1 (BRAF) wild type (WT) unresectable or metastatic left-sided colorectal cancer."},"conditionsModule":{"conditions":["Colorectal Neoplasms"]},"designModule":{"studyType":"INTERVENTIONAL","phases":["PHASE3"],"designInfo":{"allocation":"RANDOMIZED","interventionModel":"PARALLEL","primaryPurpose":"TREATMENT","maskingInfo":{"masking":"NONE"}},"enrollmentInfo":{"count":1000,"type":"ESTIMATED"}},"armsInterventionsModule":{"armGroups":[{"label":"Arm A: Amivantamab in Combination With Chemotherapy","type":"EXPERIMENTAL","description":"Participants will receive amivantamab in combination with chemotherapy (mFOLFOX6 \\[chemotherapy consisting of 5-fluorouracil, leucovorin calcium (folinic acid) or levoleucovorin, and oxaliplatin\\] or FOLFIRI \\[chemotherapy consisting of 5-fluorouracil, leucovorin calcium (folinic acid) or levoleucovorin, and irinotecan hydrochloride\\]) for 28-days treatment cycles and will continue to receive the treatment until radiographic disease progression or other discontinuation criteria are met.","interventionNames":["Biological: Amivantamab","Drug: 5-fluorouracil","Drug: Leucovorin calcium/Levoleucovorin","Drug: Oxaliplatin","Drug: Irinotecan Hydrochloride"]},{"label":"Arm B: Cetuximab in Combination With Chemotherapy","type":"ACTIVE_COMPARATOR","description":"Participants will receive cetuximab in combination with chemotherapy (mFOLFOX6 or FOLFIRI) for 28-days treatment cycles and will continue to receive the treatment until radiographic disease progression or other discontinuation criteria are met.","interventionNames":["Biological: Cetuximab","Drug: 5-fluorouracil","Drug: Leucovorin calcium/Levoleucovorin","Drug: Oxaliplatin","Drug: Irinotecan Hydrochloride"]}],"interventions":[{"type":"BIOLOGICAL","name":"Amivantamab","description":"Amivantamab will be administered.","armGroupLabels":["Arm A: Amivantamab in Combination With Chemotherapy"],"otherNames":["JNJ-61186372"]},{"type":"BIOLOGICAL","name":"Cetuximab","description":"Cetuximab will be administered.","armGroupLabels":["Arm B: Cetuximab in Combination With Chemotherapy"],"otherNames":["Erbitux"]},{"type":"DRUG","name":"5-fluorouracil","description":"5-fluorouracil will be administered as chemotherapy regimen.","armGroupLabels":["Arm A: Amivantamab in Combination With Chemotherapy","Arm B: Cetuximab in Combination With Chemotherapy"]},{"type":"DRUG","name":"Leucovorin calcium/Levoleucovorin","description":"Leucovorin calcium/Levoleucovorin will be administered as chemotherapy regimen.","armGroupLabels":["Arm A: Amivantamab in Combination With Chemotherapy","Arm B: Cetuximab in Combination With Chemotherapy"]},{"type":"DRUG","name":"Oxaliplatin","description":"Oxaliplatin will be administered as chemotherapy regimen.","armGroupLabels":["Arm A: Amivantamab in Combination With Chemotherapy","Arm B: Cetuximab in Combination With Chemotherapy"]},{"type":"DRUG","name":"Irinotecan Hydrochloride","description":"Irinotecan hydrochloride will be administered as chemotherapy regimen.","armGroupLabels":["Arm A: Amivantamab in Combination With Chemotherapy","Arm B: Cetuximab in Combination With Chemotherapy"]}]},"outcomesModule":{"primaryOutcomes":[{"measure":"Progression-Free Survival (PFS) as Assessed by Blinded Independent Central Review (BICR)","description":"PFS is defined as the time from randomization until the date of objective disease progression or death (due to any cause), whichever comes first, as assessed by BICR using response evaluation criteria in solid tumors (RECIST) version (v) 1.1. Participants who have not progressed or have not died at the time of analysis will be censored at their last evaluable RECIST v1.1 assessment date.","timeFrame":"Up to 4 years and 2 months"}],"secondaryOutcomes":[{"measure":"Overall Survival (OS)","description":"OS is defined as the time from the date of randomization to the date of participant's death due to any cause. Any participant not known to have died at the time of analysis will be censored based on the last recorded date on which the participant was known to be alive.","timeFrame":"Up to 7 Years 3 Months"},{"measure":"Objective Response Rate (ORR) as Assessed by BICR","description":"ORR is defined as the percentage of randomized participants achieving complete response (CR) or partial response (PR), as determined by BICR using RECIST v1.1 criteria.","timeFrame":"Up to 7 Years 3 Months"},{"measure":"Progression Free Survival (PFS) as Assessed by Investigator","description":"PFS is defined as the time from randomization until the date of objective disease progression or death (due to any cause), whichever comes first, as assessed by the investigator.","timeFrame":"Up to 7 Years 3 Months"},{"measure":"Objective Response Rate (ORR) as Assessed by Investigator","description":"ORR is defined as the percentage of randomized participants achieving complete CR or PR, as assessed by the investigator.","timeFrame":"Up to 7 Years 3 Months"},{"measure":"Duration of Response (DOR) as Assessed by BICR","description":"DOR is defined as time from the date of first documented response (CR or PR) until the date of documented progression or death, whichever comes first, for participants who have PR or CR, as assessed by BICR using RECIST v1.1 criteria.","timeFrame":"Up to 7 Years 3 Months"},{"measure":"Duration of Response (DOR) as Assessed Investigator","description":"DOR is defined as time from the date of first documented response (CR or PR) until the date of documented progression or death, whichever comes first, for participants who have PR or CR, as assessed by the investigator.","timeFrame":"Up to 7 Years 3 Months"},{"measure":"Progression-free Survival After Subsequent Therapy (PFS2)","description":"PFS2 is defined as the time from randomization until the date of second objective disease progression, after initiation of subsequent anticancer therapy, based on investigator assessment (after that used for PFS) or death, whichever comes first.","timeFrame":"Up to 7 Years 3 Months"},{"measure":"Disease Control Rate (DCR) as Assessed by BICR","description":"DCR is defined as the percentage of randomized participants achieving CR, PR, or stable disease (with minimum duration of 7 weeks) as assessed by BICR using RECIST v1.1 criteria.","timeFrame":"Up to 7 Years 3 Months"},{"measure":"Disease Control Rate (DCR) as Assessed by Investigator","description":"DCR is defined as the percentage of randomized participants achieving CR, PR, or stable disease (with minimum duration of 7 weeks) as assessed by the investigator.","timeFrame":"Up to 7 Years 3 Months"},{"measure":"Time to Treatment Failure","description":"Time to treatment failure is defined as time from randomization to discontinuation of therapy for any reason including death, progression, toxicity, or initiation of new anticancer therapy.","timeFrame":"Up to 7 Years 3 Months"},{"measure":"Curative Resection (R0) Rate","description":"Curative resection (R0) rate is defined as the percentage of participants (or participants with limited disease at baseline) who underwent curative surgery.","timeFrame":"Up to 7 Years 3 Months"},{"measure":"Number of Participants with Adverse Events (AEs) by Severity","description":"An AE can be any unfavorable and unintended sign (including an abnormal finding), symptom, or disease temporally associated with the use of a medicinal (investigational or non-investigational) product, whether or not related to that medicinal (investigational or non-investigational) product. AE severity will be graded according to the national cancer institute common terminology criteria for adverse events (NCI-CTCAE) v5.0. by using the standard grades as follows: Grade 1: Mild; asymptomatic or mild symptoms; Grade 2: Moderate; minimal, local or noninvasive intervention indicated; Grade 3: Severe or medically significant but not immediately life threatening; hospitalization or prolongation of hospitalization indicated; Grade 4: Life-threatening consequences; and Grade 5: Death related to AE.","timeFrame":"Up to 7 Years 3 Months"},{"measure":"Number of Participants with Abnormalities in Laboratory Values","description":"Participants with abnormalities in laboratory values (such as serum chemistry, hematology) will be reported.","timeFrame":"Up to 7 Years 3 Months"},{"measure":"Change From Baseline in European Organization for the Research and Treatment of Cancer Quality of Life Questionnaire (EORTC QLQ-C30) Score","description":"The EORTC QLQ-C30, is a self-administered, 30-item questionnaire measuring the health-related quality of life (HRQoL) of participants with cancer. EORTC QLQ-C30 includes 5 functional scales, 3 symptom scales, a global health status / quality of life scale, and 6 single items. Responses to items 1-28 are rated on a 4-point Likert response scale ranging from 1 \"Not at all\" to 4 \"Very much.\" Two global health status items are rated on a 7-point numeric rating scale from 1 \"Very Poor\" to 7 \"Excellent.\" Higher scores indicate greater functioning, better global health status, and more severe symptoms.","timeFrame":"From Baseline up to 7 Years 3 Months"},{"measure":"Time to Worsening in Symptoms and Functioning as Measured by EORTC QLQ-C30","description":"The EORTC QLQ-C30, is a self-administered, 30-item questionnaire measuring the HRQoL of participants with cancer. EORTC QLQ-C30 includes 5 functional scales, 3 symptom scales, a global health status / quality of life scale, and 6 single items. Responses to items 1-28 are rated on a 4-point Likert response scale ranging from 1 \"Not at all\" to 4 \"Very much.\" Two global health status items are rated on a 7-point numeric rating scale from 1 \"Very Poor\" to 7 \"Excellent.\" Higher scores indicate greater functioning, better global health status, and more severe symptom.","timeFrame":"Up to 7 Years 3 Months"},{"measure":"Change from Baseline in European Organisation for Research and Treatment of Cancer Quality of Life Questionnaire Colorectal Cancer Module 29 (EORTC-QLQ-C30) Score","description":"The EORTC QLQ-CR29, is a self-administered, 29-item questionnaire measuring the HRQoL of participants with colorectal cancer. The QLQ CR29 includes items that evaluate symptoms (gastrointestinal, urinary, pain, and others) and functional areas (sexual, body image, weight, and anxiety) that are associated with colorectal cancer and its treatments. Responses are rated on a 4-point Likert response scale ranging from 1 \"Not at all\" to 4 \"Very much\". All scores are linearly converted into a scale from 0 to 100. Higher scores indicate greater functioning and more severe symptoms.","timeFrame":"From Baseline up to 7 Years 3 Months"},{"measure":"Time to Worsening in Symptoms and Functioning as Measured by EORTC QLQ-CR29","description":"The EORTC QLQ-CR29, is a self-administered, 29-item questionnaire measuring the HRQoL of participants with colorectal cancer. The QLQ CR29 includes items that evaluate symptoms (gastrointestinal, urinary, pain, and others) and functional areas (sexual, body image, weight, and anxiety) that are associated with colorectal cancer and its treatments. Responses are rated on a 4-point Likert response scale ranging from 1 \"Not at all\" to 4 \"Very much\". All scores are linearly converted into a scale from 0 to 100. Higher scores indicate greater functioning and more severe symptoms.","timeFrame":"Up to 7 Years 3 Months"},{"measure":"Overall Side Effect Burden as Measured by European Organisation for Research and Treatment of Cancer (EORTC) Item 168 Scale Score","description":"The EORTC item 168 is a single item used to measure the overall impact of treatment side effects. Responses are rated on a 4-point Likert response scale ranging from 1 \"not at all\" to 4 \"very much.\" Higher scores indicate severe side effects.","timeFrame":"Up to 7 Years 3 Months"}]},"eligibilityModule":{"eligibilityCriteria":"Inclusion Criteria:\n\n* Have histologically or cytologically confirmed adenocarcinoma of the left-sided colorectal cancer. Participants must have unresectable or metastatic disease\n* Be diagnosed to have Kirsten rat sarcoma viral oncogene (KRAS), neuroblastoma RAS viral oncogene homolog (NRAS), and v-raf murine sarcoma viral oncogene homolog B (BRAF) wild-type (WT) tumor as determined by local testing\n* Must agree to the submission of fresh tumor tissue\n* Have measurable disease according to RECIST v1.1\n* Have an eastern cooperative oncology group (ECOG) performance status (PS) of 0 or 1\n\nExclusion Criteria:\n\n* Has medical history of (noninfectious) interstitial lung disease (ILD) /pneumonitis/pulmonary fibrosis or has current ILD/pneumonitis/pulmonary fibrosis, or where suspected ILD/pneumonitis/pulmonary fibrosis cannot be ruled out by imaging at screening\n* Has known allergies, hypersensitivity, or intolerance to excipients of any of the following: (a) amivantamab or cetuximab, (b) any component of mFOLFOX6 and, (c) any component of FOLFIRI\n* Has a prior or concurrent second malignancy other than the disease under study or one whose natural history or treatment is unlikely to interfere with any study endpoints of safety or the efficacy of the study treatment(s)\n* Participant with known mismatch repair deficiency (dMMR)/ high microsatellite instability (MSI-H) status and human epidermal growth factor receptor 2 (HER2)-positive/amplified tumor\n* Has prior exposure to any agents that target epidermal growth factor receptor (EGFR) or mesenchymal epithelial transition (MET)","healthyVolunteers":false,"sex":"ALL","minimumAge":"18 Years","stdAges":["ADULT","OLDER_ADULT"]},"contactsLocationsModule":{"centralContacts":[{"name":"Study Contact","role":"CONTACT","phone":"844-434-4210","email":"Participate-In-This-Study1@its.jnj.com"}],"overallOfficials":[{"name":"Janssen Research & Development, LLC Clinical Trial","affiliation":"Janssen Research & Development, LLC","role":"STUDY_DIRECTOR"}],"locations":[{"facility":"Banner MD Anderson Cancer Center","status":"RECRUITING","city":"Gilbert","state":"Arizona","zip":"85234","country":"United States","geoPoint":{"lat":33.35283,"lon":-111.78903}},{"facility":"St. Bernard's Medical Center","status":"RECRUITING","city":"Jonesboro","state":"Arkansas","zip":"72401","country":"United States","geoPoint":{"lat":35.8423,"lon":-90.70428}},{"facility":"CBCC Global Research","status":"RECRUITING","city":"Bakersfield","state":"California","zip":"93309","country":"United States","geoPoint":{"lat":35.37329,"lon":-119.01871}},{"facility":"Los Angeles Cancer Network","status":"RECRUITING","city":"Glendale","state":"California","zip":"91204","country":"United States","geoPoint":{"lat":34.14251,"lon":-118.25508}},{"facility":"Cancer and Blood Specialty Clinic","status":"RECRUITING","city":"Los Alamitos","state":"California","zip":"90720","country":"United States","geoPoint":{"lat":33.80307,"lon":-118.07256}},{"facility":"USC Norris Comprehensive Cancer Center","status":"RECRUITING","city":"Los Angeles","state":"California","zip":"90033","country":"United States","geoPoint":{"lat":34.05223,"lon":-118.24368}},{"facility":"Providence Medical Foundation","status":"RECRUITING","city":"Santa Rosa","state":"California","zip":"95403","country":"United States","geoPoint":{"lat":38.44047,"lon":-122.71443}},{"facility":"Torrance Memorial Physicians Network","status":"RECRUITING","city":"Torrance","state":"California","zip":"90505","country":"United States","geoPoint":{"lat":33.83585,"lon":-118.34063}},{"facility":"Rocky Mountain Cancer Centers","status":"RECRUITING","city":"Denver","state":"Colorado","zip":"80218","country":"United States","geoPoint":{"lat":39.73915,"lon":-104.9847}},{"facility":"Yale University School Of Medicine","status":"RECRUITING","city":"New Haven","state":"Connecticut","zip":"06519","country":"United States","geoPoint":{"lat":41.30815,"lon":-72.92816}},{"facility":"Georgetown Univ Medical Center Lombardi Cancer Center","status":"RECRUITING","city":"Washington","state":"District of Columbia","zip":"20007","country":"United States","geoPoint":{"lat":38.89511,"lon":-77.03637}},{"facility":"Florida Cancer Specialists South","status":"RECRUITING","city":"Fort Myers","state":"Florida","zip":"33901","country":"United States","geoPoint":{"lat":26.62168,"lon":-81.84059}},{"facility":"Florida Cancer Specialists North Region","status":"RECRUITING","city":"Saint Petersburg","state":"Florida","zip":"33705","country":"United States","geoPoint":{"lat":27.77086,"lon":-82.67927}},{"facility":"Florida Cancer Specialists East","status":"RECRUITING","city":"West Palm Beach","state":"Florida","zip":"33401-3406","country":"United States","geoPoint":{"lat":26.71534,"lon":-80.05337}},{"facility":"Grady Memorial Hospital","status":"RECRUITING","city":"Atlanta","state":"Georgia","zip":"30303","country":"United States","geoPoint":{"lat":33.749,"lon":-84.38798}},{"facility":"Winship Cancer Institute Emory University","status":"RECRUITING","city":"Atlanta","state":"Georgia","zip":"30322","country":"United States","geoPoint":{"lat":33.749,"lon":-84.38798}},{"facility":"Fort Wayne Medical Oncology & Hematology","status":"RECRUITING","city":"Fort Wayne","state":"Indiana","zip":"46804","country":"United States","geoPoint":{"lat":41.1306,"lon":-85.12886}},{"facility":"Ochsner Clinic Foundation","status":"RECRUITING","city":"New Orleans","state":"Louisiana","zip":"70121","country":"United States","geoPoint":{"lat":29.95465,"lon":-90.07507}},{"facility":"MedStar Franklin Square Medical Center","status":"RECRUITING","city":"Baltimore","state":"Maryland","zip":"21237","country":"United States","geoPoint":{"lat":39.29038,"lon":-76.61219}},{"facility":"VA Ann Arbor Healthcare System","status":"RECRUITING","city":"Ann Arbor","state":"Michigan","zip":"48105","country":"United States","geoPoint":{"lat":42.27756,"lon":-83.74088}},{"facility":"Hattiesburg Clinic","status":"RECRUITING","city":"Hattiesburg","state":"Mississippi","zip":"39401","country":"United States","geoPoint":{"lat":31.32712,"lon":-89.29034}},{"facility":"Washington University School Of Medicine","status":"RECRUITING","city":"Saint Louis","state":"Missouri","zip":"63110","country":"United States","geoPoint":{"lat":38.62727,"lon":-90.19789}},{"facility":"Nebraska Cancer Specialists Midwest Cancer Center","status":"RECRUITING","city":"Omaha","state":"Nebraska","zip":"68130","country":"United States","geoPoint":{"lat":41.25626,"lon":-95.94043}},{"facility":"Comprehensive Cancer Centers of Nevada","status":"RECRUITING","city":"Las Vegas","state":"Nevada","zip":"89169","country":"United States","geoPoint":{"lat":36.17497,"lon":-115.13722}},{"facility":"Astera Cancer Care","status":"RECRUITING","city":"East Brunswick","state":"New Jersey","zip":"08816","country":"United States","geoPoint":{"lat":40.42788,"lon":-74.41598}},{"facility":"Rutgers Cancer Institute","status":"RECRUITING","city":"New Brunswick","state":"New Jersey","zip":"08901","country":"United States","geoPoint":{"lat":40.48622,"lon":-74.45182}},{"facility":"University of New Mexico Cancer Center","status":"RECRUITING","city":"Albuquerque","state":"New Mexico","zip":"87102","country":"United States","geoPoint":{"lat":35.08449,"lon":-106.65114}},{"facility":"Montefiore Einstein Comprehensive Cancer Center","status":"RECRUITING","city":"Bronx","state":"New York","zip":"10461","country":"United States","geoPoint":{"lat":40.84985,"lon":-73.86641}},{"facility":"Mount Sinai","status":"RECRUITING","city":"New York","state":"New York","zip":"10003","country":"United States","geoPoint":{"lat":40.71427,"lon":-74.00597}},{"facility":"Mount Sinai West","status":"RECRUITING","city":"New York","state":"New York","zip":"10009","country":"United States","geoPoint":{"lat":40.71427,"lon":-74.00597}},{"facility":"Herbert Irving Comprehensive Cancer Center Columbia University Medical Center","status":"RECRUITING","city":"New York","state":"New York","zip":"10032","country":"United States","geoPoint":{"lat":40.71427,"lon":-74.00597}},{"facility":"New York Cancer and Blood Specialists","status":"RECRUITING","city":"Shirley","state":"New York","zip":"11967","country":"United States","geoPoint":{"lat":40.80149,"lon":-72.8676}},{"facility":"University of North Carolina at Chapel Hill","status":"RECRUITING","city":"Chapel Hill","state":"North Carolina","zip":"27516","country":"United States","geoPoint":{"lat":35.9132,"lon":-79.05584}},{"facility":"Cleveland Clinic Cancer Center Fairview Hospital Moll Pavilion","status":"RECRUITING","city":"Cleveland","state":"Ohio","zip":"44111","country":"United States","geoPoint":{"lat":41.4995,"lon":-81.69541}},{"facility":"Taussig Cancer Insititute Cleveland Clinic","status":"RECRUITING","city":"Cleveland","state":"Ohio","zip":"44195","country":"United States","geoPoint":{"lat":41.4995,"lon":-81.69541}},{"facility":"Cleveland Clinic Cancer Center Independence Family Health Center","status":"RECRUITING","city":"Independence","state":"Ohio","zip":"44131","country":"United States","geoPoint":{"lat":41.36866,"lon":-81.6379}},{"facility":"Cleveland Clinic Cancer Center Mansfield","status":"RECRUITING","city":"Mansfield","state":"Ohio","zip":"44906","country":"United States","geoPoint":{"lat":40.75839,"lon":-82.51545}},{"facility":"Cleveland Clinic Cancer Center Hillcrest Hospital","status":"RECRUITING","city":"Mayfield Heights","state":"Ohio","zip":"44124","country":"United States","geoPoint":{"lat":41.51922,"lon":-81.4579}},{"facility":"Cleveland Clinic Cancer Centers Sandusky","status":"RECRUITING","city":"Sandusky","state":"Ohio","zip":"44870","country":"United States","geoPoint":{"lat":41.44894,"lon":-82.70796}},{"facility":"Cleveland Clinic Cancer Center Strongsville","status":"RECRUITING","city":"Strongsville","state":"Ohio","zip":"44136","country":"United States","geoPoint":{"lat":41.3145,"lon":-81.83569}},{"facility":"Cleveland Clinic Cancer Center South Pointe Hospital","status":"RECRUITING","city":"Warrensville Heights","state":"Ohio","zip":"44122","country":"United States","geoPoint":{"lat":41.43505,"lon":-81.53623}},{"facility":"Wooster Milltown Specialty and Surgery Center","status":"RECRUITING","city":"Wooster","state":"Ohio","zip":"44691","country":"United States","geoPoint":{"lat":40.80517,"lon":-81.93646}},{"facility":"Thomas Jefferson University","status":"RECRUITING","city":"Philadelphia","state":"Pennsylvania","zip":"19107","country":"United States","geoPoint":{"lat":39.95233,"lon":-75.16379}},{"facility":"Fox Chase Cancer Center","status":"RECRUITING","city":"Philadelphia","state":"Pennsylvania","zip":"19111","country":"United States","geoPoint":{"lat":39.95233,"lon":-75.16379}},{"facility":"University Of Pittsburgh Medical Center UPMC Hillman Cancer Center","status":"RECRUITING","city":"Pittsburgh","state":"Pennsylvania","zip":"15232 1301","country":"United States","geoPoint":{"lat":40.44062,"lon":-79.99589}},{"facility":"SCRI Oncology Partners","status":"RECRUITING","city":"Nashville","state":"Tennessee","zip":"37203","country":"United States","geoPoint":{"lat":36.16589,"lon":-86.78444}},{"facility":"Texas Oncology West Texas","status":"RECRUITING","city":"Abilene","state":"Texas","zip":"79606","country":"United States","geoPoint":{"lat":32.44874,"lon":-99.73314}},{"facility":"Texas Oncology DFW","status":"RECRUITING","city":"Dallas","state":"Texas","zip":"75246","country":"United States","geoPoint":{"lat":32.78306,"lon":-96.80667}},{"facility":"MD Anderson Cancer Center","status":"RECRUITING","city":"Houston","state":"Texas","zip":"77030","country":"United States","geoPoint":{"lat":29.76328,"lon":-95.36327}},{"facility":"Texas Oncology - San Antonio","status":"RECRUITING","city":"San Antonio","state":"Texas","zip":"78240","country":"United States","geoPoint":{"lat":29.42412,"lon":-98.49363}},{"facility":"Baylor Scott and White Health","status":"RECRUITING","city":"Temple","state":"Texas","zip":"76508","country":"United States","geoPoint":{"lat":31.09823,"lon":-97.34278}},{"facility":"Virginia Cancer Specialists","status":"RECRUITING","city":"Arlington","state":"Virginia","zip":"22201","country":"United States","geoPoint":{"lat":38.88101,"lon":-77.10428}},{"facility":"Swedish Cancer Institute","status":"RECRUITING","city":"Edmonds","state":"Washington","zip":"98026","country":"United States","geoPoint":{"lat":47.81065,"lon":-122.37736}},{"facility":"Swedish Cancer Institute","status":"RECRUITING","city":"Issaquah","state":"Washington","zip":"98029","country":"United States","geoPoint":{"lat":47.5301,"lon":-122.03262}},{"facility":"Swedish Cancer Institute","status":"RECRUITING","city":"Seattle","state":"Washington","zip":"98104","country":"United States","geoPoint":{"lat":47.60621,"lon":-122.33207}},{"facility":"Institut Jules Bordet","status":"RECRUITING","city":"Anderlecht","zip":"1070","country":"Belgium","geoPoint":{"lat":50.83619,"lon":4.31454}},{"facility":"Universitair Ziekenhuis Antwerpen","status":"RECRUITING","city":"Edegem","zip":"2650","country":"Belgium","geoPoint":{"lat":51.15662,"lon":4.44504}},{"facility":"AZ Maria Middelares","status":"RECRUITING","city":"Gent","zip":"9000","country":"Belgium","geoPoint":{"lat":51.05,"lon":3.71667}},{"facility":"Hopital de Jolimont","status":"RECRUITING","city":"Haine Saint Paul La Louviere","zip":"7100","country":"Belgium"},{"facility":"Az Groeninge","status":"RECRUITING","city":"Kortrijk","zip":"8500","country":"Belgium","geoPoint":{"lat":50.82803,"lon":3.26487}},{"facility":"Universitair Ziekenhuis Leuven","status":"RECRUITING","city":"Leuven","zip":"3000","country":"Belgium","geoPoint":{"lat":50.87959,"lon":4.70093}},{"facility":"Centre Hospitalier Universitaire de Liege Domaine Universitaire du Sart Tilman","status":"RECRUITING","city":"Liege","zip":"4000","country":"Belgium","geoPoint":{"lat":50.63373,"lon":5.56749}},{"facility":"Fundacao Pio XII","status":"RECRUITING","city":"Barretos","zip":"14780 070","country":"Brazil","geoPoint":{"lat":-20.55722,"lon":-48.56778}},{"facility":"Fundacao Universidade de Caxias do Sul","status":"RECRUITING","city":"Caxias do Sul","zip":"95070 560","country":"Brazil","geoPoint":{"lat":-29.16806,"lon":-51.17944}},{"facility":"Fundacao Doutor Amaral Carvalho","status":"RECRUITING","city":"Jau","zip":"17210 080","country":"Brazil","geoPoint":{"lat":-22.29639,"lon":-48.55778}},{"facility":"Hospital Nossa Senhora da Conceicao S A","status":"RECRUITING","city":"Porto Alegre","zip":"91350 200","country":"Brazil","geoPoint":{"lat":-30.03306,"lon":-51.23}},{"facility":"Hospital Santa Izabel Santa Casa de Misericordia da Bahia","status":"RECRUITING","city":"Salvador","zip":"40050 410","country":"Brazil","geoPoint":{"lat":-12.97111,"lon":-38.51083}},{"facility":"Clinica de Hematologia e Oncologia Viver Ltda","status":"RECRUITING","city":"Santa Maria","zip":"97015 450","country":"Brazil","geoPoint":{"lat":-29.68417,"lon":-53.80694}},{"facility":"Fundacao Faculdade Regional De Medicina S Jose Rio Preto Hospital De Base","status":"RECRUITING","city":"Sao Jose do Rio Preto","zip":"15090 000","country":"Brazil","geoPoint":{"lat":-20.81972,"lon":-49.37944}},{"facility":"Fundacao Antonio Prudente A C Camargo Cancer Center","status":"RECRUITING","city":"Sao Paulo","zip":"01509 900","country":"Brazil","geoPoint":{"lat":-23.5475,"lon":-46.63611}},{"facility":"Associacao Feminina de Educacao e Combate ao Cancer Hospital Santa Rita de Cassia","status":"RECRUITING","city":"Vitoria","zip":"29043 260","country":"Brazil","geoPoint":{"lat":-20.31944,"lon":-40.33778}},{"facility":"Arthur J E Child Comprehensive Cancer Centre","status":"RECRUITING","city":"Calgary","state":"Alberta","zip":"T2N 5G2","country":"Canada","geoPoint":{"lat":51.05011,"lon":-114.08529}},{"facility":"Ottawa Hospital","status":"RECRUITING","city":"Ottawa","state":"Ontario","zip":"K1H 8L6","country":"Canada","geoPoint":{"lat":45.41117,"lon":-75.69812}},{"facility":"Princess Margaret Cancer Centre","status":"RECRUITING","city":"Toronto","state":"Ontario","zip":"M5G1X6","country":"Canada","geoPoint":{"lat":43.70011,"lon":-79.4163}},{"facility":"Centre de Recherche du CHUM","status":"RECRUITING","city":"Montreal","state":"Quebec","zip":"H2X 0C1","country":"Canada","geoPoint":{"lat":45.50884,"lon":-73.58781}},{"facility":"Peking University First Hospital","status":"RECRUITING","city":"Beijing","zip":"100034","country":"China","geoPoint":{"lat":39.9075,"lon":116.39723}},{"facility":"Beijing Friendship Hospital Capital Medical University","status":"RECRUITING","city":"Beijing","zip":"100050","country":"China","geoPoint":{"lat":39.9075,"lon":116.39723}},{"facility":"Beijing Cancer Hospital","status":"RECRUITING","city":"Beijing","zip":"100142","country":"China","geoPoint":{"lat":39.9075,"lon":116.39723}},{"facility":"Peking University Third Hospital","status":"RECRUITING","city":"Beijing","zip":"100191","country":"China","geoPoint":{"lat":39.9075,"lon":116.39723}},{"facility":"The First Bethune Hospital of Jilin University","status":"RECRUITING","city":"Changchun","zip":"130021","country":"China","geoPoint":{"lat":43.88,"lon":125.32278}},{"facility":"Hunan Cancer hospital","status":"RECRUITING","city":"Changsha","zip":"410013","country":"China","geoPoint":{"lat":28.19874,"lon":112.97087}},{"facility":"Sun Yat Sen University Cancer Center","status":"RECRUITING","city":"Guangzhou","zip":"510062","country":"China","geoPoint":{"lat":23.11667,"lon":113.25}},{"facility":"The Sixth Affiliated Hospital Sun Yat sen University","status":"RECRUITING","city":"Guangzhou","zip":"510655","country":"China","geoPoint":{"lat":23.11667,"lon":113.25}},{"facility":"Guangdong Provincial People's Hospital","status":"RECRUITING","city":"Guangzhou","zip":"519041","country":"China","geoPoint":{"lat":23.11667,"lon":113.25}},{"facility":"The First Affiliated Hospital Zhejiang University College of Medicine","status":"RECRUITING","city":"Hangzhou","zip":"310003","country":"China","geoPoint":{"lat":30.29365,"lon":120.16142}},{"facility":"The Second Affiliated Hospital of Zhejiang University College of Medicine","status":"RECRUITING","city":"Hangzhou","zip":"310009","country":"China","geoPoint":{"lat":30.29365,"lon":120.16142}},{"facility":"Zhejiang Cancer Hospital","status":"RECRUITING","city":"Hangzhou","zip":"310022","country":"China","geoPoint":{"lat":30.29365,"lon":120.16142}},{"facility":"Harbin medical university cancer hospital","status":"RECRUITING","city":"Harbin","zip":"150081","country":"China","geoPoint":{"lat":45.75,"lon":126.65}},{"facility":"Huizhou Central People's Hospital","status":"RECRUITING","city":"Huizhou","zip":"516001","country":"China","geoPoint":{"lat":23.11147,"lon":114.41523}},{"facility":"The First Affiliated Hospital of NanChang University","status":"RECRUITING","city":"Nanchang","zip":"330006","country":"China","geoPoint":{"lat":28.68396,"lon":115.85306}},{"facility":"Fudan University Shanghai Cancer Center","status":"RECRUITING","city":"Shanghai","zip":"200032","country":"China","geoPoint":{"lat":31.22222,"lon":121.45806}},{"facility":"Liaoning Cancer Hospital and Institute","status":"RECRUITING","city":"Shenyang","zip":"110042","country":"China","geoPoint":{"lat":41.79222,"lon":123.43278}},{"facility":"Peking University Shenzhen Hospital","status":"RECRUITING","city":"Shenzhen","zip":"518036","country":"China","geoPoint":{"lat":22.54554,"lon":114.0683}},{"facility":"West China Hospital of Sichuan University","status":"RECRUITING","city":"Sichuan","zip":"610044","country":"China"},{"facility":"First Hospital of Shanxi Medical University","status":"RECRUITING","city":"Taiyuan","zip":"030001","country":"China","geoPoint":{"lat":37.86944,"lon":112.56028}},{"facility":"Tianjin Medical University Cancer Institute and Hospital","status":"RECRUITING","city":"Tianjin","zip":"300060","country":"China","geoPoint":{"lat":39.14222,"lon":117.17667}},{"facility":"Hubei Cancer Hospital","status":"RECRUITING","city":"Wuhan","zip":"430079","country":"China","geoPoint":{"lat":30.58333,"lon":114.26667}},{"facility":"Institut Sainte Catherine","status":"RECRUITING","city":"Avignon Cedex 9","zip":"84918","country":"France","geoPoint":{"lat":43.94834,"lon":4.80892}},{"facility":"Hopital Claude Huriez","status":"RECRUITING","city":"Lille","zip":"59000","country":"France","geoPoint":{"lat":50.63297,"lon":3.05858}},{"facility":"Hopital Prive Jean Mermoz","status":"RECRUITING","city":"Lyon","zip":"69008","country":"France","geoPoint":{"lat":45.74848,"lon":4.84669}},{"facility":"Institut du Cancer de Montpellier","status":"RECRUITING","city":"Montpellier","zip":"34298","country":"France","geoPoint":{"lat":43.61092,"lon":3.87723}},{"facility":"CHU Nantes","status":"RECRUITING","city":"Nantes Cedex 1","zip":"44000","country":"France","geoPoint":{"lat":47.21725,"lon":-1.55336}},{"facility":"Hopital Saint Antoine","status":"RECRUITING","city":"Paris","zip":"75571","country":"France","geoPoint":{"lat":48.85341,"lon":2.3488}},{"facility":"Hopital Haut Leveque","status":"RECRUITING","city":"Pessac","zip":"33604","country":"France","geoPoint":{"lat":44.81011,"lon":-0.64129}},{"facility":"CHU De Poitiers","status":"RECRUITING","city":"Poitiers Cedex","zip":"86000","country":"France","geoPoint":{"lat":46.58333,"lon":0.33333}},{"facility":"Gustave Roussy","status":"RECRUITING","city":"Villejuif","zip":"94805","country":"France","geoPoint":{"lat":48.7939,"lon":2.35992}},{"facility":"Charite Universitatsmedizin Berlin Campus Virchow Klinikum","status":"RECRUITING","city":"Berlin","zip":"13353","country":"Germany","geoPoint":{"lat":52.52437,"lon":13.41053}},{"facility":"Universitaetsklinikum Carl Gustav Carus TU Dresden","status":"RECRUITING","city":"Dresden","zip":"01307","country":"Germany","geoPoint":{"lat":51.05089,"lon":13.73832}},{"facility":"Essen University Hospital","status":"RECRUITING","city":"Essen","zip":"45147","country":"Germany","geoPoint":{"lat":51.45657,"lon":7.01228}},{"facility":"Krankenhaus NorthWest","status":"RECRUITING","city":"Frankfurt am Main","zip":"60488","country":"Germany","geoPoint":{"lat":50.11552,"lon":8.68417}},{"facility":"Praxis fur interdisziplinare Onkologie & Hamatologie GbR","status":"RECRUITING","city":"Freiburg","zip":"79110","country":"Germany","geoPoint":{"lat":47.9959,"lon":7.85222}},{"facility":"Asklepios Klinik Altona","status":"RECRUITING","city":"Hamburg","zip":"22763","country":"Germany","geoPoint":{"lat":53.57532,"lon":10.01534}},{"facility":"Universitatsmedizin der Johannes Gutenberg Universitat Mainz","status":"RECRUITING","city":"Mainz","zip":"55131","country":"Germany","geoPoint":{"lat":49.98419,"lon":8.2791}},{"facility":"Klinikum der Universitaet Muenchen","status":"RECRUITING","city":"Munich","zip":"81377","country":"Germany","geoPoint":{"lat":48.13743,"lon":11.57549}},{"facility":"Universitatsklinikum Ulm","status":"RECRUITING","city":"Ulm","zip":"89081","country":"Germany","geoPoint":{"lat":48.39841,"lon":9.99155}},{"facility":"Semmelweis Egyetem","status":"RECRUITING","city":"Budapest","zip":"1082","country":"Hungary","geoPoint":{"lat":47.49801,"lon":19.03991}},{"facility":"Markhot Ferenc Oktatokorhaz es Rendelointezet","status":"RECRUITING","city":"Eger","zip":"3300","country":"Hungary","geoPoint":{"lat":47.90265,"lon":20.37329}},{"facility":"Pecsi Tudomanyegyetem","status":"RECRUITING","city":"Pecs","zip":"7624","country":"Hungary","geoPoint":{"lat":46.08333,"lon":18.23333}},{"facility":"Szegedi Tudomanyegyetem","status":"RECRUITING","city":"Szeged","zip":"6720","country":"Hungary","geoPoint":{"lat":46.253,"lon":20.14824}},{"facility":"Rajiv Gandhi Cancer Institute and Research Centre","status":"RECRUITING","city":"Delhi","zip":"110085","country":"India","geoPoint":{"lat":28.65195,"lon":77.23149}},{"facility":"B P Poddar Hospital and Medical research Limited","status":"RECRUITING","city":"Kolkata","zip":"700053","country":"India","geoPoint":{"lat":22.56263,"lon":88.36304}},{"facility":"Tata Memorial Hospital","status":"RECRUITING","city":"Mumbai","zip":"400012","country":"India","geoPoint":{"lat":19.07283,"lon":72.88261}},{"facility":"Deenanath Mangeshkar Hospital and Research Centre","status":"RECRUITING","city":"Pune","zip":"411004","country":"India","geoPoint":{"lat":18.51957,"lon":73.85535}},{"facility":"Mahamana Pandit Madan Mohan Malviya Cancer Centre","status":"RECRUITING","city":"Varanasi","zip":"221005","country":"India","geoPoint":{"lat":25.31668,"lon":83.01041}},{"facility":"Yitzhak Shamir Medical Center","status":"RECRUITING","city":"Beer Yaakov","zip":"70300","country":"Israel"},{"facility":"Rambam Medical Center","status":"RECRUITING","city":"Haifa","zip":"3109601","country":"Israel","geoPoint":{"lat":32.81841,"lon":34.9885}},{"facility":"Hadassah University Hospita Ein Kerem","status":"RECRUITING","city":"Jerusalem","zip":"9112001","country":"Israel","geoPoint":{"lat":31.76904,"lon":35.21633}},{"facility":"Rabin Medical Center","status":"RECRUITING","city":"Petah Tikva","zip":"4941492","country":"Israel","geoPoint":{"lat":32.08707,"lon":34.88747}},{"facility":"Sheba Medical Center","status":"RECRUITING","city":"Ramat Gan","zip":"52621","country":"Israel","geoPoint":{"lat":32.08227,"lon":34.81065}},{"facility":"Tel Aviv Sourasky Medical Center","status":"RECRUITING","city":"Tel Aviv Yafo","zip":"6423906","country":"Israel","geoPoint":{"lat":32.08088,"lon":34.78057}},{"facility":"Assuta MC","status":"RECRUITING","city":"Tel Aviv Yafo","zip":"69710","country":"Israel","geoPoint":{"lat":32.08088,"lon":34.78057}},{"facility":"Istituto Scientifico Romagnolo per lo Studio e la Cura dei Tumori","status":"RECRUITING","city":"Meldola","zip":"47014","country":"Italy","geoPoint":{"lat":44.12775,"lon":12.0626}},{"facility":"Istituto Dei Tumori Di Milano","status":"RECRUITING","city":"Milano","zip":"20133","country":"Italy","geoPoint":{"lat":45.46427,"lon":9.18951}},{"facility":"Istituto Oncologico Veneto - IRCCS","status":"RECRUITING","city":"Padova","zip":"35128","country":"Italy","geoPoint":{"lat":45.40797,"lon":11.88586}},{"facility":"Azienda Ospedaliero Universitaria Pisana","status":"RECRUITING","city":"Pisa","zip":"56126","country":"Italy","geoPoint":{"lat":43.70853,"lon":10.4036}},{"facility":"Istituto Clinico Humanitas","status":"RECRUITING","city":"Rozzano","zip":"20089","country":"Italy","geoPoint":{"lat":45.38193,"lon":9.1559}},{"facility":"Chiba Cancer Center","status":"RECRUITING","city":"Chiba","zip":"260 0801","country":"Japan","geoPoint":{"lat":35.6,"lon":140.11667}},{"facility":"National Cancer Center Hospital","status":"RECRUITING","city":"Chuo Ku","zip":"104 0045","country":"Japan","geoPoint":{"lat":35.57779,"lon":139.71685}},{"facility":"National Cancer Center Hospital East","status":"RECRUITING","city":"Kashiwa","zip":"277 8577","country":"Japan","geoPoint":{"lat":35.86224,"lon":139.97732}},{"facility":"Aichi Cancer Center","status":"RECRUITING","city":"Nagoya Shi","zip":"464 8681","country":"Japan","geoPoint":{"lat":35.18147,"lon":136.90641}},{"facility":"Osaka International Cancer Institute","status":"RECRUITING","city":"Osaka City","zip":"541 8567","country":"Japan","geoPoint":{"lat":34.69374,"lon":135.50218}},{"facility":"National Hospital Organization Osaka National Hospital","status":"RECRUITING","city":"Osaka-Shi","zip":"540 0006","country":"Japan","geoPoint":{"lat":34.69374,"lon":135.50218}},{"facility":"Shizuoka Cancer Center","status":"RECRUITING","city":"Shizuoka","zip":"411 8777","country":"Japan","geoPoint":{"lat":34.98333,"lon":138.38333}},{"facility":"The University of Osaka Hospital","status":"RECRUITING","city":"Suita City","zip":"565 0871","country":"Japan","geoPoint":{"lat":34.76143,"lon":135.51567}},{"facility":"The Cancer Institute Hospital of JFCR","status":"RECRUITING","city":"Tokyo","zip":"135 8550","country":"Japan","geoPoint":{"lat":35.6895,"lon":139.69171}},{"facility":"Kyungpook National University Chilgok Hospital","status":"RECRUITING","city":"Daegu","zip":"41404","country":"Korea, Republic of","geoPoint":{"lat":35.87028,"lon":128.59111}},{"facility":"Seoul National University Hospital","status":"RECRUITING","city":"Seoul","zip":"03080","country":"Korea, Republic of","geoPoint":{"lat":37.566,"lon":126.9784}},{"facility":"Severance Hospital Yonsei University Health System","status":"RECRUITING","city":"Seoul","zip":"03722","country":"Korea, Republic of","geoPoint":{"lat":37.566,"lon":126.9784}},{"facility":"Asan Medical Center","status":"RECRUITING","city":"Seoul","zip":"05505","country":"Korea, Republic of","geoPoint":{"lat":37.566,"lon":126.9784}},{"facility":"Samsung Medical Center","status":"RECRUITING","city":"Seoul","zip":"06351","country":"Korea, Republic of","geoPoint":{"lat":37.566,"lon":126.9784}},{"facility":"The Catholic University of Korea Seoul St Marys Hospital","status":"RECRUITING","city":"Seoul","zip":"06591","country":"Korea, Republic of","geoPoint":{"lat":37.566,"lon":126.9784}},{"facility":"Hospital Canselor Tuanku Muhriz UKM","status":"RECRUITING","city":"Cheras","zip":"56000","country":"Malaysia","geoPoint":{"lat":3.05,"lon":101.76667}},{"facility":"Hospital Pulau Pinang","status":"RECRUITING","city":"Georgetown","zip":"10450","country":"Malaysia"},{"facility":"Hospital Raja Permaisuri Bainun","status":"RECRUITING","city":"Ipoh","zip":"30450","country":"Malaysia","geoPoint":{"lat":4.5841,"lon":101.0829}},{"facility":"Hospital Kuala Lumpur","status":"RECRUITING","city":"Kuala Lumpur","zip":"50586","country":"Malaysia","geoPoint":{"lat":3.1412,"lon":101.68653}},{"facility":"University Malaya Medical Centre","status":"RECRUITING","city":"Kuala Lumpur","zip":"59100","country":"Malaysia","geoPoint":{"lat":3.1412,"lon":101.68653}},{"facility":"Hospital Umum Sarawak","status":"RECRUITING","city":"Kuching","zip":"93586","country":"Malaysia","geoPoint":{"lat":1.54999,"lon":110.33333}},{"facility":"National Cancer Institute","status":"RECRUITING","city":"Putrajaya","zip":"62250","country":"Malaysia","geoPoint":{"lat":2.93527,"lon":101.69112}},{"facility":"Meander Medisch Centrum","status":"RECRUITING","city":"Amersfoort","zip":"3813 TZ","country":"Netherlands","geoPoint":{"lat":52.155,"lon":5.3875}},{"facility":"Antoni van Leeuwenhoek","status":"RECRUITING","city":"Amsterdam","zip":"1066 CX","country":"Netherlands","geoPoint":{"lat":52.37403,"lon":4.88969}},{"facility":"Radboud University Medical Center","status":"RECRUITING","city":"Nijmegen","zip":"6525 GA","country":"Netherlands","geoPoint":{"lat":51.8425,"lon":5.85278}},{"facility":"Erasmus MC","status":"RECRUITING","city":"Rotterdam","zip":"3015 GD","country":"Netherlands","geoPoint":{"lat":51.9225,"lon":4.47917}},{"facility":"Elisabeth-TweeSteden Ziekenhuis","status":"RECRUITING","city":"Tilburg","zip":"5022 GC","country":"Netherlands","geoPoint":{"lat":51.55551,"lon":5.0913}},{"facility":"UMC Utrecht","status":"RECRUITING","city":"Utrecht","zip":"3584 CX","country":"Netherlands","geoPoint":{"lat":52.09083,"lon":5.12222}},{"facility":"Wojewodzki Szpital Specjalistyczny","status":"RECRUITING","city":"Biala Podlaska","zip":"21 500","country":"Poland","geoPoint":{"lat":52.03238,"lon":23.11652}},{"facility":"Bialostockie Centrum Onkologii im Marii Sklodowskiej Curie w Bialymstoku","status":"RECRUITING","city":"Bialystok","zip":"15 027","country":"Poland","geoPoint":{"lat":53.13333,"lon":23.16433}},{"facility":"Szpital Specjalistyczny w Brzozowie Podkarpacki Osrodek Onkologiczny im Ks B Markiewicza","status":"RECRUITING","city":"Brzozow","zip":"36 200","country":"Poland","geoPoint":{"lat":49.69501,"lon":22.01926}},{"facility":"Uniwersyteckie Centrum Kliniczne","status":"RECRUITING","city":"Gdansk","zip":"80 214","country":"Poland","geoPoint":{"lat":54.35205,"lon":18.64637}},{"facility":"Narodowy Instytut Onkologii im Marii Sklodowskiej Curie Panstwowy Instytut BadawczyOddz w Gliwicach","status":"RECRUITING","city":"Gliwice","zip":"44 100","country":"Poland","geoPoint":{"lat":50.29761,"lon":18.67658}},{"facility":"Instytut Centrum Zdrowia Matki Polki","status":"RECRUITING","city":"Lodz","zip":"93 339","country":"Poland","geoPoint":{"lat":51.75,"lon":19.46667}},{"facility":"SPZOZ Ministerstwa Spraw Wewnetrznych z Warminsko Mazurskim Centrum Onkologii w Olsztynie","status":"RECRUITING","city":"Olsztyn","zip":"10 228","country":"Poland","geoPoint":{"lat":53.77995,"lon":20.49416}},{"facility":"SPZOZ Opolskie Centrum Onkologii im. Prof. Tadeusza Koszarowskiego","status":"RECRUITING","city":"Opole","zip":"45 061","country":"Poland","geoPoint":{"lat":50.67211,"lon":17.92533}},{"facility":"Centrum Onkologii - Instytut im. Marii Sklodowskiej-Curie","status":"RECRUITING","city":"Warszawa","zip":"02 781","country":"Poland","geoPoint":{"lat":52.22977,"lon":21.01178}},{"facility":"Pan American Center for Oncology Trials LLC","status":"RECRUITING","city":"Barrio Monacillos","zip":"00935","country":"Puerto Rico"},{"facility":"Hosp. de La Santa Creu I Sant Pau","status":"RECRUITING","city":"Barcelona","zip":"08025","country":"Spain","geoPoint":{"lat":41.38879,"lon":2.15899}},{"facility":"Hosp Univ Vall D Hebron","status":"RECRUITING","city":"Barcelona","zip":"08035","country":"Spain","geoPoint":{"lat":41.38879,"lon":2.15899}},{"facility":"Hosp. Gral. Univ. Gregorio Maranon","status":"RECRUITING","city":"Madrid","zip":"28007","country":"Spain","geoPoint":{"lat":40.4165,"lon":-3.70256}},{"facility":"Hosp. Univ. Ramon Y Cajal","status":"RECRUITING","city":"Madrid","zip":"28034","country":"Spain","geoPoint":{"lat":40.4165,"lon":-3.70256}},{"facility":"Hosp. Univ. 12 de Octubre","status":"RECRUITING","city":"Madrid","zip":"28041","country":"Spain","geoPoint":{"lat":40.4165,"lon":-3.70256}},{"facility":"Clinica Univ. de Navarra","status":"RECRUITING","city":"Pamplona","zip":"31008","country":"Spain","geoPoint":{"lat":42.81687,"lon":-1.64323}},{"facility":"Hosp. Virgen Del Rocio","status":"RECRUITING","city":"Sevilla","zip":"41013","country":"Spain","geoPoint":{"lat":37.38283,"lon":-5.97317}},{"facility":"Hosp. Clinico Univ. de Valencia","status":"RECRUITING","city":"Valencia","zip":"46010","country":"Spain","geoPoint":{"lat":39.46975,"lon":-0.37739}},{"facility":"Sahlgrenska University Hospital","status":"RECRUITING","city":"Goteborg","zip":"413 45","country":"Sweden","geoPoint":{"lat":57.70716,"lon":11.96679}},{"facility":"Skanes universitetssjukhus","status":"RECRUITING","city":"Lund","zip":"222 42","country":"Sweden","geoPoint":{"lat":55.70584,"lon":13.19321}},{"facility":"Sodersjukhuset","status":"RECRUITING","city":"Stockholm","zip":"118 83","country":"Sweden","geoPoint":{"lat":59.33258,"lon":18.0649}},{"facility":"Karolinska Universitetssjukhuset","status":"RECRUITING","city":"Stockholm","zip":"171 76","country":"Sweden","geoPoint":{"lat":59.33258,"lon":18.0649}},{"facility":"Uppsala University","status":"RECRUITING","city":"Uppsala","zip":"SE 751 85","country":"Sweden","geoPoint":{"lat":59.85882,"lon":17.63889}},{"facility":"Kaohsiung Medical University Chung Ho Memorial Hospital","status":"RECRUITING","city":"Kaohsiung","zip":"80756","country":"Taiwan","geoPoint":{"lat":22.61626,"lon":120.31333}},{"facility":"Kaohsiung Chang Gung Memorial Hospital","status":"RECRUITING","city":"Kaohsiung","zip":"83301","country":"Taiwan","geoPoint":{"lat":22.61626,"lon":120.31333}},{"facility":"National Cheng Kung University Hospital","status":"RECRUITING","city":"Tainan","zip":"704","country":"Taiwan","geoPoint":{"lat":22.99083,"lon":120.21333}},{"facility":"National Taiwan University Hospital","status":"RECRUITING","city":"Taipei","zip":"10043","country":"Taiwan","geoPoint":{"lat":25.04776,"lon":121.53185}},{"facility":"Linkou Chang Gung Memorial Hospital","status":"RECRUITING","city":"Taoyuan","zip":"333","country":"Taiwan","geoPoint":{"lat":24.95233,"lon":121.20193}},{"facility":"Adana City Hospital","status":"RECRUITING","city":"Adana","zip":"01060","country":"Turkey","geoPoint":{"lat":37.00167,"lon":35.32889}},{"facility":"Gulhane Egitim ve Arastirma Hastanesi","status":"RECRUITING","city":"Ankara","zip":"06010","country":"Turkey","geoPoint":{"lat":39.91987,"lon":32.85427}},{"facility":"Dr Abdurrahman Yurtaslan Oncology Training and Research Hospital","status":"RECRUITING","city":"Ankara","zip":"06200","country":"Turkey","geoPoint":{"lat":39.91987,"lon":32.85427}},{"facility":"Gazi University Hospital","status":"RECRUITING","city":"Ankara","zip":"06560","country":"Turkey","geoPoint":{"lat":39.91987,"lon":32.85427}},{"facility":"Ankara Bilkent Sehir Hastanesi","status":"RECRUITING","city":"Ankara","zip":"06800","country":"Turkey","geoPoint":{"lat":39.91987,"lon":32.85427}},{"facility":"Bakirkoy Training and Research Hospital","status":"RECRUITING","city":"Istanbul","zip":"34147","country":"Turkey","geoPoint":{"lat":41.01384,"lon":28.94966}},{"facility":"Marmara University Pendik Training Hospital","status":"RECRUITING","city":"stanbul","zip":"34899","country":"Turkey","geoPoint":{"lat":41.01384,"lon":28.94966}},{"facility":"Necmettin Erbakan University Meram Medical Faculty","status":"RECRUITING","city":"Konya","zip":"42090","country":"Turkey","geoPoint":{"lat":37.87135,"lon":32.48464}},{"facility":"Sakarya University Training and Research Hospital","status":"RECRUITING","city":"Sakarya","zip":"54290","country":"Turkey"},{"facility":"Birmingham Heartlands Hospital","status":"RECRUITING","city":"Birmingham","zip":"B9 5ST","country":"United Kingdom","geoPoint":{"lat":52.48142,"lon":-1.89983}},{"facility":"Addenbrooke's Hospital","status":"RECRUITING","city":"Cambridge","zip":"CB2 0QQ","country":"United Kingdom","geoPoint":{"lat":52.2,"lon":0.11667}},{"facility":"Western General Hospital","status":"RECRUITING","city":"Edinburgh","zip":"EH4 2XU","country":"United Kingdom","geoPoint":{"lat":55.95206,"lon":-3.19648}},{"facility":"Castle Hill Hospital","status":"RECRUITING","city":"Hull","zip":"HU16 5JQ","country":"United Kingdom","geoPoint":{"lat":53.7446,"lon":-0.33525}},{"facility":"St James University Hospital","status":"RECRUITING","city":"Leeds","zip":"LS9 7TF","country":"United Kingdom","geoPoint":{"lat":53.79648,"lon":-1.54785}},{"facility":"St Bartholomew's Hospital","status":"RECRUITING","city":"London","zip":"EC1A 7BE","country":"United Kingdom","geoPoint":{"lat":51.50853,"lon":-0.12574}},{"facility":"University College Hospital","status":"RECRUITING","city":"London","zip":"NW1 2BU","country":"United Kingdom","geoPoint":{"lat":51.50853,"lon":-0.12574}},{"facility":"Mount Vernon Cancer Centre","status":"RECRUITING","city":"Northwood","zip":"HA6 2RN","country":"United Kingdom"},{"facility":"Royal Marsden Hospital (Sutton)","status":"RECRUITING","city":"Sutton","zip":"SM2 5PT","country":"United Kingdom","geoPoint":{"lat":51.35,"lon":-0.2}}]},"ipdSharingStatementModule":{"ipdSharing":"YES","description":"The data sharing policy of the Janssen Pharmaceutical Companies of Johnson \\& Johnson is available at www.janssen.com/clinical-trials/transparency. As noted on this site, requests for access to the study data can be submitted through Yale Open Data Access (YODA) Project site at yoda.yale.edu","url":"https://www.janssen.com/clinical-trials/transparency"}},"derivedSection":{"miscInfoModule":{"versionHolder":"2025-07-07"},"conditionBrowseModule":{"meshes":[{"id":"D015179","term":"Colorectal Neoplasms"}],"ancestors":[{"id":"D007414","term":"Intestinal Neoplasms"},{"id":"D005770","term":"Gastrointestinal Neoplasms"},{"id":"D004067","term":"Digestive System Neoplasms"},{"id":"D009371","term":"Neoplasms by Site"},{"id":"D009369","term":"Neoplasms"},{"id":"D004066","term":"Digestive System Diseases"},{"id":"D005767","term":"Gastrointestinal Diseases"},{"id":"D003108","term":"Colonic Diseases"},{"id":"D007410","term":"Intestinal Diseases"},{"id":"D012002","term":"Rectal Diseases"}],"browseLeaves":[{"id":"M17890","name":"Colorectal Neoplasms","asFound":"Colorectal Neoplasms","relevance":"HIGH"},{"id":"M10448","name":"Intestinal Neoplasms","relevance":"LOW"},{"id":"M8886","name":"Gastrointestinal Neoplasms","relevance":"LOW"},{"id":"M7256","name":"Digestive System Neoplasms","relevance":"LOW"},{"id":"M7255","name":"Digestive System Diseases","relevance":"LOW"},{"id":"M8883","name":"Gastrointestinal Diseases","relevance":"LOW"},{"id":"M6336","name":"Colonic Diseases","relevance":"LOW"},{"id":"M10444","name":"Intestinal Diseases","relevance":"LOW"},{"id":"M14844","name":"Rectal Diseases","relevance":"LOW"}],"browseBranches":[{"abbrev":"BC04","name":"Neoplasms"},{"abbrev":"BC06","name":"Digestive System Diseases"},{"abbrev":"All","name":"All Conditions"}]},"interventionBrowseModule":{"meshes":[{"id":"D002955","term":"Leucovorin"},{"id":"D000077150","term":"Oxaliplatin"},{"id":"D005472","term":"Fluorouracil"},{"id":"D000077146","term":"Irinotecan"},{"id":"D000068818","term":"Cetuximab"},{"id":"C000718215","term":"Amivantamab-vmjw"},{"id":"D002118","term":"Calcium"},{"id":"D058766","term":"Levoleucovorin"}],"ancestors":[{"id":"D000077264","term":"Calcium-Regulating Hormones and Agents"},{"id":"D045505","term":"Physiological Effects of Drugs"},{"id":"D000970","term":"Antineoplastic Agents"},{"id":"D000963","term":"Antimetabolites"},{"id":"D045504","term":"Molecular Mechanisms of Pharmacological Action"},{"id":"D000964","term":"Antimetabolites, Antineoplastic"},{"id":"D007166","term":"Immunosuppressive Agents"},{"id":"D007155","term":"Immunologic Factors"},{"id":"D059004","term":"Topoisomerase I Inhibitors"},{"id":"D059003","term":"Topoisomerase Inhibitors"},{"id":"D004791","term":"Enzyme Inhibitors"},{"id":"D000931","term":"Antidotes"},{"id":"D020011","term":"Protective Agents"},{"id":"D014803","term":"Vitamin B Complex"},{"id":"D014815","term":"Vitamins"},{"id":"D018977","term":"Micronutrients"},{"id":"D000074322","term":"Antineoplastic Agents, Immunological"}],"browseLeaves":[{"id":"M1671","name":"Irinotecan","asFound":"Present","relevance":"HIGH"},{"id":"M8618","name":"Folic Acid","relevance":"LOW"},{"id":"M315","name":"Cetuximab","asFound":"Gel","relevance":"HIGH"},{"id":"M6191","name":"Leucovorin","asFound":"Failure","relevance":"HIGH"},{"id":"M1674","name":"Oxaliplatin","asFound":"Min","relevance":"HIGH"},{"id":"M8600","name":"Fluorouracil","asFound":"Is a","relevance":"HIGH"},{"id":"M5381","name":"Calcium","asFound":"Supplement","relevance":"HIGH"},{"id":"M29233","name":"Levoleucovorin","asFound":"Hemoglobinuria","relevance":"HIGH"},{"id":"M5398","name":"Calcium, Dietary","relevance":"LOW"},{"id":"M352636","name":"Amivantamab-vmjw","asFound":"Turnover","relevance":"HIGH"},{"id":"M9789","name":"Hormones","relevance":"LOW"},{"id":"M4281","name":"Antimetabolites","relevance":"LOW"},{"id":"M10212","name":"Immunosuppressive Agents","relevance":"LOW"},{"id":"M10201","name":"Immunologic Factors","relevance":"LOW"},{"id":"M29349","name":"Topoisomerase I Inhibitors","relevance":"LOW"},{"id":"M7951","name":"Enzyme Inhibitors","relevance":"LOW"},{"id":"M4250","name":"Antidotes","relevance":"LOW"},{"id":"M21869","name":"Protective Agents","relevance":"LOW"},{"id":"M17558","name":"Vitamins","relevance":"LOW"},{"id":"M17546","name":"Vitamin B Complex","relevance":"LOW"},{"id":"M21009","name":"Micronutrients","relevance":"LOW"},{"id":"M16885","name":"Trace Elements","relevance":"LOW"},{"id":"M1346","name":"Antineoplastic Agents, Immunological","relevance":"LOW"},{"id":"T475","name":"Vitamin B9","relevance":"LOW"},{"id":"T446","name":"Folic Acid","relevance":"LOW"},{"id":"T447","name":"Folinic Acid","asFound":"Hemoglobinuria","relevance":"HIGH"},{"id":"T448","name":"Folate","relevance":"LOW"}],"browseBranches":[{"abbrev":"ANeo","name":"Antineoplastic Agents"},{"abbrev":"All","name":"All Drugs and Chemicals"},{"abbrev":"Micro","name":"Micronutrients"},{"abbrev":"Hemat","name":"Hematinics"},{"abbrev":"BDCA","name":"Bone Density Conservation Agents"},{"abbrev":"Vi","name":"Vitamins"}]}},"hasResults":false}