{"protocolSection":{"identificationModule":{"nctId":"NCT06692738","orgStudyIdInfo":{"id":"D702BC00001"},"secondaryIdInfos":[{"id":"2024-514281-39-00","type":"REGISTRY","domain":"CTIS (EU)"}],"organization":{"fullName":"AstraZeneca","class":"INDUSTRY"},"briefTitle":"A Global Phase III Study of Rilvegostomig or Pembrolizumab Plus Chemotherapy for First-Line Treatment of Metastatic Squamous Non-small Cell Lung Cancer (NSCLC)","officialTitle":"A Phase III, Randomized, Double-blind, Multicenter, Global Study of Rilvegostomig or Pembrolizumab in Combination With Platinum-based Chemotherapy for the First-line Treatment of Patients With Metastatic Squamous Non-small Cell Lung Cancer Whose Tumors Express PD-L1 (ARTEMIDE-Lung02)"},"statusModule":{"statusVerifiedDate":"2025-06","overallStatus":"RECRUITING","expandedAccessInfo":{"hasExpandedAccess":false},"startDateStruct":{"date":"2024-11-18","type":"ACTUAL"},"primaryCompletionDateStruct":{"date":"2029-02-05","type":"ESTIMATED"},"completionDateStruct":{"date":"2029-10-08","type":"ESTIMATED"},"studyFirstSubmitDate":"2024-10-04","studyFirstSubmitQcDate":"2024-11-14","studyFirstPostDateStruct":{"date":"2024-11-18","type":"ACTUAL"},"lastUpdateSubmitDate":"2025-06-12","lastUpdatePostDateStruct":{"date":"2025-06-13","type":"ACTUAL"}},"sponsorCollaboratorsModule":{"responsibleParty":{"type":"SPONSOR"},"leadSponsor":{"name":"AstraZeneca","class":"INDUSTRY"}},"oversightModule":{"oversightHasDmc":true,"isFdaRegulatedDrug":true,"isFdaRegulatedDevice":false},"descriptionModule":{"briefSummary":"The purpose of ARTEMIDE-Lung02 is to assess the efficacy and safety of rilvegostomig in combination with platinum-based chemotherapy for the first-line (1L) treatment of patients with metastatic squamous non-small cell lung cancer (mNSCLC) whose tumors express programmed death-ligand 1 (PD-L1).","detailedDescription":"This is a Phase III, two-arm, randomized, double-blind, global, multicenter study assessing the efficacy and safety of rilvegostomig compared to pembrolizumab, both in combination with platinum-based doublet chemotherapy, as a first-line (1L) treatment for patients with squamous metastatic non-small cell lung cancer (mNSCLC) whose tumors express PD-L1 (tumor cells (TC) ≥ 1%)."},"conditionsModule":{"conditions":["Non-small Cell Lung Cancer"],"keywords":["ARTEMIDE-Lung02","Rilvegostomig (AZD2936)","Non-small cell lung cancer (NSCLC)","Bi-specific antibody","T-cell immunoglobulin and immunoreceptor tyrosine-based inhibitory motif domain (TIGIT)","Programmed death-ligand 1 (PD-L1)","Pembrolizumab","Carboplatin","Paclitaxel","Nab-paclitaxel"]},"designModule":{"studyType":"INTERVENTIONAL","phases":["PHASE3"],"designInfo":{"allocation":"RANDOMIZED","interventionModel":"PARALLEL","interventionModelDescription":"Arm A: Rilvegostomig in combination with carboplatin and paclitaxel or nab-paclitaxel followed by rilvegostomig\n\nArm B: Pembrolizumab in combination with carboplatin and paclitaxel or nab-paclitaxel followed by pembrolizumab","primaryPurpose":"TREATMENT","maskingInfo":{"masking":"QUADRUPLE","maskingDescription":"Double-blind masking","whoMasked":["PARTICIPANT","CARE_PROVIDER","INVESTIGATOR","OUTCOMES_ASSESSOR"]}},"enrollmentInfo":{"count":880,"type":"ESTIMATED"}},"armsInterventionsModule":{"armGroups":[{"label":"Arm A","type":"EXPERIMENTAL","description":"Rilvegostomig in combination with carboplatin and paclitaxel or nab-paclitaxel followed by rilvegostomig","interventionNames":["Drug: Rilvegostomig","Drug: Carboplatin","Drug: Paclitaxel","Drug: Nab-paclitaxel"]},{"label":"Arm B","type":"ACTIVE_COMPARATOR","description":"Pembrolizumab in combination with carboplatin and paclitaxel or nab-paclitaxel followed by pembrolizumab","interventionNames":["Drug: Pembrolizumab","Drug: Carboplatin","Drug: Paclitaxel","Drug: Nab-paclitaxel"]}],"interventions":[{"type":"DRUG","name":"Rilvegostomig","description":"Administered intravenously (IV) on Day 1 of each 21-day cycle","armGroupLabels":["Arm A"],"otherNames":["AZD2936"]},{"type":"DRUG","name":"Pembrolizumab","description":"Administered intravenously (IV) on Day 1 of each 21-day cycle","armGroupLabels":["Arm B"],"otherNames":["Keytruda"]},{"type":"DRUG","name":"Carboplatin","description":"Administered intravenously (IV) on Day 1 of each 21-day cycle up to 4 cycles","armGroupLabels":["Arm A","Arm B"]},{"type":"DRUG","name":"Paclitaxel","description":"Administered intravenously (IV) on Day 1 of each 21-day cycle up to 4 cycles","armGroupLabels":["Arm A","Arm B"]},{"type":"DRUG","name":"Nab-paclitaxel","description":"Administered intravenously (IV) on Days 1, 8, and 15 of each 21-day cycle up to 4 cycles","armGroupLabels":["Arm A","Arm B"]}]},"outcomesModule":{"primaryOutcomes":[{"measure":"Overall survival (OS)","description":"OS is defined as the time from randomization until the date of death due to any cause.","timeFrame":"Up to approximately 5 years"},{"measure":"Progression-free survival (PFS)","description":"PFS is defined as the time from randomization until radiological progression per Response Evaluation Criteria in Solid Tumors, Version 1.1 (RECIST 1.1) or death due to any cause (in the absence of progression).","timeFrame":"Up to approximately 5 years"}],"secondaryOutcomes":[{"measure":"Landmark overall survival (OS) rates","description":"OS is defined as the time from randomization until the date of death due to any cause.","timeFrame":"Up to approximately 5 years"},{"measure":"Landmark progression-free survival (PFS) rates","description":"PFS is defined as the time from randomization until radiological progression per Response Evaluation Criteria in Solid Tumors, Version 1.1 (RECIST 1.1) or death due to any cause (in the absence of progression).","timeFrame":"Up to approximately 5 years"},{"measure":"Time to second progression or death (PFS2)","description":"PFS2 is defined as the time from randomization until the earliest of the progression event (following the initial progression event), after the start of the first subsequent therapy, or death from any cause, whichever occurs first. The date of the second progression will be recorded by the investigator in the electronic Case Report Form (eCRF) and defined according to local standard clinical practice.","timeFrame":"Up to approximately 5 years"},{"measure":"Overall response rate (ORR)","description":"ORR is defined as the proportion of participants who have a confirmed complete response (CR) or confirmed partial response (PR), by using Response Evaluation Criteria in Solid Tumors, Version 1.1 (RECIST 1.1).","timeFrame":"Up to approximately 5 years"},{"measure":"Duration of response (DoR)","description":"DoR is defined as the time from the date of first documented response until the date of documented progression using Response Evaluation Criteria in Solid Tumors, Version 1.1 (RECIST 1.1) or death due to any cause (in the absence of progression).","timeFrame":"Up to approximately 5 years"},{"measure":"Pharmacokinetic (PK) of rilvegostomig","description":"Concentration of rilvegostomig in serum.","timeFrame":"Up to approximately 5 years"},{"measure":"Immunogenicity of rilvegostomig","description":"Presence of antidrug antibodies (ADAs), titer, and neutralizing antibodies for rilvegostomig.","timeFrame":"Up to approximately 5 years"},{"measure":"Patient-reported physical functioning","description":"Proportion of participants with maintained or improved physical functioning as measured by Patient-Reported Outcomes Measurement Information System Physical Function - Short Form 8c - 7 day (PROMIS PF-SF 8c - 7 day) at each time point.","timeFrame":"Up to approximately 5 years"},{"measure":"Patient-reported global health status (GHS)/quality of life (QoL)","description":"Time to deterioration (TTD) of GHS/QoL as measured by the European Organization for Research and Treatment of Cancer Item Library 172 (EORTC IL172). TTD is defined as time from randomization to the date of first deterioration. Deterioration is defined as a worsening change from baseline that reaches a clinically meaningful change threshold.","timeFrame":"Up to approximately 5 years"},{"measure":"Patient-reported lung cancer symptoms of non-small cell lung cancer (NSCLC)","description":"Time to deterioration (TTD) in pulmonary symptoms as measured by the Non-Small Cell Lung Cancer Symptom Assessment Questionnaire (NSCLC-SAQ).\n\nTTD is defined as time from randomization to the date of first deterioration.","timeFrame":"Up to approximately 5 years"}]},"eligibilityModule":{"eligibilityCriteria":"Inclusion Criteria:\n\n* Histologically or cytologically documented squamous NSCLC.\n* Stage IV mNSCLC (based on the American Joint Committee on Cancer Edition 8) not amenable to curative treatment.\n* Absence of documented tumor genomic mutation results from tests conducted as part of standard local practice in any actionable driver oncogenes for which there are locally approved targeted 1L therapies.\n* Provision of acceptable tumor sample to confirm tumor PD-L1 expression TC ≥ 1%.\n* At least one lesion not previously irradiated that qualifies as a RECIST 1.1 TL at baseline and can be accurately measured at baseline as ≥ 10 mm in the longest diameter (except lymph nodes, which must have short axis ≥ 15 mm) with CT or MRI and is suitable for accurate repeated measurements.\n* Adequate organ and bone marrow function.\n\nExclusion Criteria:\n\n* Presence of small cell and neuroendocrine histology components.\n* Brain metastases unless asymptomatic, stable, and not requiring steroids or anticonvulsants for at least 7 days prior to randomization. A minimum of 2 weeks must have elapsed between the end of local therapy (brain radiotherapy or surgery) and randomization. Participants must have recovered from the acute toxic effect of radiotherapy (eg, dizziness and signs of increased intracranial pressure) or surgery prior to randomization.\n* Any prior systemic therapy received for advanced or mNSCLC.\n* Any prior treatment with an anti-PD-1 or anti-PD-L1 agent.\n* Any prior exposure to an anti-TIGIT therapy or any other anticancer therapy targeting immune-regulatory receptors or mechanisms.\n* History of another primary malignancy except for malignancy treated with curative intent with no known active disease ≥ 2 years before the first dose of study intervention and of low potential risk for recurrence.\n* Active or prior documented autoimmune or inflammatory disorders requiring chronic treatment with steroids or other immunosuppressive treatment.\n* Active primary immunodeficiency/active infectious disease(s).\n* Active tuberculosis infection.","healthyVolunteers":false,"sex":"ALL","minimumAge":"18 Years","stdAges":["ADULT","OLDER_ADULT"]},"contactsLocationsModule":{"centralContacts":[{"name":"AstraZeneca Clinical Study Information Center","role":"CONTACT","phone":"1-877-240-9479","email":"information.center@astrazeneca.com"}],"locations":[{"facility":"Research Site","status":"NOT_YET_RECRUITING","city":"Tucson","state":"Arizona","zip":"85724","country":"United States","geoPoint":{"lat":32.22174,"lon":-110.92648}},{"facility":"Research Site","status":"RECRUITING","city":"Springdale","state":"Arkansas","zip":"72762","country":"United States","geoPoint":{"lat":36.18674,"lon":-94.12881}},{"facility":"Research Site","status":"RECRUITING","city":"Beverly Hills","state":"California","zip":"90211","country":"United States","geoPoint":{"lat":34.07362,"lon":-118.40036}},{"facility":"Research Site","status":"RECRUITING","city":"Glendale","state":"California","zip":"91204","country":"United States","geoPoint":{"lat":34.14251,"lon":-118.25508}},{"facility":"Research Site","status":"RECRUITING","city":"Los Alamitos","state":"California","zip":"90720","country":"United States","geoPoint":{"lat":33.80307,"lon":-118.07256}},{"facility":"Research Site","status":"NOT_YET_RECRUITING","city":"Redlands","state":"California","zip":"92373","country":"United States","geoPoint":{"lat":34.05557,"lon":-117.18254}},{"facility":"Research Site","status":"NOT_YET_RECRUITING","city":"San Francisco","state":"California","zip":"94121","country":"United States","geoPoint":{"lat":37.77493,"lon":-122.41942}},{"facility":"Research Site","status":"NOT_YET_RECRUITING","city":"Walnut Creek","state":"California","zip":"94598","country":"United States","geoPoint":{"lat":37.90631,"lon":-122.06496}},{"facility":"Research Site","status":"NOT_YET_RECRUITING","city":"West Haven","state":"Connecticut","zip":"06516","country":"United States","geoPoint":{"lat":41.27065,"lon":-72.94705}},{"facility":"Research Site","status":"RECRUITING","city":"Newark","state":"Delaware","zip":"19713","country":"United States","geoPoint":{"lat":39.68372,"lon":-75.74966}},{"facility":"Research Site","status":"RECRUITING","city":"Bay Pines","state":"Florida","zip":"33744","country":"United States","geoPoint":{"lat":27.81419,"lon":-82.77816}},{"facility":"Research Site","status":"NOT_YET_RECRUITING","city":"Fort Lauderdale","state":"Florida","zip":"33308","country":"United States","geoPoint":{"lat":26.12231,"lon":-80.14338}},{"facility":"Research Site","status":"NOT_YET_RECRUITING","city":"Gainesville","state":"Florida","zip":"32608","country":"United States","geoPoint":{"lat":29.65163,"lon":-82.32483}},{"facility":"Research Site","status":"WITHDRAWN","city":"Gainesville","state":"Florida","zip":"32610","country":"United States","geoPoint":{"lat":29.65163,"lon":-82.32483}},{"facility":"Research Site","status":"NOT_YET_RECRUITING","city":"Jacksonville","state":"Florida","zip":"32224","country":"United States","geoPoint":{"lat":30.33218,"lon":-81.65565}},{"facility":"Research Site","status":"RECRUITING","city":"Athens","state":"Georgia","zip":"30607","country":"United States","geoPoint":{"lat":33.96095,"lon":-83.37794}},{"facility":"Research Site","status":"NOT_YET_RECRUITING","city":"Atlanta","state":"Georgia","zip":"30341","country":"United States","geoPoint":{"lat":33.749,"lon":-84.38798}},{"facility":"Research Site","status":"RECRUITING","city":"Boise","state":"Idaho","zip":"83712","country":"United States","geoPoint":{"lat":43.6135,"lon":-116.20345}},{"facility":"Research Site","status":"NOT_YET_RECRUITING","city":"Chicago","state":"Illinois","zip":"60637","country":"United States","geoPoint":{"lat":41.85003,"lon":-87.65005}},{"facility":"Research Site","status":"RECRUITING","city":"Decatur","state":"Illinois","zip":"62526","country":"United States","geoPoint":{"lat":39.84031,"lon":-88.9548}},{"facility":"Research Site","status":"NOT_YET_RECRUITING","city":"Quincy","state":"Illinois","zip":"62301","country":"United States","geoPoint":{"lat":39.9356,"lon":-91.40987}},{"facility":"Research Site","status":"NOT_YET_RECRUITING","city":"Waterloo","state":"Iowa","zip":"50702","country":"United States","geoPoint":{"lat":42.49276,"lon":-92.34296}},{"facility":"Research Site","status":"NOT_YET_RECRUITING","city":"Lexington","state":"Kentucky","zip":"40509","country":"United States","geoPoint":{"lat":37.98869,"lon":-84.47772}},{"facility":"Research Site","status":"NOT_YET_RECRUITING","city":"Lexington","state":"Kentucky","zip":"40536","country":"United States","geoPoint":{"lat":37.98869,"lon":-84.47772}},{"facility":"Research Site","status":"RECRUITING","city":"Louisville","state":"Kentucky","zip":"40202","country":"United States","geoPoint":{"lat":38.25424,"lon":-85.75941}},{"facility":"Research Site","status":"NOT_YET_RECRUITING","city":"Louisville","state":"Kentucky","zip":"40207","country":"United States","geoPoint":{"lat":38.25424,"lon":-85.75941}},{"facility":"Research Site","status":"NOT_YET_RECRUITING","city":"Alexandria","state":"Louisiana","zip":"71301","country":"United States","geoPoint":{"lat":31.31129,"lon":-92.44514}},{"facility":"Research Site","status":"NOT_YET_RECRUITING","city":"Baton Rouge","state":"Louisiana","zip":"70808","country":"United States","geoPoint":{"lat":30.45075,"lon":-91.15455}},{"facility":"Research Site","status":"RECRUITING","city":"Covington","state":"Louisiana","zip":"70433","country":"United States","geoPoint":{"lat":30.47549,"lon":-90.10042}},{"facility":"Research Site","status":"NOT_YET_RECRUITING","city":"Shreveport","state":"Louisiana","zip":"71103","country":"United States","geoPoint":{"lat":32.52515,"lon":-93.75018}},{"facility":"Research Site","status":"RECRUITING","city":"Shreveport","state":"Louisiana","zip":"71105","country":"United States","geoPoint":{"lat":32.52515,"lon":-93.75018}},{"facility":"Research Site","status":"NOT_YET_RECRUITING","city":"South Portland","state":"Maine","zip":"04106","country":"United States","geoPoint":{"lat":43.64147,"lon":-70.24088}},{"facility":"Research Site","status":"RECRUITING","city":"Baltimore","state":"Maryland","zip":"21202","country":"United States","geoPoint":{"lat":39.29038,"lon":-76.61219}},{"facility":"Research Site","status":"NOT_YET_RECRUITING","city":"Bethesda","state":"Maryland","zip":"20817","country":"United States","geoPoint":{"lat":38.98067,"lon":-77.10026}},{"facility":"Research Site","status":"RECRUITING","city":"Detroit","state":"Michigan","zip":"48202","country":"United States","geoPoint":{"lat":42.33143,"lon":-83.04575}},{"facility":"Research Site","status":"RECRUITING","city":"Grand Rapids","state":"Michigan","zip":"49503","country":"United States","geoPoint":{"lat":42.96336,"lon":-85.66809}},{"facility":"Research Site","status":"RECRUITING","city":"Duluth","state":"Minnesota","zip":"55802","country":"United States","geoPoint":{"lat":46.78327,"lon":-92.10658}},{"facility":"Research Site","status":"NOT_YET_RECRUITING","city":"Rochester","state":"Minnesota","zip":"55905","country":"United States","geoPoint":{"lat":44.02163,"lon":-92.4699}},{"facility":"Research Site","status":"NOT_YET_RECRUITING","city":"Bridgeton","state":"Missouri","zip":"63044","country":"United States","geoPoint":{"lat":38.767,"lon":-90.41151}},{"facility":"Research Site","status":"WITHDRAWN","city":"Columbia","state":"Missouri","zip":"65212","country":"United States","geoPoint":{"lat":38.95171,"lon":-92.33407}},{"facility":"Research Site","status":"NOT_YET_RECRUITING","city":"Kansas City","state":"Missouri","zip":"64108","country":"United States","geoPoint":{"lat":39.09973,"lon":-94.57857}},{"facility":"Research Site","status":"RECRUITING","city":"Omaha","state":"Nebraska","zip":"68130","country":"United States","geoPoint":{"lat":41.25626,"lon":-95.94043}},{"facility":"Research Site","status":"NOT_YET_RECRUITING","city":"Camden","state":"New Jersey","zip":"08103","country":"United States","geoPoint":{"lat":39.92595,"lon":-75.11962}},{"facility":"Research Site","status":"NOT_YET_RECRUITING","city":"Buffalo","state":"New York","zip":"14221","country":"United States","geoPoint":{"lat":42.88645,"lon":-78.87837}},{"facility":"Research Site","status":"RECRUITING","city":"East Syracuse","state":"New York","zip":"13057","country":"United States","geoPoint":{"lat":43.06534,"lon":-76.07853}},{"facility":"Research Site","status":"RECRUITING","city":"Westbury","state":"New York","zip":"11590","country":"United States","geoPoint":{"lat":40.75566,"lon":-73.58763}},{"facility":"Research Site","status":"RECRUITING","city":"Cincinnati","state":"Ohio","zip":"45267","country":"United States","geoPoint":{"lat":39.12713,"lon":-84.51435}},{"facility":"Research Site","status":"WITHDRAWN","city":"Bend","state":"Oregon","zip":"97701","country":"United States","geoPoint":{"lat":44.05817,"lon":-121.31531}},{"facility":"Research Site","status":"RECRUITING","city":"Medford","state":"Oregon","zip":"97504","country":"United States","geoPoint":{"lat":42.32652,"lon":-122.87559}},{"facility":"Research Site","status":"RECRUITING","city":"Salem","state":"Oregon","zip":"97301","country":"United States","geoPoint":{"lat":44.9429,"lon":-123.0351}},{"facility":"Research Site","status":"NOT_YET_RECRUITING","city":"Hershey","state":"Pennsylvania","zip":"17033","country":"United States","geoPoint":{"lat":40.28592,"lon":-76.65025}},{"facility":"Research Site","status":"RECRUITING","city":"York","state":"Pennsylvania","zip":"17403","country":"United States","geoPoint":{"lat":39.9626,"lon":-76.72774}},{"facility":"Research Site","status":"RECRUITING","city":"Sioux Falls","state":"South Dakota","zip":"57105","country":"United States","geoPoint":{"lat":43.54997,"lon":-96.70033}},{"facility":"Research Site","status":"RECRUITING","city":"Chattanooga","state":"Tennessee","zip":"37404","country":"United States","geoPoint":{"lat":35.04563,"lon":-85.30968}},{"facility":"Research Site","status":"RECRUITING","city":"Nashville","state":"Tennessee","zip":"37203","country":"United States","geoPoint":{"lat":36.16589,"lon":-86.78444}},{"facility":"Research Site","status":"RECRUITING","city":"Fort Worth","state":"Texas","zip":"76104","country":"United States","geoPoint":{"lat":32.72541,"lon":-97.32085}},{"facility":"Research Site","status":"RECRUITING","city":"Houston","state":"Texas","zip":"77090","country":"United States","geoPoint":{"lat":29.76328,"lon":-95.36327}},{"facility":"Research Site","status":"RECRUITING","city":"Kingwood","state":"Texas","zip":"77339","country":"United States","geoPoint":{"lat":30.03355,"lon":-95.26104}},{"facility":"Research Site","status":"NOT_YET_RECRUITING","city":"Lubbock","state":"Texas","zip":"79410","country":"United States","geoPoint":{"lat":33.57786,"lon":-101.85517}},{"facility":"Research Site","status":"NOT_YET_RECRUITING","city":"Round Rock","state":"Texas","zip":"78665","country":"United States","geoPoint":{"lat":30.50826,"lon":-97.6789}},{"facility":"Research Site","status":"RECRUITING","city":"Fairfax","state":"Virginia","zip":"22031","country":"United States","geoPoint":{"lat":38.84622,"lon":-77.30637}},{"facility":"Research Site","status":"NOT_YET_RECRUITING","city":"Fredericksburg","state":"Virginia","zip":"22408","country":"United States","geoPoint":{"lat":38.30318,"lon":-77.46054}},{"facility":"Research Site","status":"RECRUITING","city":"Olympia","state":"Washington","zip":"98506","country":"United States","geoPoint":{"lat":47.03787,"lon":-122.9007}},{"facility":"Research Site","status":"NOT_YET_RECRUITING","city":"Seattle","state":"Washington","zip":"98101","country":"United States","geoPoint":{"lat":47.60621,"lon":-122.33207}},{"facility":"Research Site","status":"NOT_YET_RECRUITING","city":"Silverdale","state":"Washington","zip":"98383","country":"United States","geoPoint":{"lat":47.64454,"lon":-122.69487}},{"facility":"Research Site","status":"NOT_YET_RECRUITING","city":"Spokane","state":"Washington","zip":"99208","country":"United States","geoPoint":{"lat":47.65966,"lon":-117.42908}},{"facility":"Research Site","status":"RECRUITING","city":"Tacoma","state":"Washington","zip":"98405","country":"United States","geoPoint":{"lat":47.25288,"lon":-122.44429}},{"facility":"Research Site","status":"WITHDRAWN","city":"Wenatchee","state":"Washington","zip":"98801","country":"United States","geoPoint":{"lat":47.42346,"lon":-120.31035}},{"facility":"Research Site","status":"RECRUITING","city":"Buenos Aires","zip":"C1431FWO","country":"Argentina","geoPoint":{"lat":-34.61315,"lon":-58.37723}},{"facility":"Research Site","status":"RECRUITING","city":"Caba","zip":"1425","country":"Argentina","geoPoint":{"lat":-34.61315,"lon":-58.37723}},{"facility":"Research Site","status":"WITHDRAWN","city":"La Plata","zip":"1900","country":"Argentina","geoPoint":{"lat":-34.92145,"lon":-57.95453}},{"facility":"Research Site","status":"RECRUITING","city":"Pilar","zip":"B1629ODT","country":"Argentina","geoPoint":{"lat":-31.6789,"lon":-63.87964}},{"facility":"Research Site","status":"RECRUITING","city":"Rosario","zip":"S2000DEJ","country":"Argentina","geoPoint":{"lat":-32.94682,"lon":-60.63932}},{"facility":"Research Site","status":"NOT_YET_RECRUITING","city":"Darlinghurst","zip":"2010","country":"Australia","geoPoint":{"lat":-33.87939,"lon":151.21925}},{"facility":"Research Site","status":"NOT_YET_RECRUITING","city":"Hyde Park","zip":"4812","country":"Australia","geoPoint":{"lat":-19.27691,"lon":146.79653}},{"facility":"Research Site","status":"NOT_YET_RECRUITING","city":"Southport","zip":"4215","country":"Australia","geoPoint":{"lat":-27.96724,"lon":153.39796}},{"facility":"Research Site","status":"NOT_YET_RECRUITING","city":"Wollongong","zip":"2500","country":"Australia","geoPoint":{"lat":-34.424,"lon":150.89345}},{"facility":"Research Site","status":"NOT_YET_RECRUITING","city":"Innsbruck","zip":"6020","country":"Austria","geoPoint":{"lat":47.26266,"lon":11.39454}},{"facility":"Research Site","status":"RECRUITING","city":"Krems","zip":"3500","country":"Austria","geoPoint":{"lat":48.40921,"lon":15.61415}},{"facility":"Research Site","status":"RECRUITING","city":"Rankweil","zip":"6830","country":"Austria","geoPoint":{"lat":47.27108,"lon":9.64308}},{"facility":"Research Site","status":"RECRUITING","city":"Wien","zip":"1160","country":"Austria","geoPoint":{"lat":48.20849,"lon":16.37208}},{"facility":"Research Site","status":"RECRUITING","city":"Wien","zip":"1210","country":"Austria","geoPoint":{"lat":48.20849,"lon":16.37208}},{"facility":"Research Site","status":"WITHDRAWN","city":"Anderlecht","zip":"1070","country":"Belgium","geoPoint":{"lat":50.83619,"lon":4.31454}},{"facility":"Research Site","status":"RECRUITING","city":"Brussels","zip":"1160","country":"Belgium","geoPoint":{"lat":50.85045,"lon":4.34878}},{"facility":"Research Site","status":"NOT_YET_RECRUITING","city":"Charleroi","zip":"6060","country":"Belgium","geoPoint":{"lat":50.41136,"lon":4.44448}},{"facility":"Research Site","status":"NOT_YET_RECRUITING","city":"Kortrijk","zip":"8500","country":"Belgium","geoPoint":{"lat":50.82803,"lon":3.26487}},{"facility":"Research Site","status":"WITHDRAWN","city":"Sint-Niklaas","zip":"9100","country":"Belgium","geoPoint":{"lat":51.16509,"lon":4.1437}},{"facility":"Research Site","status":"RECRUITING","city":"Barretos","zip":"14784-400","country":"Brazil","geoPoint":{"lat":-20.55722,"lon":-48.56778}},{"facility":"Research Site","status":"RECRUITING","city":"Florianópolis","zip":"88034-000","country":"Brazil","geoPoint":{"lat":-27.59667,"lon":-48.54917}},{"facility":"Research Site","status":"RECRUITING","city":"Ijuí","zip":"98700-000","country":"Brazil","geoPoint":{"lat":-28.38778,"lon":-53.91472}},{"facility":"Research Site","status":"RECRUITING","city":"Londrina","zip":"86015-520","country":"Brazil","geoPoint":{"lat":-23.31028,"lon":-51.16278}},{"facility":"Research Site","status":"RECRUITING","city":"Porto Alegre","zip":"91350-200","country":"Brazil","geoPoint":{"lat":-30.03306,"lon":-51.23}},{"facility":"Research Site","status":"RECRUITING","city":"Salvador","zip":"40050 410","country":"Brazil","geoPoint":{"lat":-12.97111,"lon":-38.51083}},{"facility":"Research Site","status":"RECRUITING","city":"Sao Paulo","zip":"01246-000","country":"Brazil","geoPoint":{"lat":-23.5475,"lon":-46.63611}},{"facility":"Research Site","status":"RECRUITING","city":"Sao Paulo","zip":"05652-900","country":"Brazil","geoPoint":{"lat":-23.5475,"lon":-46.63611}},{"facility":"Research Site","status":"WITHDRAWN","city":"Taubaté","zip":"12030-200","country":"Brazil","geoPoint":{"lat":-23.02639,"lon":-45.55528}},{"facility":"Research Site","status":"RECRUITING","city":"Saint John","state":"New Brunswick","zip":"E2L 4L2","country":"Canada","geoPoint":{"lat":45.2727,"lon":-66.06769}},{"facility":"Research Site","status":"NOT_YET_RECRUITING","city":"Sydney","state":"Nova Scotia","zip":"B1P 1P3","country":"Canada","geoPoint":{"lat":46.13511,"lon":-60.1831}},{"facility":"Research Site","status":"RECRUITING","city":"Hamilton","state":"Ontario","zip":"L8V 1C3","country":"Canada","geoPoint":{"lat":43.25011,"lon":-79.84963}},{"facility":"Research Site","status":"NOT_YET_RECRUITING","city":"Sault Ste. Marie","state":"Ontario","zip":"P6A 0A8","country":"Canada","geoPoint":{"lat":46.51677,"lon":-84.33325}},{"facility":"Research Site","status":"RECRUITING","city":"Montreal","state":"Quebec","zip":"H4A 3J1","country":"Canada","geoPoint":{"lat":45.50884,"lon":-73.58781}},{"facility":"Research Site","status":"RECRUITING","city":"Montréal","state":"Quebec","zip":"H2X 0A9","country":"Canada","geoPoint":{"lat":45.50884,"lon":-73.58781}},{"facility":"Research Site","status":"NOT_YET_RECRUITING","city":"Beijing","zip":"100021","country":"China","geoPoint":{"lat":39.9075,"lon":116.39723}},{"facility":"Research Site","status":"RECRUITING","city":"Beijing","zip":"100029","country":"China","geoPoint":{"lat":39.9075,"lon":116.39723}},{"facility":"Research Site","status":"NOT_YET_RECRUITING","city":"Beijing","zip":"100142","country":"China","geoPoint":{"lat":39.9075,"lon":116.39723}},{"facility":"Research Site","status":"NOT_YET_RECRUITING","city":"Beijing","zip":"101149","country":"China","geoPoint":{"lat":39.9075,"lon":116.39723}},{"facility":"Research Site","status":"RECRUITING","city":"Beijing","zip":"CN-100730","country":"China","geoPoint":{"lat":39.9075,"lon":116.39723}},{"facility":"Research Site","status":"RECRUITING","city":"Changchun","zip":"130012","country":"China","geoPoint":{"lat":43.88,"lon":125.32278}},{"facility":"Research Site","status":"RECRUITING","city":"Changde","zip":"415003","country":"China","geoPoint":{"lat":29.04638,"lon":111.6783}},{"facility":"Research Site","status":"RECRUITING","city":"Changsha","zip":"410013","country":"China","geoPoint":{"lat":28.19874,"lon":112.97087}},{"facility":"Research Site","status":"RECRUITING","city":"Chengdu","zip":"610041","country":"China","geoPoint":{"lat":30.66667,"lon":104.06667}},{"facility":"Research Site","status":"RECRUITING","city":"Chengdu","zip":"610072","country":"China","geoPoint":{"lat":30.66667,"lon":104.06667}},{"facility":"Research Site","status":"RECRUITING","city":"Chongqing","zip":"400030","country":"China","geoPoint":{"lat":29.56278,"lon":106.55278}},{"facility":"Research Site","status":"RECRUITING","city":"Dalian","zip":"116001","country":"China","geoPoint":{"lat":38.91222,"lon":121.60222}},{"facility":"Research Site","status":"RECRUITING","city":"Guangzhou","zip":"510062","country":"China","geoPoint":{"lat":23.11667,"lon":113.25}},{"facility":"Research Site","status":"RECRUITING","city":"Guangzhou","zip":"510100","country":"China","geoPoint":{"lat":23.11667,"lon":113.25}},{"facility":"Research Site","status":"NOT_YET_RECRUITING","city":"Hangzhou","zip":"310003","country":"China","geoPoint":{"lat":30.29365,"lon":120.16142}},{"facility":"Research Site","status":"RECRUITING","city":"Hangzhou","zip":"310016","country":"China","geoPoint":{"lat":30.29365,"lon":120.16142}},{"facility":"Research Site","status":"RECRUITING","city":"Hangzhou","zip":"310022","country":"China","geoPoint":{"lat":30.29365,"lon":120.16142}},{"facility":"Research Site","status":"NOT_YET_RECRUITING","city":"Harbin","zip":"150081","country":"China","geoPoint":{"lat":45.75,"lon":126.65}},{"facility":"Research Site","status":"RECRUITING","city":"Hefei","zip":"230001","country":"China","geoPoint":{"lat":31.86389,"lon":117.28083}},{"facility":"Research Site","status":"RECRUITING","city":"Hefei","zip":"230601","country":"China","geoPoint":{"lat":31.86389,"lon":117.28083}},{"facility":"Research Site","status":"RECRUITING","city":"Jinan","zip":"250117","country":"China","geoPoint":{"lat":36.66833,"lon":116.99722}},{"facility":"Research Site","status":"RECRUITING","city":"Kunming","zip":"650118","country":"China","geoPoint":{"lat":25.03889,"lon":102.71833}},{"facility":"Research Site","status":"RECRUITING","city":"Linhai","zip":"317000","country":"China","geoPoint":{"lat":28.85535,"lon":121.14469}},{"facility":"Research Site","status":"RECRUITING","city":"Linyi","zip":"276001","country":"China","geoPoint":{"lat":35.06306,"lon":118.34278}},{"facility":"Research Site","status":"RECRUITING","city":"Nanchang","zip":"330008","country":"China","geoPoint":{"lat":28.68396,"lon":115.85306}},{"facility":"Research Site","status":"RECRUITING","city":"Ningbo","zip":"315010","country":"China","geoPoint":{"lat":29.87819,"lon":121.54945}},{"facility":"Research Site","status":"NOT_YET_RECRUITING","city":"Shanghai","zip":"200030","country":"China","geoPoint":{"lat":31.22222,"lon":121.45806}},{"facility":"Research Site","status":"RECRUITING","city":"Shanghai","zip":"200032","country":"China","geoPoint":{"lat":31.22222,"lon":121.45806}},{"facility":"Research Site","status":"RECRUITING","city":"Shanghai","zip":"200433","country":"China","geoPoint":{"lat":31.22222,"lon":121.45806}},{"facility":"Research Site","status":"NOT_YET_RECRUITING","city":"Shenyang","zip":"110004","country":"China","geoPoint":{"lat":41.79222,"lon":123.43278}},{"facility":"Research Site","status":"RECRUITING","city":"Shenzhen","zip":"518020","country":"China","geoPoint":{"lat":22.54554,"lon":114.0683}},{"facility":"Research Site","status":"NOT_YET_RECRUITING","city":"Taiyuan","zip":"030000","country":"China","geoPoint":{"lat":37.86944,"lon":112.56028}},{"facility":"Research Site","status":"RECRUITING","city":"Tianjin","zip":"300050","country":"China","geoPoint":{"lat":39.14222,"lon":117.17667}},{"facility":"Research Site","status":"RECRUITING","city":"Wenzhou","zip":"CN-325000","country":"China","geoPoint":{"lat":27.99942,"lon":120.66682}},{"facility":"Research Site","status":"NOT_YET_RECRUITING","city":"Wuhan","zip":"430030","country":"China","geoPoint":{"lat":30.58333,"lon":114.26667}},{"facility":"Research Site","status":"RECRUITING","city":"Xi'an","zip":"710061","country":"China","geoPoint":{"lat":34.25833,"lon":108.92861}},{"facility":"Research Site","status":"RECRUITING","city":"Yangzhou","zip":"225001","country":"China","geoPoint":{"lat":32.39722,"lon":119.43583}},{"facility":"Research Site","status":"RECRUITING","city":"Yueyang","zip":"414000","country":"China","geoPoint":{"lat":29.37455,"lon":113.09481}},{"facility":"Research Site","status":"RECRUITING","city":"Zhengzhou","zip":"450008","country":"China","geoPoint":{"lat":34.75778,"lon":113.64861}},{"facility":"Research Site","status":"RECRUITING","city":"Zhengzhou","zip":"450052","country":"China","geoPoint":{"lat":34.75778,"lon":113.64861}},{"facility":"Research Site","status":"RECRUITING","city":"Avignon","zip":"84902","country":"France","geoPoint":{"lat":43.94834,"lon":4.80892}},{"facility":"Research Site","status":"RECRUITING","city":"La Rochelle Cedex","zip":"17019","country":"France","geoPoint":{"lat":46.16667,"lon":-1.15}},{"facility":"Research Site","status":"NOT_YET_RECRUITING","city":"Lyon","zip":"69008","country":"France","geoPoint":{"lat":45.74848,"lon":4.84669}},{"facility":"Research Site","status":"RECRUITING","city":"Nimes","zip":"30029","country":"France","geoPoint":{"lat":43.83333,"lon":4.35}},{"facility":"Research Site","status":"NOT_YET_RECRUITING","city":"Rennes","zip":"35033","country":"France","geoPoint":{"lat":48.11198,"lon":-1.67429}},{"facility":"Research Site","status":"RECRUITING","city":"Strasbourg Cedex","zip":"67091","country":"France","geoPoint":{"lat":48.58392,"lon":7.74553}},{"facility":"Research Site","status":"NOT_YET_RECRUITING","city":"Suresnes","zip":"92150","country":"France","geoPoint":{"lat":48.87143,"lon":2.22929}},{"facility":"Research Site","status":"RECRUITING","city":"Toulon Cedex 9","zip":"83800","country":"France","geoPoint":{"lat":43.12442,"lon":5.92836}},{"facility":"Research Site","status":"NOT_YET_RECRUITING","city":"Bad Berka","zip":"99437","country":"Germany","geoPoint":{"lat":50.89982,"lon":11.28245}},{"facility":"Research Site","status":"RECRUITING","city":"Berlin","zip":"13125","country":"Germany","geoPoint":{"lat":52.52437,"lon":13.41053}},{"facility":"Research Site","status":"RECRUITING","city":"Berlin","zip":"13585","country":"Germany","geoPoint":{"lat":52.52437,"lon":13.41053}},{"facility":"Research Site","status":"NOT_YET_RECRUITING","city":"Esslingen","zip":"73730","country":"Germany","geoPoint":{"lat":48.73961,"lon":9.30473}},{"facility":"Research Site","status":"NOT_YET_RECRUITING","city":"Frankfurt","zip":"60488","country":"Germany","geoPoint":{"lat":50.11552,"lon":8.68417}},{"facility":"Research Site","status":"NOT_YET_RECRUITING","city":"Gauting","zip":"82131","country":"Germany","geoPoint":{"lat":48.06919,"lon":11.37703}},{"facility":"Research Site","status":"NOT_YET_RECRUITING","city":"Giessen","zip":"35392","country":"Germany","geoPoint":{"lat":50.58727,"lon":8.67554}},{"facility":"Research Site","status":"NOT_YET_RECRUITING","city":"Großhansdorf","zip":"22927","country":"Germany","geoPoint":{"lat":53.66667,"lon":10.28333}},{"facility":"Research Site","status":"RECRUITING","city":"Hamburg","zip":"20251","country":"Germany","geoPoint":{"lat":53.57532,"lon":10.01534}},{"facility":"Research Site","status":"NOT_YET_RECRUITING","city":"Hannover","zip":"30459","country":"Germany","geoPoint":{"lat":52.37052,"lon":9.73322}},{"facility":"Research Site","status":"RECRUITING","city":"Hannover","zip":"30625","country":"Germany","geoPoint":{"lat":52.37052,"lon":9.73322}},{"facility":"Research Site","status":"RECRUITING","city":"Heidelberg","zip":"69126","country":"Germany","geoPoint":{"lat":49.40768,"lon":8.69079}},{"facility":"Research Site","status":"NOT_YET_RECRUITING","city":"Hemer","zip":"58675","country":"Germany","geoPoint":{"lat":51.38707,"lon":7.77019}},{"facility":"Research Site","status":"NOT_YET_RECRUITING","city":"Homburg","zip":"66424","country":"Germany","geoPoint":{"lat":49.32637,"lon":7.33867}},{"facility":"Research Site","status":"NOT_YET_RECRUITING","city":"Kassel","zip":"34125","country":"Germany","geoPoint":{"lat":51.31667,"lon":9.5}},{"facility":"Research Site","status":"NOT_YET_RECRUITING","city":"Kiel","zip":"24105","country":"Germany","geoPoint":{"lat":54.32133,"lon":10.13489}},{"facility":"Research Site","status":"NOT_YET_RECRUITING","city":"Krefeld","zip":"47805","country":"Germany","geoPoint":{"lat":51.33645,"lon":6.55382}},{"facility":"Research Site","status":"RECRUITING","city":"Köln","zip":"51109","country":"Germany","geoPoint":{"lat":50.93333,"lon":6.95}},{"facility":"Research Site","status":"RECRUITING","city":"Minden","zip":"32429","country":"Germany","geoPoint":{"lat":52.28953,"lon":8.91455}},{"facility":"Research Site","status":"NOT_YET_RECRUITING","city":"Moers","zip":"47441","country":"Germany","geoPoint":{"lat":51.45342,"lon":6.6326}},{"facility":"Research Site","status":"NOT_YET_RECRUITING","city":"München","zip":"81925","country":"Germany","geoPoint":{"lat":48.13743,"lon":11.57549}},{"facility":"Research Site","status":"RECRUITING","city":"Regensburg","zip":"93053","country":"Germany","geoPoint":{"lat":49.01513,"lon":12.10161}},{"facility":"Research Site","status":"NOT_YET_RECRUITING","city":"Würzburg","zip":"97067","country":"Germany","geoPoint":{"lat":49.79391,"lon":9.95121}},{"facility":"Research Site","status":"NOT_YET_RECRUITING","city":"Budapest","zip":"1083","country":"Hungary","geoPoint":{"lat":47.49801,"lon":19.03991}},{"facility":"Research Site","status":"NOT_YET_RECRUITING","city":"Budapest","zip":"1121","country":"Hungary","geoPoint":{"lat":47.49801,"lon":19.03991}},{"facility":"Research Site","status":"NOT_YET_RECRUITING","city":"Budapest","zip":"1122","country":"Hungary","geoPoint":{"lat":47.49801,"lon":19.03991}},{"facility":"Research Site","status":"RECRUITING","city":"Debrecen","zip":"4032","country":"Hungary","geoPoint":{"lat":47.53333,"lon":21.63333}},{"facility":"Research Site","status":"NOT_YET_RECRUITING","city":"Gyöngyös","zip":"3200","country":"Hungary","geoPoint":{"lat":47.78257,"lon":19.928}},{"facility":"Research Site","status":"NOT_YET_RECRUITING","city":"Győr","zip":"9024","country":"Hungary","geoPoint":{"lat":47.68333,"lon":17.63512}},{"facility":"Research Site","status":"RECRUITING","city":"Pécs","zip":"7624","country":"Hungary","geoPoint":{"lat":46.08333,"lon":18.23333}},{"facility":"Research Site","status":"NOT_YET_RECRUITING","city":"Székesfehérvár","zip":"8000","country":"Hungary","geoPoint":{"lat":47.18995,"lon":18.41034}},{"facility":"Research Site","status":"RECRUITING","city":"Törökbálint","zip":"2045","country":"Hungary","geoPoint":{"lat":47.42931,"lon":18.91356}},{"facility":"Research Site","status":"NOT_YET_RECRUITING","city":"Calicut","zip":"673601","country":"India","geoPoint":{"lat":11.24802,"lon":75.7804}},{"facility":"Research Site","status":"NOT_YET_RECRUITING","city":"Delhi","zip":"110029","country":"India","geoPoint":{"lat":28.65195,"lon":77.23149}},{"facility":"Research Site","status":"NOT_YET_RECRUITING","city":"Kolkata","zip":"700054","country":"India","geoPoint":{"lat":22.56263,"lon":88.36304}},{"facility":"Research Site","status":"NOT_YET_RECRUITING","city":"Madurai","zip":"625107","country":"India","geoPoint":{"lat":9.91769,"lon":78.11898}},{"facility":"Research Site","status":"NOT_YET_RECRUITING","city":"Mumbai","zip":"400012","country":"India","geoPoint":{"lat":19.07283,"lon":72.88261}},{"facility":"Research Site","status":"NOT_YET_RECRUITING","city":"Nashik","zip":"422002","country":"India","geoPoint":{"lat":19.99727,"lon":73.79096}},{"facility":"Research Site","status":"NOT_YET_RECRUITING","city":"New Delhi","zip":"110075","country":"India","geoPoint":{"lat":28.63576,"lon":77.22445}},{"facility":"Research Site","status":"NOT_YET_RECRUITING","city":"Pondicherry","zip":"605006","country":"India","geoPoint":{"lat":11.93381,"lon":79.82979}},{"facility":"Research Site","status":"NOT_YET_RECRUITING","city":"Surat","zip":"395017","country":"India","geoPoint":{"lat":21.19594,"lon":72.83023}},{"facility":"Research Site","status":"NOT_YET_RECRUITING","city":"Varanasi","zip":"221005","country":"India","geoPoint":{"lat":25.31668,"lon":83.01041}},{"facility":"Research Site","status":"RECRUITING","city":"Firenze","zip":"50134","country":"Italy","geoPoint":{"lat":43.77925,"lon":11.24626}},{"facility":"Research Site","status":"NOT_YET_RECRUITING","city":"Monza","zip":"20900","country":"Italy","geoPoint":{"lat":45.58005,"lon":9.27246}},{"facility":"Research Site","status":"RECRUITING","city":"Orbassano","zip":"10043","country":"Italy","geoPoint":{"lat":45.00547,"lon":7.53813}},{"facility":"Research Site","status":"NOT_YET_RECRUITING","city":"Padova","zip":"35128","country":"Italy","geoPoint":{"lat":45.40797,"lon":11.88586}},{"facility":"Research Site","status":"RECRUITING","city":"Peschiera Del Garda","zip":"37019","country":"Italy","geoPoint":{"lat":45.43912,"lon":10.68614}},{"facility":"Research Site","status":"RECRUITING","city":"Roma","zip":"00168","country":"Italy","geoPoint":{"lat":41.89193,"lon":12.51133}},{"facility":"Research Site","status":"RECRUITING","city":"Amagasaki-shi","zip":"660-8550","country":"Japan","geoPoint":{"lat":34.71667,"lon":135.41667}},{"facility":"Research Site","status":"RECRUITING","city":"Bunkyo-ku","zip":"113-8603","country":"Japan","geoPoint":{"lat":35.37517,"lon":139.92991}},{"facility":"Research Site","status":"RECRUITING","city":"Chuo-ku","zip":"104-0045","country":"Japan","geoPoint":{"lat":35.57779,"lon":139.71685}},{"facility":"Research Site","status":"RECRUITING","city":"Fukuoka-shi","zip":"812-8582","country":"Japan","geoPoint":{"lat":33.6,"lon":130.41667}},{"facility":"Research Site","status":"RECRUITING","city":"Fukuoka-shi","zip":"814-0180","country":"Japan","geoPoint":{"lat":33.6,"lon":130.41667}},{"facility":"Research Site","status":"RECRUITING","city":"Hiroshima-shi","zip":"734-8551","country":"Japan","geoPoint":{"lat":34.4,"lon":132.45}},{"facility":"Research Site","status":"RECRUITING","city":"Kawagoe-shi","zip":"350-8550","country":"Japan","geoPoint":{"lat":35.90861,"lon":139.48528}},{"facility":"Research Site","status":"RECRUITING","city":"Kitaadachi-gun","zip":"362-0806","country":"Japan"},{"facility":"Research Site","status":"RECRUITING","city":"Kitakyushu-shi","zip":"807-8555","country":"Japan","geoPoint":{"lat":33.85181,"lon":130.85034}},{"facility":"Research Site","status":"RECRUITING","city":"Kobe-shi","zip":"650-0017","country":"Japan","geoPoint":{"lat":34.6913,"lon":135.183}},{"facility":"Research Site","status":"RECRUITING","city":"Koto-ku","zip":"135-8550","country":"Japan","geoPoint":{"lat":35.66667,"lon":139.81718}},{"facility":"Research Site","status":"RECRUITING","city":"Kumamoto-shi","zip":"860-8556","country":"Japan","geoPoint":{"lat":32.80589,"lon":130.69182}},{"facility":"Research Site","status":"RECRUITING","city":"Matsusaka-shi","zip":"515-8544","country":"Japan"},{"facility":"Research Site","status":"RECRUITING","city":"Osaka-shi","zip":"541-8567","country":"Japan","geoPoint":{"lat":34.69374,"lon":135.50218}},{"facility":"Research Site","status":"RECRUITING","city":"Osakasayama","zip":"589-8511","country":"Japan","geoPoint":{"lat":34.69374,"lon":135.50218}},{"facility":"Research Site","status":"RECRUITING","city":"Ota-shi","zip":"373-8550","country":"Japan","geoPoint":{"lat":36.3,"lon":139.36667}},{"facility":"Research Site","status":"RECRUITING","city":"Saitama-shi","zip":"338-0001","country":"Japan","geoPoint":{"lat":35.90807,"lon":139.65657}},{"facility":"Research Site","status":"RECRUITING","city":"Sendai-shi","zip":"981-0914","country":"Japan","geoPoint":{"lat":38.26667,"lon":140.86667}},{"facility":"Research Site","status":"RECRUITING","city":"Shinjuku-ku","zip":"160-0023","country":"Japan","geoPoint":{"lat":35.2946,"lon":139.57059}},{"facility":"Research Site","status":"RECRUITING","city":"Yokohama-shi","zip":"236-0024","country":"Japan","geoPoint":{"lat":35.43333,"lon":139.65}},{"facility":"Research Site","status":"RECRUITING","city":"Yokohama-shi","zip":"241-8515","country":"Japan","geoPoint":{"lat":35.43333,"lon":139.65}},{"facility":"Research Site","status":"RECRUITING","city":"Cheongju-si","zip":"28644","country":"Korea, Republic of","geoPoint":{"lat":36.63722,"lon":127.48972}},{"facility":"Research Site","status":"RECRUITING","city":"Incheon","zip":"21565","country":"Korea, Republic of","geoPoint":{"lat":37.45646,"lon":126.70515}},{"facility":"Research Site","status":"RECRUITING","city":"Seoul","zip":"03080","country":"Korea, Republic of","geoPoint":{"lat":37.566,"lon":126.9784}},{"facility":"Research Site","status":"RECRUITING","city":"Seoul","zip":"03722","country":"Korea, Republic of","geoPoint":{"lat":37.566,"lon":126.9784}},{"facility":"Research Site","status":"RECRUITING","city":"Seoul","zip":"05505","country":"Korea, Republic of","geoPoint":{"lat":37.566,"lon":126.9784}},{"facility":"Research Site","status":"RECRUITING","city":"Seoul","zip":"06351","country":"Korea, Republic of","geoPoint":{"lat":37.566,"lon":126.9784}},{"facility":"Research Site","status":"RECRUITING","city":"Suwon-si","zip":"16247","country":"Korea, Republic of","geoPoint":{"lat":37.29111,"lon":127.00889}},{"facility":"Research Site","status":"RECRUITING","city":"Suwon-si","zip":"16499","country":"Korea, Republic of","geoPoint":{"lat":37.29111,"lon":127.00889}},{"facility":"Research Site","status":"RECRUITING","city":"George Town","zip":"10450","country":"Malaysia","geoPoint":{"lat":5.41123,"lon":100.33543}},{"facility":"Research Site","status":"RECRUITING","city":"Johor Bahru","zip":"81100","country":"Malaysia","geoPoint":{"lat":1.4655,"lon":103.7578}},{"facility":"Research Site","status":"RECRUITING","city":"Kuala Lumpur","zip":"59100","country":"Malaysia","geoPoint":{"lat":3.1412,"lon":101.68653}},{"facility":"Research Site","status":"RECRUITING","city":"Alkmaar","zip":"1815 JD","country":"Netherlands","geoPoint":{"lat":52.63167,"lon":4.74861}},{"facility":"Research Site","status":"NOT_YET_RECRUITING","city":"Ede","zip":"6716 RP","country":"Netherlands","geoPoint":{"lat":52.03333,"lon":5.65833}},{"facility":"Research Site","status":"WITHDRAWN","city":"Groningen","zip":"9713 GZ","country":"Netherlands","geoPoint":{"lat":53.21917,"lon":6.56667}},{"facility":"Research Site","status":"RECRUITING","city":"Leidschendam","zip":"2262 BA","country":"Netherlands","geoPoint":{"lat":52.08833,"lon":4.39444}},{"facility":"Research Site","status":"NOT_YET_RECRUITING","city":"Veldhoven","zip":"5504 DB","country":"Netherlands","geoPoint":{"lat":51.41833,"lon":5.40278}},{"facility":"Research Site","status":"NOT_YET_RECRUITING","city":"Zwolle","zip":"8025 AB","country":"Netherlands","geoPoint":{"lat":52.5125,"lon":6.09444}},{"facility":"Research Site","status":"NOT_YET_RECRUITING","city":"Lima","zip":"15036","country":"Peru","geoPoint":{"lat":-12.04318,"lon":-77.02824}},{"facility":"Research Site","status":"NOT_YET_RECRUITING","city":"Lima","zip":"15102","country":"Peru","geoPoint":{"lat":-12.04318,"lon":-77.02824}},{"facility":"Research Site","status":"NOT_YET_RECRUITING","city":"Lima","zip":"34","country":"Peru","geoPoint":{"lat":-12.04318,"lon":-77.02824}},{"facility":"Research Site","status":"NOT_YET_RECRUITING","city":"Lima","zip":"L27","country":"Peru","geoPoint":{"lat":-12.04318,"lon":-77.02824}},{"facility":"Research Site","status":"NOT_YET_RECRUITING","city":"Lima","zip":"LIMA 29","country":"Peru","geoPoint":{"lat":-12.04318,"lon":-77.02824}},{"facility":"Research Site","status":"NOT_YET_RECRUITING","city":"Lima","zip":"Lima39","country":"Peru","geoPoint":{"lat":-12.04318,"lon":-77.02824}},{"facility":"Research Site","status":"SUSPENDED","city":"Biała Podlaska","zip":"21-500","country":"Poland","geoPoint":{"lat":52.03238,"lon":23.11652}},{"facility":"Research Site","status":"NOT_YET_RECRUITING","city":"Białystok","zip":"15-027","country":"Poland","geoPoint":{"lat":53.13333,"lon":23.16433}},{"facility":"Research Site","status":"SUSPENDED","city":"Bydgoszcz","zip":"85-796","country":"Poland","geoPoint":{"lat":53.1235,"lon":18.00762}},{"facility":"Research Site","status":"NOT_YET_RECRUITING","city":"Bystra","zip":"43-360","country":"Poland","geoPoint":{"lat":49.76042,"lon":19.05973}},{"facility":"Research Site","status":"RECRUITING","city":"Poznań","zip":"60-569","country":"Poland","geoPoint":{"lat":52.40692,"lon":16.92993}},{"facility":"Research Site","status":"NOT_YET_RECRUITING","city":"Warszawa","zip":"04-141","country":"Poland","geoPoint":{"lat":52.22977,"lon":21.01178}},{"facility":"Research Site","status":"RECRUITING","city":"Łódź","zip":"93-338","country":"Poland","geoPoint":{"lat":51.75,"lon":19.46667}},{"facility":"Research Site","status":"NOT_YET_RECRUITING","city":"San Juan","zip":"00909","country":"Puerto Rico","geoPoint":{"lat":18.46633,"lon":-66.10572}},{"facility":"Research Site","status":"NOT_YET_RECRUITING","city":"San Juan","zip":"00918","country":"Puerto Rico","geoPoint":{"lat":18.46633,"lon":-66.10572}},{"facility":"Research Site","status":"NOT_YET_RECRUITING","city":"Barcelona","zip":"8035","country":"Spain","geoPoint":{"lat":41.38879,"lon":2.15899}},{"facility":"Research Site","status":"RECRUITING","city":"Las Palmas de Gran Canaria","zip":"35016","country":"Spain","geoPoint":{"lat":28.09973,"lon":-15.41343}},{"facility":"Research Site","status":"RECRUITING","city":"Lérida","zip":"25198","country":"Spain","geoPoint":{"lat":41.61674,"lon":0.62218}},{"facility":"Research Site","status":"RECRUITING","city":"Madrid","zip":"28007","country":"Spain","geoPoint":{"lat":40.4165,"lon":-3.70256}},{"facility":"Research Site","status":"RECRUITING","city":"Madrid","zip":"28034","country":"Spain","geoPoint":{"lat":40.4165,"lon":-3.70256}},{"facility":"Research Site","status":"RECRUITING","city":"Majadahonda","zip":"28222","country":"Spain","geoPoint":{"lat":40.47353,"lon":-3.87182}},{"facility":"Research Site","status":"RECRUITING","city":"Sevilla","zip":"41013","country":"Spain","geoPoint":{"lat":37.38283,"lon":-5.97317}},{"facility":"Research Site","status":"RECRUITING","city":"Kaohsiung","zip":"80756","country":"Taiwan","geoPoint":{"lat":22.61626,"lon":120.31333}},{"facility":"Research Site","status":"RECRUITING","city":"Kaohsiung","zip":"824","country":"Taiwan","geoPoint":{"lat":22.61626,"lon":120.31333}},{"facility":"Research Site","status":"RECRUITING","city":"New Taipei City","zip":"23561","country":"Taiwan","geoPoint":{"lat":25.01111,"lon":121.44583}},{"facility":"Research Site","status":"RECRUITING","city":"New Taipei","zip":"220","country":"Taiwan","geoPoint":{"lat":25.01111,"lon":121.44583}},{"facility":"Research Site","status":"RECRUITING","city":"Taichung","zip":"402","country":"Taiwan","geoPoint":{"lat":24.1469,"lon":120.6839}},{"facility":"Research Site","status":"RECRUITING","city":"Taichung","country":"Taiwan","geoPoint":{"lat":24.1469,"lon":120.6839}},{"facility":"Research Site","status":"RECRUITING","city":"Tainan City","zip":"73657","country":"Taiwan","geoPoint":{"lat":22.99083,"lon":120.21333}},{"facility":"Research Site","status":"RECRUITING","city":"Taoyuan","zip":"333","country":"Taiwan","geoPoint":{"lat":24.95233,"lon":121.20193}},{"facility":"Research Site","status":"RECRUITING","city":"Bangkok","zip":"10700","country":"Thailand","geoPoint":{"lat":13.75398,"lon":100.50144}},{"facility":"Research Site","status":"RECRUITING","city":"Chiang Mai","zip":"50200","country":"Thailand","geoPoint":{"lat":18.79038,"lon":98.98468}},{"facility":"Research Site","status":"RECRUITING","city":"Dusit","zip":"10300","country":"Thailand","geoPoint":{"lat":13.7775,"lon":100.51977}},{"facility":"Research Site","status":"RECRUITING","city":"Nakhon Ratchasima","zip":"30000","country":"Thailand","geoPoint":{"lat":14.97066,"lon":102.10196}},{"facility":"Research Site","status":"RECRUITING","city":"Songkla","zip":"90110","country":"Thailand","geoPoint":{"lat":7.19882,"lon":100.5951}},{"facility":"Research Site","status":"RECRUITING","city":"Antalya","zip":"07058","country":"Turkey","geoPoint":{"lat":36.90812,"lon":30.69556}},{"facility":"Research Site","status":"RECRUITING","city":"Istanbul","zip":"34098","country":"Turkey","geoPoint":{"lat":41.01384,"lon":28.94966}},{"facility":"Research Site","status":"RECRUITING","city":"Yenimahalle","zip":"06170","country":"Turkey"},{"facility":"Research Site","status":"NOT_YET_RECRUITING","city":"Aberdeen","zip":"AB25 2ZN","country":"United Kingdom","geoPoint":{"lat":57.14369,"lon":-2.09814}},{"facility":"Research Site","status":"RECRUITING","city":"Cambridge","zip":"CB2 0QQ","country":"United Kingdom","geoPoint":{"lat":52.2,"lon":0.11667}},{"facility":"Research Site","status":"NOT_YET_RECRUITING","city":"Edinburgh","zip":"EH4 2XU","country":"United Kingdom","geoPoint":{"lat":55.95206,"lon":-3.19648}},{"facility":"Research Site","status":"WITHDRAWN","city":"Exeter","zip":"EX2 5DW","country":"United Kingdom","geoPoint":{"lat":50.7236,"lon":-3.52751}},{"facility":"Research Site","status":"RECRUITING","city":"Greater London","zip":"SW3 6JJ","country":"United Kingdom"},{"facility":"Research Site","status":"RECRUITING","city":"London","zip":"EC1A 7BE","country":"United Kingdom","geoPoint":{"lat":51.50853,"lon":-0.12574}},{"facility":"Research Site","status":"RECRUITING","city":"London","zip":"SE1 9RT","country":"United Kingdom","geoPoint":{"lat":51.50853,"lon":-0.12574}},{"facility":"Research Site","status":"RECRUITING","city":"Manchester","zip":"M20 4BX","country":"United Kingdom","geoPoint":{"lat":53.48095,"lon":-2.23743}},{"facility":"Research Site","status":"RECRUITING","city":"Newcastle upon Tyne","zip":"NE7 7AF","country":"United Kingdom","geoPoint":{"lat":54.97328,"lon":-1.61396}},{"facility":"Research Site","status":"NOT_YET_RECRUITING","city":"Preston","zip":"PR2 9HT","country":"United Kingdom","geoPoint":{"lat":53.76282,"lon":-2.70452}},{"facility":"Research Site","status":"RECRUITING","city":"Can Tho","zip":"900000","country":"Vietnam","geoPoint":{"lat":10.03711,"lon":105.78825}},{"facility":"Research Site","status":"RECRUITING","city":"Hanoi","zip":"100000","country":"Vietnam","geoPoint":{"lat":21.0245,"lon":105.84117}},{"facility":"Research Site","status":"RECRUITING","city":"Ho Chi Minh City","zip":"700000","country":"Vietnam","geoPoint":{"lat":10.82302,"lon":106.62965}},{"facility":"Research Site","status":"RECRUITING","city":"Ho Chi Minh","zip":"700000","country":"Vietnam","geoPoint":{"lat":10.82302,"lon":106.62965}},{"facility":"Research Site","status":"RECRUITING","city":"Vinh","zip":"460000","country":"Vietnam","geoPoint":{"lat":18.67337,"lon":105.69232}}]},"ipdSharingStatementModule":{"ipdSharing":"YES","description":"Qualified researchers can request access to anonymized individual patient-level data from AstraZeneca (AZ) group of companies sponsored clinical trials via the request portal Vivli.org. All requests will be evaluated as per the AZ disclosure commitment:\n\nhttps://astrazenecagrouptrials.pharmacm.com/ST/Submission/Disclosure. \"Yes\", indicates that AZ are accepting requests for Important Protocol Deviation (IPD), but this does not mean all requests will be approved.","infoTypes":["STUDY_PROTOCOL","SAP"],"timeFrame":"AstraZeneca will meet or exceed data availability as per the commitments made to the European Federation of Pharmaceutical Industries and Associations (EFPIA)/Pharmaceutical Research and Manufacturers of America (PhRMA) Data-Sharing Principles. For details of our timelines, please refer to our disclosure commitment at https://astrazenecagrouptrials.pharmacm.com/ST/Submission/Disclosure","accessCriteria":"When a request has been approved AstraZeneca will provide access to the anonymized individual patient-level data via secure research environment Vivli.org. A Signed Data Usage Agreement (non-negotiable contract for data accessors) must be in place before accessing requested information.","url":"https://vivli.org/"}},"derivedSection":{"miscInfoModule":{"versionHolder":"2025-07-07"},"conditionBrowseModule":{"meshes":[{"id":"D008175","term":"Lung Neoplasms"},{"id":"D002289","term":"Carcinoma, Non-Small-Cell Lung"}],"ancestors":[{"id":"D012142","term":"Respiratory Tract Neoplasms"},{"id":"D013899","term":"Thoracic Neoplasms"},{"id":"D009371","term":"Neoplasms by Site"},{"id":"D009369","term":"Neoplasms"},{"id":"D008171","term":"Lung Diseases"},{"id":"D012140","term":"Respiratory Tract Diseases"},{"id":"D002283","term":"Carcinoma, Bronchogenic"},{"id":"D001984","term":"Bronchial Neoplasms"}],"browseLeaves":[{"id":"M11172","name":"Lung Neoplasms","asFound":"Lung Cancer","relevance":"HIGH"},{"id":"M5546","name":"Carcinoma, Non-Small-Cell Lung","asFound":"Non-small Cell Lung Cancer","relevance":"HIGH"},{"id":"M6845","name":"Death","relevance":"LOW"},{"id":"M5534","name":"Carcinoma","relevance":"LOW"},{"id":"M14979","name":"Respiratory Tract Neoplasms","relevance":"LOW"},{"id":"M16658","name":"Thoracic Neoplasms","relevance":"LOW"},{"id":"M11168","name":"Lung Diseases","relevance":"LOW"},{"id":"M14977","name":"Respiratory Tract Diseases","relevance":"LOW"},{"id":"M5540","name":"Carcinoma, Bronchogenic","relevance":"LOW"},{"id":"M5260","name":"Bronchial Neoplasms","relevance":"LOW"}],"browseBranches":[{"abbrev":"BC04","name":"Neoplasms"},{"abbrev":"BC08","name":"Respiratory Tract (Lung and Bronchial) Diseases"},{"abbrev":"All","name":"All Conditions"},{"abbrev":"BC23","name":"Symptoms and General Pathology"}]},"interventionBrowseModule":{"meshes":[{"id":"D017239","term":"Paclitaxel"},{"id":"D000068196","term":"Albumin-Bound Paclitaxel"},{"id":"D016190","term":"Carboplatin"},{"id":"C582435","term":"Pembrolizumab"}],"ancestors":[{"id":"D000972","term":"Antineoplastic Agents, Phytogenic"},{"id":"D000970","term":"Antineoplastic Agents"},{"id":"D050257","term":"Tubulin Modulators"},{"id":"D050256","term":"Antimitotic Agents"},{"id":"D050258","term":"Mitosis Modulators"},{"id":"D045504","term":"Molecular Mechanisms of Pharmacological Action"},{"id":"D000074322","term":"Antineoplastic Agents, Immunological"},{"id":"D000082082","term":"Immune Checkpoint Inhibitors"}],"browseLeaves":[{"id":"M4225","name":"Antibodies","relevance":"LOW"},{"id":"M10184","name":"Immunoglobulins","relevance":"LOW"},{"id":"M20194","name":"Antibodies, Bispecific","relevance":"LOW"},{"id":"M19537","name":"Paclitaxel","asFound":"Surgery","relevance":"HIGH"},{"id":"M18650","name":"Carboplatin","asFound":"Total","relevance":"HIGH"},{"id":"M231","name":"Albumin-Bound Paclitaxel","asFound":"Surgery","relevance":"HIGH"},{"id":"M349416","name":"Pembrolizumab","asFound":"Type","relevance":"HIGH"},{"id":"M19117","name":"Immunoglobulins, Intravenous","relevance":"LOW"},{"id":"M26197","name":"Tubulin Modulators","relevance":"LOW"},{"id":"M26196","name":"Antimitotic Agents","relevance":"LOW"},{"id":"M1346","name":"Antineoplastic Agents, Immunological","relevance":"LOW"},{"id":"M2342","name":"Immune Checkpoint Inhibitors","relevance":"LOW"},{"id":"T22","name":"Tyrosine","relevance":"LOW"}],"browseBranches":[{"abbrev":"All","name":"All Drugs and Chemicals"},{"abbrev":"ANeo","name":"Antineoplastic Agents"},{"abbrev":"AA","name":"Amino Acids"}]}},"hasResults":false}